Time_stamp,fault_status_word_1,fault_status_word_2,fault_status_word_3,fault_status_word_4,mcu_0_fault_status,mcu_1_fault_status,mcu_2_fault_status,mcu_3_fault_status,operational_time,operational_state,dynamic_response,min_propulsion_batt_soc,aux_batt_soc,inertial_x_acc_g,inertial_y_acc_g,inertial_x_rate_rps,inertial_y_rate_rps,inertial_z_rate_rps,pse_pitch_deg,pse_pitch_rate_dps,pse_roll_deg,pse_roll_rate_dps,pse_yaw_rate_dps,pse_data_is_valid,yaw_rate_limit_rps,vel_limit_mps,linear_accel_mps2,linear_vel_mps,differential_wheel_vel_rps,right_front_vel_mps,left_front_vel_mps,right_rear_vel_mps,left_rear_vel_mps,right_front_pos_m,left_front_pos_m,right_rear_pos_m,left_rear_pos_m,linear_pos_m,right_front_current_A0pk,left_front_current_A0pk,right_rear_current_A0pk,left_rear_current_A0pk,max_motor_current_A0pk,right_front_current_limit_A0pk,left_front_current_limit_A0pk,right_rear_current_limit_A0pk,left_rear_current_limit_A0pk,min_motor_current_limit_A0pk,front_base_batt_1_soc,front_base_batt_2_soc,rear_base_batt_1_soc,rear_base_batt_2_soc,front_base_batt_1_temp_degC,front_base_batt_2_temp_degC,rear_base_batt_1_temp_degC,rear_base_batt_2_temp_degC,vel_target_mps,yaw_rate_target_rps,angle_target_deg,aux_batt_voltage_V,aux_batt_current_A,aux_batt_temp_degC,abb_system_status,aux_batt_status,aux_batt_faults,7p2V_battery_voltage,ccu_sp_sw_build_id,ccu_uip_sw_build_id,mcu_0_inst_power_W,mcu_1_inst_power_W,mcu_2_inst_power_W,mcu_3_inst_power_W,mcu_0_total_energy_Wh,mcu_1_total_energy_Wh,mcu_2_total_energy_Wh,mcu_3_total_energy_Wh,fram_vel_limit_mps,fram_accel_limit_mps2,fram_decel_limit_mps2,fram_dtz_decel_limit_mps2,fram_coastdown_decel_mps2,fram_yaw_rate_limit_rps,fram_yaw_accel_limit_rps2,fram_tire_diameter_m,fram_wheelbase_length_m,fram_wheel_track_width_m,fram_transmission_ratio,fram_config_bitmap,fram_eth_ip_address,fram_eth_port_number,fram_eth_subnet_mask,fram_eth_gateway,user_feedback_bitmap_1,user_feedback_bitmap_2,user_feedback_bitmap_3,user_feedback_bitmap_4,
0.0775370597839,0x00000000,0x00000000,0x00000000,0x00000000,0x00000000,0x00000000,0x00000000,0x00000000,11.29,3,0x00000000,96.484,97.647,0.002,-0.021,-0.024,-0.008,-0.006,-2.039,-0.832,-0.903,-0.963,-1.671,0x00000000,0.0,0.0,-0.003,0.0,0.003,-0.001,0.001,0.0,0.0,-0.002,-0.002,0.0,0.0,-0.002,0.636,0.0,0.0,0.0,0.636,34.991,34.991,0.0,0.0,0.0,96.484,96.484,0.0,0.0,26.375,26.25,0.0,0.0,0.0,0.0,90.0,76.727,0.109,27.438,0x00000000,0x00000000,0x00000000,0.0,1246,1279,5.445,6.023,0.0,0.0,0.006,0.004,0.0,0.0,1.0,0.981,0.981,0.981,0.196,1.0,1.0,0.462,0.584,0.57,24.267,0x00000101,192.168.0.40,8080,255.255.255.0,192.168.0.1,0xFFFFFFFF,0xFFFFFFFF,0xFFFFFFFF,0x00000000,
0.127598047256,0x00000000,0x00000000,0x00000000,0x00000000,0x00000000,0x00000000,0x00000000,0x00000000,11.34,3,0x00000000,96.484,97.647,0.003,-0.02,-0.017,-0.025,-0.013,-2.062,-0.866,-0.917,-0.685,-0.622,0x00000000,0.0,0.0,0.003,0.0,0.003,-0.001,0.001,0.0,0.0,-0.002,-0.002,0.0,0.0,-0.002,0.534,-0.114,0.0,0.0,0.534,34.991,34.991,0.0,0.0,0.0,96.484,96.484,0.0,0.0,26.375,26.25,0.0,0.0,0.0,0.0,90.0,76.727,0.109,27.438,0x00000000,0x00000000,0x00000000,0.0,1246,1279,9.024,4.302,0.0,0.0,0.006,0.004,0.0,0.0,1.0,0.981,0.981,0.981,0.196,1.0,1.0,0.462,0.584,0.57,24.267,0x00000101,192.168.0.40,8080,255.255.255.0,192.168.0.1,0xFFFFFFFF,0xFFFFFFFF,0xFFFFFFFF,0x00000000,
0.177573919296,0x00000000,0x00000000,0x00000000,0x00000000,0x00000000,0x00000000,0x00000000,0x00000000,11.39,3,0x00000000,96.484,97.647,0.002,-0.021,-0.023,-0.021,-0.012,-2.074,-1.047,-0.936,0.093,0.416,0x00000000,0.0,0.0,-0.0,0.0,0.002,-0.001,0.001,0.0,0.0,-0.002,-0.002,0.0,0.0,-0.002,0.534,-0.191,0.0,0.0,0.534,34.991,34.991,0.0,0.0,0.0,96.484,96.484,0.0,0.0,26.375,26.25,0.0,0.0,0.0,0.0,90.0,76.727,0.109,27.438,0x00000000,0x00000000,0x00000000,0.0,1246,1279,8.539,4.408,0.0,0.0,0.006,0.004,0.0,0.0,1.0,0.981,0.981,0.981,0.196,1.0,1.0,0.462,0.584,0.57,24.267,0x00000101,192.168.0.40,8080,255.255.255.0,192.168.0.1,0xFFFFFFFF,0xFFFFFFFF,0xFFFFFFFF,0x00000000,
0.227675914764,0x00000000,0x00000000,0x00000000,0x00000000,0x00000000,0x00000000,0x00000000,0x00000000,11.44,3,0x00000000,96.484,97.647,0.003,-0.021,-0.016,-0.026,-0.0,-2.092,-0.933,-0.973,-1.162,-0.273,0x00000000,0.0,0.0,0.0,-0.0,0.002,-0.001,0.0,0.0,0.0,-0.002,-0.002,0.0,0.0,-0.002,0.534,-0.064,0.0,0.0,0.534,34.991,34.991,0.0,0.0,0.0,96.484,96.484,0.0,0.0,26.375,26.25,0.0,0.0,0.0,0.0,90.0,76.727,0.109,27.438,0x00000000,0x00000000,0x00000000,0.0,1246,1279,6.769,3.564,0.0,0.0,0.006,0.004,0.0,0.0,1.0,0.981,0.981,0.981,0.196,1.0,1.0,0.462,0.584,0.57,24.267,0x00000101,192.168.0.40,8080,255.255.255.0,192.168.0.1,0xFFFFFFFF,0xFFFFFFFF,0xFFFFFFFF,0x00000000,
0.277690887451,0x00000000,0x00000000,0x00000000,0x00000000,0x00000000,0x00000000,0x00000000,0x00000000,11.49,3,0x00000000,96.484,97.647,0.004,-0.022,-0.039,-0.017,-0.019,-2.123,-0.926,-1.0,-0.619,1.47,0x00000000,0.0,0.0,0.004,-0.0,0.002,-0.0,0.001,0.0,0.0,-0.002,-0.002,0.0,0.0,-0.002,0.445,0.013,0.0,0.0,0.445,34.991,34.991,0.0,0.0,0.0,96.484,96.484,0.0,0.0,26.375,26.25,0.0,0.0,0.0,0.0,90.0,76.727,0.109,27.438,0x00000000,0x00000000,0x00000000,0.0,1246,1279,6.511,4.714,0.0,0.0,0.006,0.004,0.0,0.0,1.0,0.981,0.981,0.981,0.196,1.0,1.0,0.462,0.584,0.57,24.267,0x00000101,192.168.0.40,8080,255.255.255.0,192.168.0.1,0xFFFFFFFF,0xFFFFFFFF,0xFFFFFFFF,0x00000000,
0.327809095383,0x00000000,0x00000000,0x00000000,0x00000000,0x00000000,0x00000000,0x00000000,0x00000000,11.54,3,0x00000000,96.484,97.647,0.003,-0.021,-0.014,-0.017,-0.024,-2.157,-1.027,-1.017,-0.431,-0.959,0x00000000,0.0,0.0,0.008,0.0,0.003,-0.001,0.001,0.0,0.0,-0.002,-0.002,0.0,0.0,-0.002,0.636,-0.191,0.0,0.0,0.636,34.991,34.991,0.0,0.0,0.0,96.484,96.484,0.0,0.0,26.375,26.25,0.0,0.0,0.0,0.0,90.0,76.727,0.109,27.438,0x00000000,0x00000000,0x00000000,0.0,1246,1279,6.01,5.849,0.0,0.0,0.006,0.004,0.0,0.0,1.0,0.981,0.981,0.981,0.196,1.0,1.0,0.462,0.584,0.57,24.267,0x00000101,192.168.0.40,8080,255.255.255.0,192.168.0.1,0xFFFFFFFF,0xFFFFFFFF,0xFFFFFFFF,0x00000000,
0.928787946701,0x00000000,0x00000000,0x00000000,0x00000000,0x00000000,0x00000000,0x00000000,0x00000000,12.14,3,0x00000000,96.484,97.647,0.003,-0.022,-0.004,-0.017,-0.03,-2.234,-0.356,-1.242,-0.896,-1.282,0x00000000,0.0,0.0,0.002,-0.0,0.002,0.0,0.0,0.0,0.0,-0.002,-0.002,0.0,0.0,-0.002,0.534,-0.114,0.0,0.0,0.534,34.991,34.991,0.0,0.0,0.0,96.484,96.484,0.0,0.0,26.375,26.25,0.0,0.0,0.0,0.0,90.0,76.727,0.109,27.438,0x00000000,0x00000000,0x00000000,0.0,1246,1279,7.91,1.923,0.0,0.0,0.007,0.005,0.0,0.0,1.0,0.981,0.981,0.981,0.196,1.0,1.0,0.462,0.584,0.57,24.267,0x00000101,192.168.0.40,8080,255.255.255.0,192.168.0.1,0xFFFFFFFF,0xFFFFFFFF,0xFFFFFFFF,0x00000000,
0.978818893433,0x00000000,0x00000000,0x00000000,0x00000000,0x00000000,0x00000000,0x00000000,0x00000000,12.19,3,0x00000000,96.484,97.647,0.003,-0.022,-0.028,0.0,0.012,-2.224,-0.676,-1.252,-0.598,0.108,0x00000000,0.0,0.0,-0.001,0.0,0.002,-0.0,0.0,0.0,0.0,-0.002,-0.002,0.0,0.0,-0.002,0.432,-0.191,0.0,0.0,0.432,34.991,34.991,0.0,0.0,0.0,96.484,96.484,0.0,0.0,26.375,26.25,0.0,0.0,0.0,0.0,90.0,76.727,0.109,27.438,0x00000000,0x00000000,0x00000000,0.0,1246,1279,8.856,4.477,0.0,0.0,0.007,0.005,0.0,0.0,1.0,0.981,0.981,0.981,0.196,1.0,1.0,0.462,0.584,0.57,24.267,0x00000101,192.168.0.40,8080,255.255.255.0,192.168.0.1,0xFFFFFFFF,0xFFFFFFFF,0xFFFFFFFF,0x00000000,
1.02893209457,0x00000000,0x00000000,0x00000000,0x00000000,0x00000000,0x00000000,0x00000000,0x00000000,12.24,3,0x00000000,96.484,97.647,0.004,-0.021,-0.02,-0.008,-0.018,-2.237,-0.628,-1.251,-1.13,-1.28,0x00000000,0.0,0.0,-0.003,-0.0,0.001,-0.0,-0.0,0.0,0.0,-0.002,-0.002,0.0,0.0,-0.002,0.432,0.076,0.0,0.0,0.432,34.991,34.991,0.0,0.0,0.0,96.484,96.484,0.0,0.0,26.375,26.25,0.0,0.0,0.0,0.0,90.0,76.727,0.109,27.438,0x00000000,0x00000000,0x00000000,0.0,1246,1279,2.908,8.418,0.0,0.0,0.008,0.005,0.0,0.0,1.0,0.981,0.981,0.981,0.196,1.0,1.0,0.462,0.584,0.57,24.267,0x00000101,192.168.0.40,8080,255.255.255.0,192.168.0.1,0xFFFFFFFF,0xFFFFFFFF,0xFFFFFFFF,0x00000000,
1.07897400856,0x00000000,0x00000000,0x00000000,0x00000000,0x00000000,0x00000000,0x00000000,0x00000000,12.29,3,0x00000000,96.484,97.647,0.003,-0.02,-0.018,-0.026,0.012,-2.231,0.183,-1.242,-0.559,1.483,0x00000000,0.0,0.0,-0.004,-0.0,0.002,-0.001,0.001,0.0,0.0,-0.002,-0.002,0.0,0.0,-0.002,0.432,-0.114,0.0,0.0,0.432,34.991,34.991,0.0,0.0,0.0,96.484,96.484,0.0,0.0,26.375,26.25,0.0,0.0,0.0,0.0,90.0,76.727,0.109,27.438,0x00000000,0x00000000,0x00000000,0.0,1246,1279,7.111,8.765,0.0,0.0,0.008,0.005,0.0,0.0,1.0,0.981,0.981,0.981,0.196,1.0,1.0,0.462,0.584,0.57,24.267,0x00000101,192.168.0.40,8080,255.255.255.0,192.168.0.1,0xFFFFFFFF,0xFFFFFFFF,0xFFFFFFFF,0x00000000,
1.12908196449,0x00000000,0x00000000,0x00000000,0x00000000,0x00000000,0x00000000,0x00000000,0x00000000,12.34,3,0x00000000,96.484,97.647,0.003,-0.021,-0.006,-0.017,0.012,-2.219,-0.063,-1.258,-0.881,-1.285,0x00000000,0.0,0.0,-0.008,0.0,0.003,-0.001,0.001,0.0,0.0,-0.002,-0.002,0.0,0.0,-0.002,0.331,0.0,0.0,0.0,0.331,34.991,34.991,0.0,0.0,0.0,96.484,96.484,0.0,0.0,26.375,26.25,0.0,0.0,0.0,0.0,90.0,76.727,0.109,27.438,0x00000000,0x00000000,0x00000000,0.0,1246,1279,5.855,4.953,0.0,0.0,0.008,0.005,0.0,0.0,1.0,0.981,0.981,0.981,0.196,1.0,1.0,0.462,0.584,0.57,24.267,0x00000101,192.168.0.40,8080,255.255.255.0,192.168.0.1,0xFFFFFFFF,0xFFFFFFFF,0xFFFFFFFF,0x00000000,
1.93036389351,0x00000000,0x00000000,0x00000000,0x00000000,0x00000000,0x00000000,0x00000000,0x00000000,13.14,3,0x00000000,96.484,97.647,0.003,-0.021,-0.013,-0.013,-0.018,-2.132,-0.106,-1.46,-0.263,0.131,0x00000000,0.0,0.0,0.008,0.0,0.002,-0.0,0.001,0.0,0.0,-0.002,-0.002,0.0,0.0,-0.002,0.432,-0.114,0.0,0.0,0.432,34.991,34.991,0.0,0.0,0.0,96.484,96.484,0.0,0.0,26.375,26.25,0.0,0.0,0.0,0.0,90.0,76.727,0.109,27.438,0x00000000,0x00000000,0x00000000,0.0,1246,1279,7.605,4.393,0.0,0.0,0.009,0.006,0.0,0.0,1.0,0.981,0.981,0.981,0.196,1.0,1.0,0.462,0.584,0.57,24.267,0x00000101,192.168.0.40,8080,255.255.255.0,192.168.0.1,0xFFFFFFFF,0xFFFFFFFF,0xFFFFFFFF,0x00000000,
1.98038506508,0x00000000,0x00000000,0x00000000,0x00000000,0x00000000,0x00000000,0x00000000,0x00000000,13.19,3,0x00000000,96.484,97.647,0.003,-0.021,-0.018,-0.026,0.012,-2.114,-0.345,-1.449,-0.513,-0.203,0x00000000,0.0,0.0,0.002,0.0,0.002,-0.0,0.001,0.0,0.0,-0.002,-0.002,0.0,0.0,-0.002,0.534,-0.114,0.0,0.0,0.534,34.991,34.991,0.0,0.0,0.0,96.484,96.484,0.0,0.0,26.375,26.25,0.0,0.0,0.0,0.0,90.0,76.727,0.109,27.438,0x00000000,0x00000000,0x00000000,0.0,1246,1279,5.538,4.763,0.0,0.0,0.009,0.006,0.0,0.0,1.0,0.981,0.981,0.981,0.196,1.0,1.0,0.462,0.584,0.57,24.267,0x00000101,192.168.0.40,8080,255.255.255.0,192.168.0.1,0xFFFFFFFF,0xFFFFFFFF,0xFFFFFFFF,0x00000000,
2.03051900864,0x00000000,0x00000000,0x00000000,0x00000000,0x00000000,0x00000000,0x00000000,0x00000000,13.24,3,0x00000000,96.484,97.647,0.003,-0.021,-0.018,-0.021,-0.0,-2.107,-0.446,-1.451,-0.477,0.835,0x00000000,0.0,0.0,-0.003,0.0,0.001,-0.0,0.0,0.0,0.0,-0.002,-0.002,0.0,0.0,-0.002,0.432,-0.114,0.0,0.0,0.432,34.991,34.991,0.0,0.0,0.0,96.484,96.484,0.0,0.0,26.375,26.25,0.0,0.0,0.0,0.0,90.0,76.727,0.109,27.438,0x00000000,0x00000000,0x00000000,0.0,1246,1279,7.044,4.6,0.0,0.0,0.009,0.006,0.0,0.0,1.0,0.981,0.981,0.981,0.196,1.0,1.0,0.462,0.584,0.57,24.267,0x00000101,192.168.0.40,8080,255.255.255.0,192.168.0.1,0xFFFFFFFF,0xFFFFFFFF,0xFFFFFFFF,0x00000000,
2.08055305481,0x00000000,0x00000000,0x00000000,0x00000000,0x00000000,0x00000000,0x00000000,0x00000000,13.29,3,0x00000000,96.484,97.647,0.003,-0.021,-0.02,-0.012,-0.019,-2.104,-0.071,-1.443,-0.247,0.136,0x00000000,0.0,0.0,-0.009,-0.0,0.001,-0.001,0.0,0.0,0.0,-0.002,-0.002,0.0,0.0,-0.002,0.534,-0.064,0.0,0.0,0.534,34.991,34.991,0.0,0.0,0.0,96.484,96.484,0.0,0.0,26.375,26.25,0.0,0.0,0.0,0.0,90.0,76.727,0.109,27.438,0x00000000,0x00000000,0x00000000,0.0,1246,1279,8.083,1.395,0.0,0.0,0.009,0.006,0.0,0.0,1.0,0.981,0.981,0.981,0.196,1.0,1.0,0.462,0.584,0.57,24.267,0x00000101,192.168.0.40,8080,255.255.255.0,192.168.0.1,0xFFFFFFFF,0xFFFFFFFF,0xFFFFFFFF,0x00000000,
2.13069605827,0x00000000,0x00000000,0x00000000,0x00000000,0x00000000,0x00000000,0x00000000,0x00000000,13.34,3,0x00000000,96.484,97.647,0.003,-0.021,-0.01,-0.012,-0.043,-2.093,-0.254,-1.451,-0.278,-1.244,0x00000000,0.0,0.0,0.006,0.0,0.001,0.0,0.0,0.0,0.0,-0.002,-0.002,0.0,0.0,-0.002,0.636,-0.114,0.0,0.0,0.636,34.991,34.991,0.0,0.0,0.0,96.484,96.484,0.0,0.0,26.375,26.25,0.0,0.0,0.0,0.0,90.0,76.727,0.109,27.438,0x00000000,0x00000000,0x00000000,0.0,1246,1279,7.97,1.612,0.0,0.0,0.01,0.006,0.0,0.0,1.0,0.981,0.981,0.981,0.196,1.0,1.0,0.462,0.584,0.57,24.267,0x00000101,192.168.0.40,8080,255.255.255.0,192.168.0.1,0xFFFFFFFF,0xFFFFFFFF,0xFFFFFFFF,0x00000000,
2.97197699547,0x00000000,0x00000000,0x00000000,0x00000000,0x00000000,0x00000000,0x00000000,0x00000000,14.18,3,0x00000000,96.484,97.647,0.004,-0.021,-0.004,-0.004,-0.024,-1.896,0.038,-1.495,-0.657,-0.187,0x00000003,0.0,0.0,0.0,-0.0,0.001,-0.0,0.0,0.0,0.0,-0.002,-0.002,0.0,0.0,-0.002,0.534,-0.114,0.0,0.0,0.534,34.991,34.991,0.0,0.0,0.0,96.484,96.484,0.0,0.0,26.375,26.25,0.0,0.0,0.0,0.0,90.0,76.727,0.109,27.438,0x00000000,0x00000000,0x00000000,0.0,1246,1279,7.361,4.145,0.0,0.0,0.011,0.007,0.0,0.0,1.0,0.981,0.981,0.981,0.196,1.0,1.0,0.462,0.584,0.57,24.267,0x00000101,192.168.0.40,8080,255.255.255.0,192.168.0.1,0xFFFFFFFF,0xFFFFFFFF,0xFFFFFFFF,0x00000000,
3.02209591866,0x00000000,0x00000000,0x00000000,0x00000000,0x00000000,0x00000000,0x00000000,0x00000000,14.23,3,0x00000000,96.484,97.647,0.002,-0.022,-0.014,-0.008,-0.019,-1.874,0.467,-1.517,-1.938,-1.916,0x00000003,0.0,0.0,0.013,0.0,0.001,0.0,0.002,0.0,0.0,-0.002,-0.002,0.0,0.0,-0.002,0.432,0.0,0.0,0.0,0.432,34.991,34.991,0.0,0.0,0.0,96.484,96.484,0.0,0.0,26.375,26.25,0.0,0.0,0.0,0.0,90.0,76.727,0.109,27.438,0x00000000,0x00000000,0x00000000,0.0,1246,1279,6.421,4.754,0.0,0.0,0.011,0.007,0.0,0.0,1.0,0.981,0.981,0.981,0.196,1.0,1.0,0.462,0.584,0.57,24.267,0x00000101,192.168.0.40,8080,255.255.255.0,192.168.0.1,0xFFFFFFFF,0xFFFFFFFF,0xFFFFFFFF,0x00000000,
3.07212710381,0x00000000,0x00000000,0x00000000,0x00000000,0x00000000,0x00000000,0x00000000,0x00000000,14.28,3,0x00000000,96.484,97.647,0.003,-0.021,-0.017,-0.021,-0.019,-1.852,0.3,-1.523,-0.682,-1.571,0x00000003,0.0,0.0,-0.005,0.001,0.001,0.0,0.001,0.0,0.0,-0.002,-0.002,0.0,0.0,-0.002,0.432,-0.064,0.0,0.0,0.432,34.991,34.991,0.0,0.0,0.0,96.484,96.484,0.0,0.0,26.375,26.25,0.0,0.0,0.0,0.0,90.0,76.727,0.109,27.438,0x00000000,0x00000000,0x00000000,0.0,1246,1279,7.196,3.409,0.0,0.0,0.011,0.007,0.0,0.0,1.0,0.981,0.981,0.981,0.196,1.0,1.0,0.462,0.584,0.57,24.267,0x00000101,192.168.0.40,8080,255.255.255.0,192.168.0.1,0xFFFFFFFF,0xFFFFFFFF,0xFFFFFFFF,0x00000000,
3.12225604057,0x00000000,0x00000000,0x00000000,0x00000000,0x00000000,0x00000000,0x00000000,0x00000000,14.33,3,0x00000000,96.484,97.647,0.003,-0.022,-0.004,-0.03,-0.019,-1.841,0.285,-1.517,-0.66,-0.874,0x00000003,0.0,0.0,-0.004,0.0,0.001,-0.0,0.0,0.0,0.0,-0.002,-0.002,0.0,0.0,-0.002,0.547,0.0,0.0,0.0,0.547,34.991,34.991,0.0,0.0,0.0,96.484,96.484,0.0,0.0,26.375,26.188,0.0,0.0,0.0,0.0,90.0,76.727,0.109,27.438,0x00000000,0x00000000,0x00000000,0.0,1246,1279,9.46,1.121,0.0,0.0,0.011,0.007,0.0,0.0,1.0,0.981,0.981,0.981,0.196,1.0,1.0,0.462,0.584,0.57,24.267,0x00000101,192.168.0.40,8080,255.255.255.0,192.168.0.1,0xFFFFFFFF,0xFFFFFFFF,0xFFFFFFFF,0x00000000,
3.1722869873,0x00000000,0x00000000,0x00000000,0x00000000,0x00000000,0x00000000,0x00000000,0x00000000,14.38,3,0x00000000,96.484,97.647,0.003,-0.022,-0.017,-0.008,-0.012,-1.819,0.299,-1.527,-0.894,-0.529,0x00000003,0.0,0.0,-0.01,-0.0,0.001,-0.001,0.0,0.0,0.0,-0.002,-0.002,0.0,0.0,-0.002,-0.585,-1.081,0.0,0.0,-1.081,34.991,34.991,0.0,0.0,0.0,96.484,96.484,0.0,0.0,26.375,26.25,0.0,0.0,0.0,0.0,90.0,76.727,0.109,27.438,0x00000000,0x00000000,0x00000000,0.0,1246,1279,6.138,2.798,0.0,0.0,0.012,0.007,0.0,0.0,1.0,0.981,0.981,0.981,0.196,1.0,1.0,0.462,0.584,0.57,24.267,0x00000101,192.168.0.40,8080,255.255.255.0,192.168.0.1,0xFFFFFFFF,0xFFFFFFFF,0xFFFFFFFF,0x00000000,
3.97357797623,0x00000000,0x00000000,0x00000000,0x00000000,0x00000000,0x00000000,0x00000000,0x00000000,15.18,3,0x00000000,96.484,97.647,0.004,-0.021,-0.017,-0.017,-0.0,-1.548,-0.285,-1.508,-0.276,0.898,0x00000003,0.0,0.0,-0.004,-0.0,0.001,-0.001,0.0,0.0,0.0,-0.002,-0.002,0.0,0.0,-0.002,0.432,0.0,0.0,0.0,0.432,34.991,34.991,0.0,0.0,0.0,96.484,96.484,0.0,0.0,26.375,26.25,0.0,0.0,0.0,0.0,90.0,76.727,0.109,27.438,0x00000000,0x00000000,0x00000000,0.0,1246,1279,8.868,4.773,0.0,0.0,0.013,0.008,0.0,0.0,1.0,0.981,0.981,0.981,0.196,1.0,1.0,0.462,0.584,0.57,24.267,0x00000101,192.168.0.40,8080,255.255.255.0,192.168.0.1,0xFFFFFFFF,0xFFFFFFFF,0xFFFFFFFF,0x00000000,
4.02368807793,0x00000000,0x00000000,0x00000000,0x00000000,0x00000000,0x00000000,0x00000000,0x00000000,15.23,3,0x00000000,96.484,97.647,0.003,-0.021,-0.009,-0.013,-0.012,-1.543,-0.303,-1.527,-0.069,-1.513,0x00000003,0.0,0.0,0.002,-0.0,0.002,-0.0,0.0,0.0,0.0,-0.002,-0.002,0.0,0.0,-0.002,0.229,0.0,0.0,0.0,0.229,34.991,34.991,0.0,0.0,0.0,96.484,96.484,0.0,0.0,26.375,26.25,0.0,0.0,0.0,0.0,90.0,76.727,0.109,27.438,0x00000000,0x00000000,0x00000000,0.0,1246,1279,8.378,4.781,0.0,0.0,0.013,0.008,0.0,0.0,1.0,0.981,0.981,0.981,0.196,1.0,1.0,0.462,0.584,0.57,24.267,0x00000101,192.168.0.40,8080,255.255.255.0,192.168.0.1,0xFFFFFFFF,0xFFFFFFFF,0xFFFFFFFF,0x00000000,
4.07374000549,0x00000000,0x00000000,0x00000000,0x00000000,0x00000000,0x00000000,0x00000000,0x00000000,15.28,3,0x00000000,96.484,97.647,0.003,-0.021,-0.018,-0.021,-0.031,-1.521,0.628,-1.532,-1.051,-0.842,0x00000003,0.0,0.0,0.003,-0.0,0.002,-0.001,0.001,0.0,0.0,-0.002,-0.002,0.0,0.0,-0.002,0.432,0.0,0.0,0.0,0.432,34.991,34.991,0.0,0.0,0.0,96.484,96.484,0.0,0.0,26.375,26.25,0.0,0.0,0.0,0.0,90.0,76.727,0.109,27.438,0x00000000,0x00000000,0x00000000,0.0,1246,1279,8.538,3.228,0.0,0.0,0.013,0.009,0.0,0.0,1.0,0.981,0.981,0.981,0.196,1.0,1.0,0.462,0.584,0.57,24.267,0x00000101,192.168.0.40,8080,255.255.255.0,192.168.0.1,0xFFFFFFFF,0xFFFFFFFF,0xFFFFFFFF,0x00000000,
4.12384796143,0x00000000,0x00000000,0x00000000,0x00000000,0x00000000,0x00000000,0x00000000,0x00000000,15.33,3,0x00000000,96.484,97.647,0.003,-0.022,-0.014,-0.021,0.006,-1.513,0.132,-1.506,0.723,0.903,0x00000003,0.0,0.0,0.008,-0.0,0.001,-0.0,0.001,0.0,0.0,-0.002,-0.002,0.0,0.0,-0.002,0.432,-0.076,0.0,0.0,0.432,34.991,34.991,0.0,0.0,0.0,96.484,96.484,0.0,0.0,26.375,26.25,0.0,0.0,0.0,0.0,90.0,76.727,0.109,27.438,0x00000000,0x00000000,0x00000000,0.0,1246,1279,7.651,0.955,0.0,0.0,0.013,0.009,0.0,0.0,1.0,0.981,0.981,0.981,0.196,1.0,1.0,0.462,0.584,0.57,24.267,0x00000101,192.168.0.40,8080,255.255.255.0,192.168.0.1,0xFFFFFFFF,0xFFFFFFFF,0xFFFFFFFF,0x00000000,
4.17388486862,0x00000000,0x00000000,0x00000000,0x00000000,0x00000000,0x00000000,0x00000000,0x00000000,15.38,3,0x00000000,96.484,97.647,0.003,-0.021,-0.017,-0.012,-0.031,-1.497,-0.37,-1.505,-1.021,-0.473,0x00000003,0.0,0.0,-0.01,0.0,0.002,-0.001,0.0,0.0,0.0,-0.002,-0.002,0.0,0.0,-0.002,0.432,0.0,0.0,0.0,0.432,34.991,34.991,0.0,0.0,0.0,96.484,96.484,0.0,0.0,26.375,26.25,0.0,0.0,0.0,0.0,90.0,76.727,0.109,27.438,0x00000000,0x00000000,0x00000000,0.0,1246,1279,7.249,4.616,0.0,0.0,0.014,0.009,0.0,0.0,1.0,0.981,0.981,0.981,0.196,1.0,1.0,0.462,0.584,0.57,24.267,0x00000101,192.168.0.40,8080,255.255.255.0,192.168.0.1,0xFFFFFFFF,0xFFFFFFFF,0xFFFFFFFF,0x00000000,
4.97516298294,0x00000000,0x00000000,0x00000000,0x00000000,0x00000000,0x00000000,0x00000000,0x00000000,16.18,3,0x00000000,96.484,97.647,0.002,-0.02,0.003,-0.024,-0.018,-1.166,1.385,-1.491,-0.834,-0.478,0x00000003,0.0,0.0,0.0,-0.0,0.002,-0.0,0.0,0.0,0.0,-0.002,-0.002,0.0,0.0,-0.002,1.348,-0.852,0.0,0.0,1.348,34.991,34.991,0.0,0.0,0.0,96.484,96.484,0.0,0.0,26.375,26.25,0.0,0.0,0.0,0.0,90.0,76.727,0.109,27.438,0x00000000,0x00000000,0x00000000,0.0,1246,1279,7.64,4.78,0.0,0.0,0.015,0.009,0.0,0.0,1.0,0.981,0.981,0.981,0.196,1.0,1.0,0.462,0.584,0.57,24.267,0x00000101,192.168.0.40,8080,255.255.255.0,192.168.0.1,0xFFFFFFFF,0xFFFFFFFF,0xFFFFFFFF,0x00000000,
5.0252840519,0x00000000,0x00000000,0x00000000,0x00000000,0x00000000,0x00000000,0x00000000,0x00000000,16.23,3,0x00000000,96.484,97.647,0.004,-0.018,0.021,-0.011,-0.018,-1.079,2.163,-1.486,-0.221,-0.664,0x00000003,0.0,0.0,0.001,0.0,0.001,-0.0,0.0,0.0,0.0,-0.002,-0.002,0.0,0.0,-0.002,0.432,0.114,0.0,0.0,0.432,34.991,34.991,0.0,0.0,0.0,96.484,96.484,0.0,0.0,26.375,26.25,0.0,0.0,0.0,0.0,90.0,76.727,0.109,27.438,0x00000000,0x00000000,0x00000000,0.0,1246,1279,5.878,3.253,0.0,0.0,0.015,0.01,0.0,0.0,1.0,0.981,0.981,0.981,0.196,1.0,1.0,0.462,0.584,0.57,24.267,0x00000101,192.168.0.40,8080,255.255.255.0,192.168.0.1,0xFFFFFFFF,0xFFFFFFFF,0xFFFFFFFF,0x00000000,
5.0753159523,0x00000000,0x00000000,0x00000000,0x00000000,0x00000000,0x00000000,0x00000000,0x00000000,16.28,3,0x00000000,96.484,97.647,0.003,-0.017,0.023,-0.017,-0.012,-0.967,2.729,-1.479,-0.474,-0.661,0x00000003,0.0,0.0,-0.001,0.0,0.002,-0.0,0.0,0.0,0.0,-0.002,-0.002,0.0,0.0,-0.002,0.636,0.038,0.0,0.0,0.636,34.991,34.991,0.0,0.0,0.0,96.484,96.484,0.0,0.0,26.375,26.25,0.0,0.0,0.0,0.0,90.0,76.727,0.109,27.438,0x00000000,0x00000000,0x00000000,0.0,1246,1279,9.223,4.715,0.0,0.0,0.015,0.01,0.0,0.0,1.0,0.981,0.981,0.981,0.196,1.0,1.0,0.462,0.584,0.57,24.267,0x00000101,192.168.0.40,8080,255.255.255.0,192.168.0.1,0xFFFFFFFF,0xFFFFFFFF,0xFFFFFFFF,0x00000000,
5.12544107437,0x00000000,0x00000000,0x00000000,0x00000000,0x00000000,0x00000000,0x00000000,0x00000000,16.33,3,0x00000000,96.484,97.647,0.001,-0.015,0.027,-0.018,-0.006,-0.856,2.53,-1.466,-0.707,0.034,0x00000003,0.0,0.0,-0.0,0.0,0.001,-0.0,0.0,0.0,0.0,-0.002,-0.002,0.0,0.0,-0.002,0.432,-0.064,0.0,0.0,0.432,34.991,34.991,0.0,0.0,0.0,96.484,96.484,0.0,0.0,26.375,26.25,0.0,0.0,0.0,0.0,90.0,76.727,0.109,27.438,0x00000000,0x00000000,0x00000000,0.0,1246,1279,9.548,9.601,0.0,0.0,0.015,0.01,0.0,0.0,1.0,0.981,0.981,0.981,0.196,1.0,1.0,0.462,0.584,0.57,24.267,0x00000101,192.168.0.40,8080,255.255.255.0,192.168.0.1,0xFFFFFFFF,0xFFFFFFFF,0xFFFFFFFF,0x00000000,
5.17547297478,0x00000000,0x00000000,0x00000000,0x00000000,0x00000000,0x00000000,0x00000000,0x00000000,16.38,3,0x00000000,96.484,97.647,0.003,-0.011,0.016,-0.028,-0.033,-0.748,2.149,-1.467,-0.7,-1.001,0x00000003,0.0,0.0,0.0,0.0,0.002,-0.0,0.001,0.0,0.0,-0.002,-0.002,0.0,0.0,-0.002,0.636,0.0,0.0,0.0,0.636,34.991,34.991,0.0,0.0,0.0,96.484,96.484,0.0,0.0,26.375,26.25,0.0,0.0,0.0,0.0,90.0,76.727,0.109,27.438,0x00000000,0x00000000,0x00000000,0.0,1246,1279,8.408,4.651,0.0,0.0,0.016,0.01,0.0,0.0,1.0,0.981,0.981,0.981,0.196,1.0,1.0,0.462,0.584,0.57,24.267,0x00000101,192.168.0.40,8080,255.255.255.0,192.168.0.1,0xFFFFFFFF,0xFFFFFFFF,0xFFFFFFFF,0x00000000,
5.97675800323,0x00000000,0x00000000,0x00000000,0x00000000,0x00000000,0x00000000,0x00000000,0x00000000,17.18,5,0x00000000,96.484,97.647,-0.001,0.039,-0.493,0.002,0.008,-5.534,-33.996,-1.253,1.389,1.851,0x00000003,0.63,0.618,-3.716,0.509,-0.006,0.33,0.33,0.0,0.0,0.08,0.08,0.0,0.0,0.08,-12.244,-13.249,0.0,0.0,-13.249,34.991,34.991,0.0,0.0,0.0,96.484,96.484,0.0,0.0,26.375,26.25,0.0,0.0,0.0,0.0,90.0,76.727,0.109,27.438,0x00000000,0x00000000,0x00000000,0.0,1246,1279,-9.183,0.051,0.0,0.0,0.019,0.013,0.0,0.0,1.0,0.981,0.981,0.981,0.196,1.0,1.0,0.462,0.584,0.57,24.267,0x00000101,192.168.0.40,8080,255.255.255.0,192.168.0.1,0xFFFFFFFF,0xFFFFFFFF,0xFFFFFFFF,0x00000000,
6.02687001228,0x00000000,0x00000000,0x00000000,0x00000000,0x00000000,0x00000000,0x00000000,0x00000000,17.23,5,0x00000000,96.484,97.647,-0.002,0.228,0.063,-0.0,-0.03,-6.171,0.7,-1.21,0.755,-1.459,0x00000003,0.68,0.667,-5.332,0.261,-0.005,0.005,0.004,0.0,0.0,0.086,0.086,0.0,0.0,0.086,-8.01,-8.366,0.0,0.0,-8.366,34.991,34.991,0.0,0.0,0.0,96.484,96.484,0.0,0.0,26.375,26.25,0.0,0.0,0.0,0.01,90.0,76.727,0.109,27.438,0x00000000,0x00000000,0x00000000,0.0,1246,1279,16.965,17.881,0.0,0.0,0.019,0.013,0.0,0.0,1.0,0.981,0.981,0.981,0.196,1.0,1.0,0.462,0.584,0.57,24.267,0x00000101,192.168.0.40,8080,255.255.255.0,192.168.0.1,0xFFFFFFFF,0xFFFFFFFF,0xFFFFFFFF,0x00000000,
6.07690691948,0x00000000,0x00000000,0x00000000,0x00000000,0x00000000,0x00000000,0x00000000,0x00000000,17.28,5,0x00000000,96.484,97.647,-0.002,0.246,0.294,-0.021,-0.041,-5.613,17.382,-1.173,-0.22,-2.381,0x00000003,0.73,0.716,-3.846,0.034,-0.017,-0.141,-0.161,0.0,0.0,0.082,0.08,0.0,0.0,0.081,-3.929,-3.331,0.0,0.0,-3.929,34.991,34.991,0.0,0.0,0.0,96.484,96.484,0.0,0.0,26.375,26.25,0.0,0.0,0.0,0.06,90.0,76.727,0.109,27.438,0x00000000,0x00000000,0x00000000,0.0,1246,1279,15.563,19.011,0.0,0.0,0.02,0.014,0.0,0.0,1.0,0.981,0.981,0.981,0.196,1.0,1.0,0.462,0.584,0.57,24.267,0x00000101,192.168.0.40,8080,255.255.255.0,192.168.0.1,0xFFFFFFFF,0xFFFFFFFF,0xFFFFFFFF,0x00000000,
6.12702894211,0x00000000,0x00000000,0x00000000,0x00000000,0x00000000,0x00000000,0x00000000,0x00000000,17.33,5,0x00000000,96.484,97.647,0.005,0.159,0.35,-0.026,0.002,-4.599,21.066,-1.194,-0.35,-0.689,0x00000003,0.78,0.765,-2.177,-0.108,-0.005,-0.22,-0.205,0.0,0.0,0.072,0.071,0.0,0.0,0.072,-6.192,-0.979,0.0,0.0,-6.192,34.991,34.991,0.0,0.0,0.0,96.484,96.484,0.0,0.0,26.375,26.25,0.0,0.0,0.0,0.11,90.0,76.727,0.109,27.438,0x00000000,0x00000000,0x00000000,0.0,1246,1279,13.05,14.387,0.0,0.0,0.02,0.014,0.0,0.0,1.0,0.981,0.981,0.981,0.196,1.0,1.0,0.462,0.584,0.57,24.267,0x00000101,192.168.0.40,8080,255.255.255.0,192.168.0.1,0xFFFFFFFF,0xFFFFFFFF,0xFFFFFFFF,0x00000000,
6.17706203461,0x00000000,0x00000000,0x00000000,0x00000000,0x00000000,0x00000000,0x00000000,0x00000000,17.38,5,0x00000000,96.484,97.647,0.001,0.089,0.439,-0.025,0.142,-3.426,24.473,-1.217,-1.441,7.247,0x00000003,0.83,0.814,-1.591,-0.199,0.058,-0.317,-0.233,0.0,0.0,0.059,0.06,0.0,0.0,0.059,-7.362,-2.149,0.0,0.0,-7.362,34.991,34.991,0.0,0.0,0.0,96.484,96.484,0.0,0.0,26.375,26.25,0.0,0.0,0.0,0.16,90.0,76.727,0.109,27.438,0x00000000,0x00000000,0x00000000,0.0,1246,1279,14.243,20.602,0.0,0.0,0.02,0.014,0.0,0.0,1.0,0.981,0.981,0.981,0.196,1.0,1.0,0.462,0.584,0.57,24.267,0x00000101,192.168.0.40,8080,255.255.255.0,192.168.0.1,0xFFFFFFFF,0xFFFFFFFF,0xFFFFFFFF,0x00000000,
6.97834897041,0x00000000,0x00000000,0x00000000,0x00000000,0x00000000,0x00000000,0x00000000,0x00000000,18.18,5,0x00000000,96.484,97.647,0.003,0.006,0.078,-0.003,0.218,0.061,6.42,-1.32,-1.236,14.008,0x00000003,1.0,1.0,0.02,-0.071,0.301,-0.14,0.0,0.0,0.0,-0.072,0.093,0.0,0.0,0.01,-4.17,1.958,0.0,0.0,-4.17,34.991,34.991,0.0,0.0,0.0,96.484,96.484,0.0,0.0,26.375,26.25,0.0,0.0,0.0,0.24,90.0,76.727,0.109,27.438,0x00000000,0x00000000,0x00000000,0.0,1246,1279,9.182,6.192,0.0,0.0,0.023,0.017,0.0,0.0,1.0,0.981,0.981,0.981,0.196,1.0,1.0,0.462,0.584,0.57,24.267,0x00000101,192.168.0.40,8080,255.255.255.0,192.168.0.1,0xFFFFFFFF,0xFFFFFFFF,0xFFFFFFFF,0x00000000,
7.02847003937,0x00000000,0x00000000,0x00000000,0x00000000,0x00000000,0x00000000,0x00000000,0x00000000,18.23,5,0x00000000,96.484,97.647,0.0,-0.031,0.051,-0.03,-0.109,0.375,3.856,-1.362,-1.808,0.2,0x00000003,1.0,1.0,0.53,-0.054,0.176,-0.025,-0.033,0.0,0.0,-0.076,0.092,0.0,0.0,0.008,-10.82,3.052,0.0,0.0,-10.82,34.991,34.991,0.0,0.0,0.0,96.484,96.484,0.0,0.0,26.375,26.25,0.0,0.0,0.0,0.19,90.0,76.727,0.109,27.438,0x00000000,0x00000000,0x00000000,0.0,1246,1279,9.516,8.237,0.0,0.0,0.023,0.017,0.0,0.0,1.0,0.981,0.981,0.981,0.196,1.0,1.0,0.462,0.584,0.57,24.267,0x00000101,192.168.0.40,8080,255.255.255.0,192.168.0.1,0xFFFFFFFF,0xFFFFFFFF,0xFFFFFFFF,0x00000000,
7.07852101326,0x00000000,0x00000000,0x00000000,0x00000000,0x00000000,0x00000000,0x00000000,0x00000000,18.28,5,0x00000000,96.484,97.647,0.018,-0.035,0.11,-0.036,0.001,0.674,7.664,-1.301,0.647,-1.212,0x00000003,1.0,1.0,0.413,-0.035,0.041,-0.01,-0.02,0.0,0.0,-0.076,0.091,0.0,0.0,0.007,-9.295,6.04,0.0,0.0,-9.295,34.991,34.991,0.0,0.0,0.0,96.484,96.484,0.0,0.0,26.375,26.25,0.0,0.0,0.0,0.14,90.0,76.727,0.109,27.438,0x00000000,0x00000000,0x00000000,0.0,1246,1279,11.903,9.475,0.0,0.0,0.023,0.017,0.0,0.0,1.0,0.981,0.981,0.981,0.196,1.0,1.0,0.462,0.584,0.57,24.267,0x00000101,192.168.0.40,8080,255.255.255.0,192.168.0.1,0xFFFFFFFF,0xFFFFFFFF,0xFFFFFFFF,0x00000000,
7.12862706184,0x00000000,0x00000000,0x00000000,0x00000000,0x00000000,0x00000000,0x00000000,0x00000000,18.33,5,0x00000000,96.484,97.647,0.006,-0.043,0.093,-0.006,0.097,1.022,6.45,-1.361,-0.456,4.009,0x00000003,1.0,1.0,0.577,-0.012,0.033,-0.003,0.035,0.0,0.0,-0.076,0.091,0.0,0.0,0.007,-4.183,9.384,0.0,0.0,9.384,34.991,34.991,0.0,0.0,0.0,96.484,96.484,0.0,0.0,26.375,26.25,0.0,0.0,0.0,0.09,90.0,76.727,0.109,27.438,0x00000000,0x00000000,0x00000000,0.0,1246,1279,16.934,15.239,0.0,0.0,0.023,0.017,0.0,0.0,1.0,0.981,0.981,0.981,0.196,1.0,1.0,0.462,0.584,0.57,24.267,0x00000101,192.168.0.40,8080,255.255.255.0,192.168.0.1,0xFFFFFFFF,0xFFFFFFFF,0xFFFFFFFF,0x00000000,
7.17865896225,0x00000000,0x00000000,0x00000000,0x00000000,0x00000000,0x00000000,0x00000000,0x00000000,18.38,5,0x00000000,96.484,97.647,-0.001,-0.065,-0.049,-0.009,0.169,1.227,0.833,-1.286,-0.005,7.897,0x00000003,1.0,1.0,1.118,0.03,0.099,0.037,0.13,0.0,0.0,-0.075,0.095,0.0,0.0,0.009,1.284,9.447,0.0,0.0,9.447,34.991,34.991,0.0,0.0,0.0,96.484,96.484,0.0,0.0,26.375,26.25,0.0,0.0,0.0,0.04,90.0,76.727,0.109,27.438,0x00000000,0x00000000,0x00000000,0.0,1246,1279,18.971,18.717,0.0,0.0,0.023,0.017,0.0,0.0,1.0,0.981,0.981,0.981,0.196,1.0,1.0,0.462,0.584,0.57,24.267,0x00000101,192.168.0.40,8080,255.255.255.0,192.168.0.1,0xFFFFFFFF,0xFFFFFFFF,0xFFFFFFFF,0x00000000,
7.97993993759,0x00000000,0x00000000,0x00000000,0x00000000,0x00000000,0x00000000,0x00000000,0x00000000,19.18,5,0x00000000,96.484,97.647,0.002,-0.039,-0.006,-0.021,-0.049,-0.202,1.759,-1.004,-0.93,-2.474,0x00000003,1.0,1.0,0.28,-0.016,-0.022,-0.0,-0.004,0.0,0.0,-0.032,0.147,0.0,0.0,0.057,0.954,1.322,0.0,0.0,1.322,34.991,34.991,0.0,0.0,0.0,96.484,96.484,0.0,0.0,26.375,26.188,0.0,0.0,0.0,0.0,90.0,76.727,0.109,27.438,0x00000000,0x00000000,0x00000000,0.0,1246,1279,7.53,4.714,0.0,0.0,0.025,0.019,0.0,0.0,1.0,0.981,0.981,0.981,0.196,1.0,1.0,0.462,0.584,0.57,24.267,0x00000101,192.168.0.40,8080,255.255.255.0,192.168.0.1,0xFFFFFFFF,0xFFFFFFFF,0xFFFFFFFF,0x00000000,
8.03005695343,0x00000000,0x00000000,0x00000000,0x00000000,0x00000000,0x00000000,0x00000000,0x00000000,19.23,5,0x00000000,96.484,97.647,0.003,-0.053,-0.058,-0.021,-0.013,-0.219,-1.215,-0.992,-0.398,-1.738,0x00000003,1.0,1.0,0.279,-0.002,-0.01,0.013,0.009,0.0,0.0,-0.032,0.147,0.0,0.0,0.057,0.852,1.068,0.0,0.0,1.068,34.991,34.991,0.0,0.0,0.0,96.484,96.484,0.0,0.0,26.375,26.188,0.0,0.0,0.01,0.0,90.0,76.727,0.109,27.438,0x00000000,0x00000000,0x00000000,0.0,1246,1279,5.223,8.577,0.0,0.0,0.025,0.019,0.0,0.0,1.0,0.981,0.981,0.981,0.196,1.0,1.0,0.462,0.584,0.57,24.267,0x00000101,192.168.0.40,8080,255.255.255.0,192.168.0.1,0xFFFFFFFF,0xFFFFFFFF,0xFFFFFFFF,0x00000000,
8.08009195328,0x00000000,0x00000000,0x00000000,0x00000000,0x00000000,0x00000000,0x00000000,0x00000000,19.28,5,0x00000000,96.484,97.647,0.006,-0.042,-0.034,-0.008,-0.019,-0.361,-2.033,-0.95,-0.134,-2.084,0x00000003,1.0,1.0,-0.049,0.005,-0.003,0.002,0.004,0.0,0.0,-0.032,0.148,0.0,0.0,0.057,-5.747,-5.48,0.0,0.0,-5.747,34.991,34.991,0.0,0.0,0.0,96.484,96.484,0.0,0.0,26.375,26.25,0.0,0.0,0.059,0.0,90.0,76.727,0.109,27.438,0x00000000,0x00000000,0x00000000,0.0,1246,1279,5.303,7.154,0.0,0.0,0.025,0.019,0.0,0.0,1.0,0.981,0.981,0.981,0.196,1.0,1.0,0.462,0.584,0.57,24.267,0x00000101,192.168.0.40,8080,255.255.255.0,192.168.0.1,0xFFFFFFFF,0xFFFFFFFF,0xFFFFFFFF,0x00000000,
8.13021707535,0x00000000,0x00000000,0x00000000,0x00000000,0x00000000,0x00000000,0x00000000,0x00000000,19.33,5,0x00000000,96.484,97.647,0.005,0.045,0.282,-0.025,0.002,-0.247,12.74,-0.923,-0.338,-1.173,0x00000003,1.0,1.0,-2.191,-0.052,-0.006,-0.152,-0.162,0.0,0.0,-0.035,0.144,0.0,0.0,0.054,-12.13,-12.55,0.0,0.0,-12.55,34.991,34.991,0.0,0.0,0.0,96.484,96.484,0.0,0.0,26.375,26.25,0.0,0.0,0.094,0.0,90.0,76.727,0.109,27.438,0x00000000,0x00000000,0x00000000,0.0,1246,1279,34.175,32.511,0.0,0.0,0.026,0.019,0.0,0.0,1.0,0.981,0.981,0.981,0.196,1.0,1.0,0.462,0.584,0.57,24.267,0x00000101,192.168.0.40,8080,255.255.255.0,192.168.0.1,0xFFFFFFFF,0xFFFFFFFF,0xFFFFFFFF,0x00000000,
8.1802520752,0x00000000,0x00000000,0x00000000,0x00000000,0x00000000,0x00000000,0x00000000,0x00000000,19.38,5,0x00000000,96.484,97.647,0.003,0.187,0.72,-0.031,-0.038,0.827,38.578,-0.932,-1.402,-2.797,0x00000003,1.0,1.0,-3.572,-0.216,-0.018,-0.38,-0.396,0.0,0.0,-0.05,0.129,0.0,0.0,0.039,-4.412,-1.882,0.0,0.0,-4.412,34.991,34.991,0.0,0.0,0.0,96.484,96.484,0.0,0.0,26.375,26.25,0.0,0.0,0.098,0.0,90.0,76.727,0.102,27.438,0x00000000,0x00000000,0x00000000,0.0,1246,1279,28.053,25.297,0.0,0.0,0.026,0.02,0.0,0.0,1.0,0.981,0.981,0.981,0.196,1.0,1.0,0.462,0.584,0.57,24.267,0x00000101,192.168.0.40,8080,255.255.255.0,192.168.0.1,0xFFFFFFFF,0xFFFFFFFF,0xFFFFFFFF,0x00000000,
8.98153209686,0x00000000,0x00000000,0x00000000,0x00000000,0x00000000,0x00000000,0x00000000,0x00000000,20.18,5,0x00000000,96.484,97.647,0.004,-0.049,-0.253,-0.0,-0.026,-3.806,-18.176,-0.706,-0.101,0.464,0x00000003,1.0,1.0,-1.862,0.282,0.008,0.187,0.198,0.0,0.0,0.065,0.245,0.0,0.0,0.154,-8.748,-8.265,0.0,0.0,-8.748,34.991,34.991,0.0,0.0,0.0,96.484,96.484,0.0,0.0,26.375,26.25,0.0,0.0,0.0,0.0,90.0,76.727,0.109,27.438,0x00000000,0x00000000,0x00000000,0.0,1246,1279,-1.741,2.839,0.0,0.0,0.029,0.022,0.0,0.0,1.0,0.981,0.981,0.981,0.196,1.0,1.0,0.462,0.584,0.57,24.267,0x00000101,192.168.0.40,8080,255.255.255.0,192.168.0.1,0xFFFFFFFF,0xFFFFFFFF,0xFFFFFFFF,0x00000000,
9.03165507317,0x00000000,0x00000000,0x00000000,0x00000000,0x00000000,0x00000000,0x00000000,0x00000000,20.23,5,0x00000000,96.484,97.647,0.0,0.099,0.102,-0.006,0.007,-4.348,4.342,-0.692,0.162,1.043,0x00000003,1.0,1.0,-3.199,0.137,0.019,-0.025,-0.009,0.0,0.0,0.067,0.248,0.0,0.0,0.157,-5.467,-5.556,0.0,0.0,-5.556,34.991,34.991,0.0,0.0,0.0,96.484,96.484,0.0,0.0,26.375,26.25,0.0,0.0,0.0,0.01,90.0,76.727,0.109,27.438,0x00000000,0x00000000,0x00000000,0.0,1246,1279,7.997,11.501,0.0,0.0,0.029,0.022,0.0,0.0,1.0,0.981,0.981,0.981,0.196,1.0,1.0,0.462,0.584,0.57,24.267,0x00000101,192.168.0.40,8080,255.255.255.0,192.168.0.1,0xFFFFFFFF,0xFFFFFFFF,0xFFFFFFFF,0x00000000,
9.08168506622,0x00000000,0x00000000,0x00000000,0x00000000,0x00000000,0x00000000,0x00000000,0x00000000,20.28,5,0x00000000,96.484,97.647,-0.0,0.127,0.242,-0.012,0.02,-3.982,13.247,-0.686,-0.18,1.35,0x00000003,1.0,1.0,-2.413,-0.004,0.024,-0.124,-0.117,0.0,0.0,0.063,0.244,0.0,0.0,0.153,-2.886,-2.683,0.0,0.0,-2.886,34.991,34.991,0.0,0.0,0.0,96.484,96.484,0.0,0.0,26.375,26.25,0.0,0.0,0.0,0.06,90.0,76.727,0.109,27.438,0x00000000,0x00000000,0x00000000,0.0,1246,1279,9.314,9.748,0.0,0.0,0.029,0.023,0.0,0.0,1.0,0.981,0.981,0.981,0.196,1.0,1.0,0.462,0.584,0.57,24.267,0x00000101,192.168.0.40,8080,255.255.255.0,192.168.0.1,0xFFFFFFFF,0xFFFFFFFF,0xFFFFFFFF,0x00000000,
9.1318089962,0x00000000,0x00000000,0x00000000,0x00000000,0x00000000,0x00000000,0x00000000,0x00000000,20.33,5,0x00000000,96.484,97.647,0.005,0.083,0.272,-0.034,0.032,-3.187,16.165,-0.698,-1.259,0.636,0x00000003,1.0,1.0,-1.406,-0.09,0.032,-0.172,-0.144,0.0,0.0,0.055,0.238,0.0,0.0,0.146,-3.458,-2.492,0.0,0.0,-3.458,34.991,34.991,0.0,0.0,0.0,96.484,96.484,0.0,0.0,26.375,26.25,0.0,0.0,0.0,0.11,90.0,76.727,0.109,27.438,0x00000000,0x00000000,0x00000000,0.0,1246,1279,8.023,8.625,0.0,0.0,0.029,0.023,0.0,0.0,1.0,0.981,0.981,0.981,0.196,1.0,1.0,0.462,0.584,0.57,24.267,0x00000101,192.168.0.40,8080,255.255.255.0,192.168.0.1,0xFFFFFFFF,0xFFFFFFFF,0xFFFFFFFF,0x00000000,
9.18184900284,0x00000000,0x00000000,0x00000000,0x00000000,0x00000000,0x00000000,0x00000000,0x00000000,20.38,5,0x00000000,96.484,97.647,0.006,0.041,0.328,-0.013,0.044,-2.3,19.065,-0.706,-0.734,3.051,0x00000003,1.0,1.0,-1.08,-0.151,0.051,-0.223,-0.183,0.0,0.0,0.045,0.23,0.0,0.0,0.137,-4.132,-1.043,0.0,0.0,-4.132,34.991,34.991,0.0,0.0,0.0,96.484,96.484,0.0,0.0,26.375,26.25,0.0,0.0,0.0,0.16,90.0,76.727,0.109,27.438,0x00000000,0x00000000,0x00000000,0.0,1246,1279,8.306,12.056,0.0,0.0,0.029,0.023,0.0,0.0,1.0,0.981,0.981,0.981,0.196,1.0,1.0,0.462,0.584,0.57,24.267,0x00000101,192.168.0.40,8080,255.255.255.0,192.168.0.1,0xFFFFFFFF,0xFFFFFFFF,0xFFFFFFFF,0x00000000,
9.98317790031,0x00000000,0x00000000,0x00000000,0x00000000,0x00000000,0x00000000,0x00000000,0x00000000,21.18,5,0x00000000,96.484,97.647,0.007,-0.007,0.089,-0.025,0.212,0.023,5.903,-0.717,-0.742,11.383,0x00000003,1.0,1.0,0.08,-0.064,0.257,-0.12,0.0,0.0,0.0,-0.059,0.283,0.0,0.0,0.111,-2.251,4.336,0.0,0.0,4.336,34.991,34.991,0.0,0.0,0.0,96.484,96.484,0.0,0.0,26.375,26.25,0.0,0.0,0.0,0.24,90.0,76.727,0.109,27.438,0x00000000,0x00000000,0x00000000,0.0,1246,1279,5.326,9.31,0.0,0.0,0.032,0.025,0.0,0.0,1.0,0.981,0.981,0.981,0.196,1.0,1.0,0.462,0.584,0.57,24.267,0x00000101,192.168.0.40,8080,255.255.255.0,192.168.0.1,0xFFFFFFFF,0xFFFFFFFF,0xFFFFFFFF,0x00000000,
10.0332438946,0x00000000,0x00000000,0x00000000,0x00000000,0x00000000,0x00000000,0x00000000,0x00000000,21.23,5,0x00000000,96.484,97.647,0.007,-0.024,0.043,-0.015,0.115,0.292,3.856,-0.706,-0.499,10.014,0x00000003,1.0,1.0,0.315,-0.052,0.198,-0.075,0.002,0.0,0.0,-0.064,0.283,0.0,0.0,0.109,-2.034,5.162,0.0,0.0,5.162,34.991,34.991,0.0,0.0,0.0,96.484,96.484,0.0,0.0,26.375,26.25,0.0,0.0,0.0,0.19,90.0,76.727,0.109,27.438,0x00000000,0x00000000,0x00000000,0.0,1246,1279,7.185,9.438,0.0,0.0,0.032,0.025,0.0,0.0,1.0,0.981,0.981,0.981,0.196,1.0,1.0,0.462,0.584,0.57,24.267,0x00000101,192.168.0.40,8080,255.255.255.0,192.168.0.1,0xFFFFFFFF,0xFFFFFFFF,0xFFFFFFFF,0x00000000,
10.0832509995,0x00000000,0x00000000,0x00000000,0x00000000,0x00000000,0x00000000,0x00000000,0x00000000,21.28,5,0x00000000,96.484,97.647,0.008,-0.036,0.004,-0.01,0.115,0.419,1.448,-0.681,-0.215,8.303,0x00000003,1.0,1.0,0.434,-0.034,0.138,-0.038,0.011,0.0,0.0,-0.066,0.283,0.0,0.0,0.108,-2.912,4.717,0.0,0.0,4.717,34.991,34.991,0.0,0.0,0.0,96.484,96.484,0.0,0.0,26.375,26.25,0.0,0.0,0.0,0.14,90.0,76.727,0.109,27.438,0x00000000,0x00000000,0x00000000,0.0,1246,1279,9.346,11.791,0.0,0.0,0.032,0.026,0.0,0.0,1.0,0.981,0.981,0.981,0.196,1.0,1.0,0.462,0.584,0.57,24.267,0x00000101,192.168.0.40,8080,255.255.255.0,192.168.0.1,0xFFFFFFFF,0xFFFFFFFF,0xFFFFFFFF,0x00000000,
10.1334068775,0x00000000,0x00000000,0x00000000,0x00000000,0x00000000,0x00000000,0x00000000,0x00000000,21.33,5,0x00000000,96.484,97.647,0.005,-0.036,-0.011,-0.013,0.084,0.435,-1.216,-0.664,-0.873,5.541,0x00000003,1.0,1.0,0.467,-0.009,0.094,-0.004,0.031,0.0,0.0,-0.067,0.284,0.0,0.0,0.108,-2.581,4.908,0.0,0.0,4.908,34.991,34.991,0.0,0.0,0.0,96.484,96.484,0.0,0.0,26.375,26.25,0.0,0.0,0.0,0.09,90.0,76.727,0.109,27.438,0x00000000,0x00000000,0x00000000,0.0,1246,1279,4.979,8.733,0.0,0.0,0.032,0.026,0.0,0.0,1.0,0.981,0.981,0.981,0.196,1.0,1.0,0.462,0.584,0.57,24.267,0x00000101,192.168.0.40,8080,255.255.255.0,192.168.0.1,0xFFFFFFFF,0xFFFFFFFF,0xFFFFFFFF,0x00000000,
10.183480978,0x00000000,0x00000000,0x00000000,0x00000000,0x00000000,0x00000000,0x00000000,0x00000000,21.38,5,0x00000000,96.484,97.647,0.007,-0.025,-0.028,-0.021,0.036,0.408,-1.496,-0.643,-0.339,3.809,0x00000003,1.0,1.0,0.305,0.008,0.08,-0.0,0.046,0.0,0.0,-0.067,0.285,0.0,0.0,0.109,-1.284,4.781,0.0,0.0,4.781,34.991,34.991,0.0,0.0,0.0,96.484,96.484,0.0,0.0,26.375,26.25,0.0,0.0,0.0,0.04,90.0,76.727,0.109,27.438,0x00000000,0x00000000,0x00000000,0.0,1246,1279,4.79,8.353,0.0,0.0,0.032,0.026,0.0,0.0,1.0,0.981,0.981,0.981,0.196,1.0,1.0,0.462,0.584,0.57,24.267,0x00000101,192.168.0.40,8080,255.255.255.0,192.168.0.1,0xFFFFFFFF,0xFFFFFFFF,0xFFFFFFFF,0x00000000,
10.9747040272,0x00000000,0x00000000,0x00000000,0x00000000,0x00000000,0x00000000,0x00000000,0x00000000,22.17,5,0x00000000,96.484,97.647,0.006,-0.016,-0.013,-0.008,-0.006,-0.334,0.428,-0.449,0.11,-0.491,0x00000003,1.0,1.0,0.01,-0.0,0.0,-0.0,0.001,0.0,0.0,-0.053,0.302,0.0,0.0,0.124,-0.585,2.568,0.0,0.0,2.568,34.991,34.991,0.0,0.0,0.0,96.484,96.484,0.0,0.0,26.375,26.25,0.0,0.0,0.0,0.0,90.0,76.727,0.109,27.438,0x00000000,0x00000000,0x00000000,0.0,1246,1279,4.781,1.463,0.0,0.0,0.033,0.027,0.0,0.0,1.0,0.981,0.981,0.981,0.196,1.0,1.0,0.462,0.584,0.57,24.267,0x00000101,192.168.0.40,8080,255.255.255.0,192.168.0.1,0xFFFFFFFF,0xFFFFFFFF,0xFFFFFFFF,0x00000000,
11.0248200893,0x00000000,0x00000000,0x00000000,0x00000000,0x00000000,0x00000000,0x00000000,0x00000000,22.22,5,0x00000000,96.484,97.647,0.005,-0.02,-0.018,-0.015,-0.025,-0.348,-0.095,-0.43,0.121,-0.495,0x00000003,1.0,1.0,0.004,0.0,0.001,0.0,0.001,0.0,0.0,-0.053,0.302,0.0,0.0,0.124,-0.521,2.492,0.0,0.0,2.492,34.991,34.991,0.0,0.0,0.0,96.484,96.484,0.0,0.0,26.375,26.188,0.0,0.0,0.01,0.0,90.0,76.727,0.109,27.438,0x00000000,0x00000000,0x00000000,0.0,1246,1279,4.781,4.638,0.0,0.0,0.033,0.027,0.0,0.0,1.0,0.981,0.981,0.981,0.196,1.0,1.0,0.462,0.584,0.57,24.267,0x00000101,192.168.0.40,8080,255.255.255.0,192.168.0.1,0xFFFFFFFF,0xFFFFFFFF,0xFFFFFFFF,0x00000000,
11.0748519897,0x00000000,0x00000000,0x00000000,0x00000000,0x00000000,0x00000000,0x00000000,0x00000000,22.27,5,0x00000000,96.484,97.647,0.003,-0.011,0.01,-0.019,-0.03,-0.37,0.278,-0.431,-0.129,-1.525,0x00000003,1.0,1.0,-0.375,-0.005,-0.011,-0.012,-0.035,0.0,0.0,-0.053,0.301,0.0,0.0,0.124,-8.023,-4.259,0.0,0.0,-8.023,34.991,34.991,0.0,0.0,0.0,96.484,96.484,0.0,0.0,26.375,26.25,0.0,0.0,0.059,0.0,90.0,76.727,0.109,27.438,0x00000000,0x00000000,0x00000000,0.0,1246,1279,4.781,8.176,0.0,0.0,0.033,0.027,0.0,0.0,1.0,0.981,0.981,0.981,0.196,1.0,1.0,0.462,0.584,0.57,24.267,0x00000101,192.168.0.40,8080,255.255.255.0,192.168.0.1,0xFFFFFFFF,0xFFFFFFFF,0xFFFFFFFF,0x00000000,
11.124984026,0x00000000,0x00000000,0x00000000,0x00000000,0x00000000,0x00000000,0x00000000,0x00000000,22.32,5,0x00000000,96.484,97.647,0.001,0.06,0.307,-0.013,-0.01,-0.185,13.464,-0.412,0.31,-0.154,0x00000003,1.0,1.0,-2.298,-0.077,-0.012,-0.186,-0.189,0.0,0.0,-0.058,0.296,0.0,0.0,0.118,-13.427,-10.998,0.0,0.0,-13.427,34.991,34.991,0.0,0.0,0.0,96.484,96.484,0.0,0.0,26.375,26.25,0.0,0.0,0.094,0.0,90.0,76.727,0.109,27.438,0x00000000,0x00000000,0x00000000,0.0,1246,1279,31.875,38.393,0.0,0.0,0.034,0.028,0.0,0.0,1.0,0.981,0.981,0.981,0.196,1.0,1.0,0.462,0.584,0.57,24.267,0x00000101,192.168.0.40,8080,255.255.255.0,192.168.0.1,0xFFFFFFFF,0xFFFFFFFF,0xFFFFFFFF,0x00000000,
11.1750130653,0x00000000,0x00000000,0x00000000,0x00000000,0x00000000,0x00000000,0x00000000,0x00000000,22.37,5,0x00000000,96.484,97.647,-0.001,0.191,0.756,-0.029,-0.034,0.941,39.385,-0.407,-0.643,-1.535,0x00000003,1.0,1.0,-3.435,-0.241,-0.012,-0.404,-0.409,0.0,0.0,-0.074,0.28,0.0,0.0,0.102,-5.417,-1.933,0.0,0.0,-5.417,34.991,34.991,0.0,0.0,0.0,96.484,96.484,0.0,0.0,26.375,26.25,0.0,0.0,0.098,0.0,90.0,76.727,0.109,27.438,0x00000000,0x00000000,0x00000000,0.0,1246,1279,30.721,28.98,0.0,0.0,0.034,0.028,0.0,0.0,1.0,0.981,0.981,0.981,0.196,1.0,1.0,0.462,0.584,0.57,24.267,0x00000101,192.168.0.40,8080,255.255.255.0,192.168.0.1,0xFFFFFFFF,0xFFFFFFFF,0xFFFFFFFF,0x00000000,
11.9763009548,0x00000000,0x00000000,0x00000000,0x00000000,0x00000000,0x00000000,0x00000000,0x00000000,23.17,5,0x00000000,96.484,97.647,0.002,-0.024,-0.188,-0.002,0.023,-4.479,-17.759,-0.194,-0.744,-0.362,0x00000003,1.0,1.0,-2.219,0.305,0.006,0.196,0.2,0.0,0.0,0.067,0.425,0.0,0.0,0.245,-8.672,-8.405,0.0,0.0,-8.672,34.991,34.991,0.0,0.0,0.0,96.484,96.484,0.0,0.0,26.375,26.25,0.0,0.0,0.0,0.0,90.0,76.727,0.109,27.438,0x00000000,0x00000000,0x00000000,0.0,1246,1279,-2.923,1.632,0.0,0.0,0.037,0.031,0.0,0.0,1.0,0.981,0.981,0.981,0.196,1.0,1.0,0.462,0.584,0.57,24.267,0x00000101,192.168.0.40,8080,255.255.255.0,192.168.0.1,0xFFFFFFFF,0xFFFFFFFF,0xFFFFFFFF,0x00000000,
12.0264148712,0x00000000,0x00000000,0x00000000,0x00000000,0x00000000,0x00000000,0x00000000,0x00000000,23.22,5,0x00000000,96.484,97.647,-0.004,0.117,0.159,-0.011,0.019,-4.931,3.885,-0.177,0.286,0.763,0x00000003,1.0,1.0,-3.241,0.151,0.015,-0.011,0.002,0.0,0.0,0.07,0.429,0.0,0.0,0.248,-4.679,-5.556,0.0,0.0,-5.556,34.991,34.991,0.0,0.0,0.0,96.484,96.484,0.0,0.0,26.375,26.25,0.0,0.0,0.0,0.01,90.0,76.727,0.109,27.438,0x00000000,0x00000000,0x00000000,0.0,1246,1279,11.651,11.452,0.0,0.0,0.037,0.031,0.0,0.0,1.0,0.981,0.981,0.981,0.196,1.0,1.0,0.462,0.584,0.57,24.267,0x00000101,192.168.0.40,8080,255.255.255.0,192.168.0.1,0xFFFFFFFF,0xFFFFFFFF,0xFFFFFFFF,0x00000000,
12.0764789581,0x00000000,0x00000000,0x00000000,0x00000000,0x00000000,0x00000000,0x00000000,0x00000000,23.27,5,0x00000000,96.484,97.647,0.001,0.135,0.263,-0.012,-0.005,-4.443,14.477,-0.158,0.117,0.466,0x00000003,1.0,1.0,-2.402,0.011,0.023,-0.113,-0.098,0.0,0.0,0.066,0.426,0.0,0.0,0.245,-2.162,-2.034,0.0,0.0,-2.162,34.991,34.991,0.0,0.0,0.0,96.484,96.484,0.0,0.0,26.375,26.25,0.0,0.0,0.0,0.06,90.0,76.727,0.109,27.438,0x00000000,0x00000000,0x00000000,0.0,1246,1279,8.007,11.832,0.0,0.0,0.037,0.031,0.0,0.0,1.0,0.981,0.981,0.981,0.196,1.0,1.0,0.462,0.584,0.57,24.267,0x00000101,192.168.0.40,8080,255.255.255.0,192.168.0.1,0xFFFFFFFF,0xFFFFFFFF,0xFFFFFFFF,0x00000000,
12.1265769005,0x00000000,0x00000000,0x00000000,0x00000000,0x00000000,0x00000000,0x00000000,0x00000000,23.32,5,0x00000000,96.484,97.647,0.004,0.081,0.26,-0.03,0.038,-3.583,16.399,-0.166,-1.035,2.558,0x00000003,1.0,1.0,-1.111,-0.069,0.026,-0.132,-0.112,0.0,0.0,0.06,0.42,0.0,0.0,0.239,-2.314,-0.636,0.0,0.0,-2.314,34.991,34.991,0.0,0.0,0.0,96.484,96.484,0.0,0.0,26.375,26.25,0.0,0.0,0.0,0.11,90.0,76.727,0.109,27.438,0x00000000,0x00000000,0x00000000,0.0,1246,1279,8.68,5.755,0.0,0.0,0.037,0.032,0.0,0.0,1.0,0.981,0.981,0.981,0.196,1.0,1.0,0.462,0.584,0.57,24.267,0x00000101,192.168.0.40,8080,255.255.255.0,192.168.0.1,0xFFFFFFFF,0xFFFFFFFF,0xFFFFFFFF,0x00000000,
12.1766450405,0x00000000,0x00000000,0x00000000,0x00000000,0x00000000,0x00000000,0x00000000,0x00000000,23.37,5,0x00000000,96.484,97.647,0.007,0.028,0.286,-0.031,0.092,-2.675,16.848,-0.152,-0.269,4.293,0x00000003,1.0,1.0,-0.629,-0.107,0.051,-0.167,-0.107,0.0,0.0,0.053,0.415,0.0,0.0,0.233,-3.268,0.394,0.0,0.0,-3.268,34.991,34.991,0.0,0.0,0.0,96.484,96.484,0.0,0.0,26.375,26.25,0.0,0.0,0.0,0.16,90.0,76.727,0.109,27.438,0x00000000,0x00000000,0x00000000,0.0,1246,1279,7.02,4.808,0.0,0.0,0.038,0.032,0.0,0.0,1.0,0.981,0.981,0.981,0.196,1.0,1.0,0.462,0.584,0.57,24.267,0x00000101,192.168.0.40,8080,255.255.255.0,192.168.0.1,0xFFFFFFFF,0xFFFFFFFF,0xFFFFFFFF,0x00000000,
12.9779419899,0x00000000,0x00000000,0x00000000,0x00000000,0x00000000,0x00000000,0x00000000,0x00000000,24.17,5,0x00000000,96.484,97.647,0.007,0.009,0.091,-0.024,0.182,-1.365,6.513,0.0,0.876,11.157,0x00000003,1.0,1.0,-0.195,-0.05,0.269,-0.119,0.001,0.0,0.0,-0.025,0.497,0.0,0.0,0.234,-2.238,3.395,0.0,0.0,3.395,34.991,34.991,0.0,0.0,0.0,96.484,96.484,0.0,0.0,26.375,26.25,0.0,0.0,0.0,0.24,90.0,76.727,0.109,27.438,0x00000000,0x00000000,0x00000000,0.0,1246,1279,5.507,4.793,0.0,0.0,0.04,0.034,0.0,0.0,1.0,0.981,0.981,0.981,0.196,1.0,1.0,0.462,0.584,0.57,24.267,0x00000101,192.168.0.40,8080,255.255.255.0,192.168.0.1,0xFFFFFFFF,0xFFFFFFFF,0xFFFFFFFF,0x00000000,
13.0280098915,0x00000000,0x00000000,0x00000000,0x00000000,0x00000000,0x00000000,0x00000000,0x00000000,24.22,5,0x00000000,96.484,97.647,0.005,-0.02,0.057,-0.023,0.097,-1.077,3.974,0.006,0.314,7.342,0x00000003,1.0,1.0,0.232,-0.045,0.197,-0.069,0.001,0.0,0.0,-0.03,0.497,0.0,0.0,0.232,-2.607,3.713,0.0,0.0,3.713,34.991,34.991,0.0,0.0,0.0,96.484,96.484,0.0,0.0,26.375,26.25,0.0,0.0,0.0,0.19,90.0,76.727,0.109,27.438,0x00000000,0x00000000,0x00000000,0.0,1246,1279,4.813,9.214,0.0,0.0,0.04,0.034,0.0,0.0,1.0,0.981,0.981,0.981,0.196,1.0,1.0,0.462,0.584,0.57,24.267,0x00000101,192.168.0.40,8080,255.255.255.0,192.168.0.1,0xFFFFFFFF,0xFFFFFFFF,0xFFFFFFFF,0x00000000,
13.078042984,0x00000000,0x00000000,0x00000000,0x00000000,0x00000000,0x00000000,0x00000000,0x00000000,24.27,5,0x00000000,96.484,97.647,0.008,-0.034,0.032,-0.027,0.061,-0.887,2.723,0.005,-0.46,3.529,0x00000003,1.0,1.0,0.283,-0.032,0.13,-0.038,0.001,0.0,0.0,-0.032,0.497,0.0,0.0,0.231,-3.268,3.878,0.0,0.0,3.878,34.991,34.991,0.0,0.0,0.0,96.484,96.484,0.0,0.0,26.375,26.25,0.0,0.0,0.0,0.14,90.0,76.727,0.109,27.438,0x00000000,0x00000000,0x00000000,0.0,1246,1279,5.598,5.607,0.0,0.0,0.04,0.034,0.0,0.0,1.0,0.981,0.981,0.981,0.196,1.0,1.0,0.462,0.584,0.57,24.267,0x00000101,192.168.0.40,8080,255.255.255.0,192.168.0.1,0xFFFFFFFF,0xFFFFFFFF,0xFFFFFFFF,0x00000000,
13.1281690598,0x00000000,0x00000000,0x00000000,0x00000000,0x00000000,0x00000000,0x00000000,0x00000000,24.32,5,0x00000000,96.484,97.647,0.006,-0.034,0.007,-0.013,0.024,-0.788,1.104,0.015,0.054,3.868,0x00000003,1.0,1.0,0.293,-0.018,0.073,-0.009,0.002,0.0,0.0,-0.033,0.497,0.0,0.0,0.231,-2.746,4.374,0.0,0.0,4.374,34.991,34.991,0.0,0.0,0.0,96.484,96.484,0.0,0.0,26.375,26.25,0.0,0.0,0.0,0.09,90.0,76.727,0.109,27.438,0x00000000,0x00000000,0x00000000,0.0,1246,1279,4.817,4.808,0.0,0.0,0.04,0.034,0.0,0.0,1.0,0.981,0.981,0.981,0.196,1.0,1.0,0.462,0.584,0.57,24.267,0x00000101,192.168.0.40,8080,255.255.255.0,192.168.0.1,0xFFFFFFFF,0xFFFFFFFF,0xFFFFFFFF,0x00000000,
13.1782488823,0x00000000,0x00000000,0x00000000,0x00000000,0x00000000,0x00000000,0x00000000,0x00000000,24.37,5,0x00000000,96.484,97.647,0.008,-0.039,-0.011,-0.039,0.036,-0.768,-0.078,0.032,0.057,1.792,0x00000003,1.0,1.0,0.276,-0.004,0.042,-0.001,0.019,0.0,0.0,-0.033,0.498,0.0,0.0,0.231,-2.251,4.259,0.0,0.0,4.259,34.991,34.991,0.0,0.0,0.0,96.484,96.484,0.0,0.0,26.375,26.25,0.0,0.0,0.0,0.04,90.0,76.727,0.109,27.438,0x00000000,0x00000000,0x00000000,0.0,1246,1279,4.783,9.082,0.0,0.0,0.04,0.035,0.0,0.0,1.0,0.981,0.981,0.981,0.196,1.0,1.0,0.462,0.584,0.57,24.267,0x00000101,192.168.0.40,8080,255.255.255.0,192.168.0.1,0xFFFFFFFF,0xFFFFFFFF,0xFFFFFFFF,0x00000000,
13.9795320034,0x00000000,0x00000000,0x00000000,0x00000000,0x00000000,0x00000000,0x00000000,0x00000000,25.17,5,0x00000000,96.484,97.647,0.006,-0.029,-0.026,-0.021,-0.025,-1.465,-1.029,0.115,1.063,-0.268,0x00000003,1.0,1.0,0.039,-0.002,-0.001,-0.001,0.0,0.0,0.0,-0.024,0.511,0.0,0.0,0.242,-2.225,-0.191,0.0,0.0,-2.225,34.991,34.991,0.0,0.0,0.0,96.484,96.484,0.0,0.0,26.375,26.25,0.0,0.0,0.0,0.0,90.0,76.719,0.109,27.438,0x00000000,0x00000000,0x00000000,0.0,1246,1279,4.862,4.751,0.0,0.0,0.042,0.036,0.0,0.0,1.0,0.981,0.981,0.981,0.196,1.0,1.0,0.462,0.584,0.57,24.267,0x00000101,192.168.0.40,8080,255.255.255.0,192.168.0.1,0xFFFFFFFF,0xFFFFFFFF,0xFFFFFFFF,0x00000000,
14.029665947,0x00000000,0x00000000,0x00000000,0x00000000,0x00000000,0x00000000,0x00000000,0x00000000,25.22,5,0x00000000,96.484,97.647,0.005,-0.017,-0.0,-0.017,-0.025,-1.465,1.298,0.133,0.785,-0.247,0x00000003,1.0,1.0,0.004,-0.001,-0.001,-0.0,-0.002,0.0,0.0,-0.024,0.511,0.0,0.0,0.242,-2.416,-0.292,0.0,0.0,-2.416,34.991,34.991,0.0,0.0,0.0,96.484,96.484,0.0,0.0,26.375,26.25,0.0,0.0,0.01,0.0,90.0,76.719,0.109,27.438,0x00000000,0x00000000,0x00000000,0.0,1246,1279,4.77,4.765,0.0,0.0,0.042,0.036,0.0,0.0,1.0,0.981,0.981,0.981,0.196,1.0,1.0,0.462,0.584,0.57,24.267,0x00000101,192.168.0.40,8080,255.255.255.0,192.168.0.1,0xFFFFFFFF,0xFFFFFFFF,0xFFFFFFFF,0x00000000,
14.0797178745,0x00000000,0x00000000,0x00000000,0x00000000,0x00000000,0x00000000,0x00000000,0x00000000,25.27,5,0x00000000,96.484,97.647,0.004,-0.008,0.036,-0.017,-0.03,-1.411,1.408,0.114,-0.211,-0.59,0x00000003,1.0,1.0,-0.57,-0.013,-0.019,-0.029,-0.051,0.0,0.0,-0.024,0.51,0.0,0.0,0.241,-7.4,-4.679,0.0,0.0,-7.4,34.991,34.991,0.0,0.0,0.0,96.484,96.484,0.0,0.0,26.375,26.25,0.0,0.0,0.059,0.0,90.0,76.719,0.109,27.438,0x00000000,0x00000000,0x00000000,0.0,1246,1279,6.989,14.993,0.0,0.0,0.042,0.036,0.0,0.0,1.0,0.981,0.981,0.981,0.196,1.0,1.0,0.462,0.584,0.57,24.267,0x00000101,192.168.0.40,8080,255.255.255.0,192.168.0.1,0xFFFFFFFF,0xFFFFFFFF,0xFFFFFFFF,0x00000000,
14.1297669411,0x00000000,0x00000000,0x00000000,0x00000000,0x00000000,0x00000000,0x00000000,0x00000000,25.32,5,0x00000000,96.484,97.647,-0.0,0.056,0.318,-0.008,-0.047,-1.17,14.39,0.109,0.108,-0.48,0x00000003,1.0,1.0,-2.196,-0.085,-0.018,-0.187,-0.194,0.0,0.0,-0.029,0.504,0.0,0.0,0.235,-13.109,-10.884,0.0,0.0,-13.109,34.991,34.991,0.0,0.0,0.0,96.484,96.484,0.0,0.0,26.375,26.25,0.0,0.0,0.094,0.0,90.0,76.719,0.109,27.438,0x00000000,0x00000000,0x00000000,0.0,1246,1279,30.439,37.06,0.0,0.0,0.042,0.037,0.0,0.0,1.0,0.981,0.981,0.981,0.196,1.0,1.0,0.462,0.584,0.57,24.267,0x00000101,192.168.0.40,8080,255.255.255.0,192.168.0.1,0xFFFFFFFF,0xFFFFFFFF,0xFFFFFFFF,0x00000000,
14.1798379421,0x00000000,0x00000000,0x00000000,0x00000000,0x00000000,0x00000000,0x00000000,0x00000000,25.37,5,0x00000000,96.484,97.647,-0.005,0.181,0.76,-0.023,-0.019,0.008,40.325,0.091,-0.735,-0.262,0x00000003,1.0,1.0,-3.521,-0.247,-0.012,-0.418,-0.415,0.0,0.0,-0.046,0.487,0.0,0.0,0.219,-6.218,-2.683,0.0,0.0,-6.218,34.991,34.991,0.0,0.0,0.0,96.484,96.484,0.0,0.0,26.375,26.25,0.0,0.0,0.098,0.0,90.0,76.719,0.109,27.438,0x00000000,0x00000000,0x00000000,0.0,1246,1279,34.072,31.687,0.0,0.0,0.043,0.037,0.0,0.0,1.0,0.981,0.981,0.981,0.196,1.0,1.0,0.462,0.584,0.57,24.267,0x00000101,192.168.0.40,8080,255.255.255.0,192.168.0.1,0xFFFFFFFF,0xFFFFFFFF,0xFFFFFFFF,0x00000000,
14.9811279774,0x00000000,0x00000000,0x00000000,0x00000000,0x00000000,0x00000000,0x00000000,0x00000000,26.17,5,0x00000000,96.484,97.647,0.001,-0.045,-0.231,-0.018,-0.002,-4.982,-16.262,0.019,-0.337,1.375,0x00000003,1.0,1.0,-2.069,0.281,0.027,0.176,0.186,0.0,0.0,0.078,0.617,0.0,0.0,0.345,-7.731,-10.057,0.0,0.0,-10.057,34.991,34.991,0.0,0.0,0.0,96.484,96.484,0.0,0.0,26.375,26.25,0.0,0.0,0.0,0.0,90.0,76.727,0.109,27.438,0x00000000,0x00000000,0x00000000,0.0,1246,1279,3.771,2.815,0.0,0.0,0.046,0.04,0.0,0.0,1.0,0.981,0.981,0.981,0.196,1.0,1.0,0.462,0.584,0.57,24.267,0x00000101,192.168.0.40,8080,255.255.255.0,192.168.0.1,0xFFFFFFFF,0xFFFFFFFF,0xFFFFFFFF,0x00000000,
15.0311949253,0x00000000,0x00000000,0x00000000,0x00000000,0x00000000,0x00000000,0x00000000,0x00000000,26.22,5,0x00000000,96.484,97.647,-0.003,0.1,0.13,-0.036,-0.011,-5.417,5.729,-0.008,-0.703,0.498,0x00000003,1.0,1.0,-3.236,0.133,0.013,-0.023,-0.023,0.0,0.0,0.081,0.619,0.0,0.0,0.348,-4.399,-6.205,0.0,0.0,-6.205,34.991,34.991,0.0,0.0,0.0,96.484,96.484,0.0,0.0,26.375,26.25,0.0,0.0,0.0,0.01,90.0,76.727,0.109,27.438,0x00000000,0x00000000,0x00000000,0.0,1246,1279,13.842,11.86,0.0,0.0,0.046,0.04,0.0,0.0,1.0,0.981,0.981,0.981,0.196,1.0,1.0,0.462,0.584,0.57,24.267,0x00000101,192.168.0.40,8080,255.255.255.0,192.168.0.1,0xFFFFFFFF,0xFFFFFFFF,0xFFFFFFFF,0x00000000,
15.0812718868,0x00000000,0x00000000,0x00000000,0x00000000,0x00000000,0x00000000,0x00000000,0x00000000,26.27,5,0x00000000,96.484,97.647,-0.005,0.122,0.267,-0.012,-0.041,-4.957,14.916,-0.041,0.436,-2.226,0x00000003,1.0,1.0,-2.346,-0.006,0.004,-0.12,-0.119,0.0,0.0,0.077,0.615,0.0,0.0,0.344,-3.179,-3.344,0.0,0.0,-3.344,34.991,34.991,0.0,0.0,0.0,96.484,96.484,0.0,0.0,26.375,26.25,0.0,0.0,0.0,0.06,90.0,76.727,0.109,27.438,0x00000000,0x00000000,0x00000000,0.0,1246,1279,14.32,14.192,0.0,0.0,0.046,0.04,0.0,0.0,1.0,0.981,0.981,0.981,0.196,1.0,1.0,0.462,0.584,0.57,24.267,0x00000101,192.168.0.40,8080,255.255.255.0,192.168.0.1,0xFFFFFFFF,0xFFFFFFFF,0xFFFFFFFF,0x00000000,
15.1313550472,0x00000000,0x00000000,0x00000000,0x00000000,0x00000000,0x00000000,0x00000000,0x00000000,26.32,5,0x00000000,96.484,97.647,-0.004,0.08,0.305,-0.017,0.026,-4.061,18.799,-0.024,0.62,0.932,0x00000003,1.0,1.0,-1.432,-0.097,0.007,-0.176,-0.155,0.0,0.0,0.069,0.608,0.0,0.0,0.337,-3.636,-0.585,0.0,0.0,-3.636,34.991,34.991,0.0,0.0,0.0,96.484,96.484,0.0,0.0,26.375,26.25,0.0,0.0,0.0,0.11,90.0,76.727,0.109,27.438,0x00000000,0x00000000,0x00000000,0.0,1246,1279,9.949,5.533,0.0,0.0,0.046,0.04,0.0,0.0,1.0,0.981,0.981,0.981,0.196,1.0,1.0,0.462,0.584,0.57,24.267,0x00000101,192.168.0.40,8080,255.255.255.0,192.168.0.1,0xFFFFFFFF,0xFFFFFFFF,0xFFFFFFFF,0x00000000,
15.1814310551,0x00000000,0x00000000,0x00000000,0x00000000,0x00000000,0x00000000,0x00000000,0x00000000,26.37,5,0x00000000,96.484,97.647,0.002,0.032,0.325,-0.014,0.123,-3.053,19.454,-0.014,-0.098,7.192,0x00000003,1.0,1.0,-0.688,-0.142,0.069,-0.212,-0.138,0.0,0.0,0.06,0.601,0.0,0.0,0.328,-2.505,0.661,0.0,0.0,-2.505,34.991,34.991,0.0,0.0,0.0,96.484,96.484,0.0,0.0,26.375,26.25,0.0,0.0,0.0,0.16,90.0,76.727,0.109,27.438,0x00000000,0x00000000,0x00000000,0.0,1246,1279,8.944,5.432,0.0,0.0,0.046,0.04,0.0,0.0,1.0,0.981,0.981,0.981,0.196,1.0,1.0,0.462,0.584,0.57,24.267,0x00000101,192.168.0.40,8080,255.255.255.0,192.168.0.1,0xFFFFFFFF,0xFFFFFFFF,0xFFFFFFFF,0x00000000,
15.9827110767,0x00000000,0x00000000,0x00000000,0x00000000,0x00000000,0x00000000,0x00000000,0x00000000,27.17,5,0x00000000,96.484,97.647,0.004,-0.032,0.048,-0.037,0.212,-1.003,3.714,0.019,-0.36,11.904,0x00000003,1.0,1.0,0.102,-0.065,0.264,-0.121,0.001,0.0,0.0,-0.043,0.659,0.0,0.0,0.306,-4.361,3.636,0.0,0.0,-4.361,34.991,34.991,0.0,0.0,0.0,96.484,96.484,0.0,0.0,26.375,26.25,0.0,0.0,0.0,0.24,90.0,76.727,0.109,27.438,0x00000000,0x00000000,0x00000000,0.0,1246,1279,10.12,5.481,0.0,0.0,0.049,0.042,0.0,0.0,1.0,0.981,0.981,0.981,0.196,1.0,1.0,0.462,0.584,0.57,24.267,0x00000101,192.168.0.40,8080,255.255.255.0,192.168.0.1,0xFFFFFFFF,0xFFFFFFFF,0xFFFFFFFF,0x00000000,
16.0327880383,0x00000000,0x00000000,0x00000000,0x00000000,0x00000000,0x00000000,0x00000000,0x00000000,27.22,5,0x00000000,96.484,97.647,0.004,-0.026,0.05,-0.02,0.182,-0.829,3.867,0.011,0.337,10.522,0x00000003,1.0,1.0,0.1,-0.061,0.23,-0.113,0.001,0.0,0.0,-0.049,0.659,0.0,0.0,0.303,-3.23,3.7,0.0,0.0,3.7,34.991,34.991,0.0,0.0,0.0,96.484,96.484,0.0,0.0,26.375,26.25,0.0,0.0,0.0,0.19,90.0,76.727,0.109,27.438,0x00000000,0x00000000,0x00000000,0.0,1246,1279,4.997,4.804,0.0,0.0,0.049,0.042,0.0,0.0,1.0,0.981,0.981,0.981,0.196,1.0,1.0,0.462,0.584,0.57,24.267,0x00000101,192.168.0.40,8080,255.255.255.0,192.168.0.1,0xFFFFFFFF,0xFFFFFFFF,0xFFFFFFFF,0x00000000,
16.0828690529,0x00000000,0x00000000,0x00000000,0x00000000,0x00000000,0x00000000,0x00000000,0x00000000,27.27,5,0x00000000,96.484,97.647,0.005,-0.031,0.016,-0.031,0.115,-0.664,2.058,0.029,0.323,8.442,0x00000003,1.0,1.0,0.314,-0.048,0.177,-0.067,0.002,0.0,0.0,-0.053,0.659,0.0,0.0,0.302,-1.742,3.738,0.0,0.0,3.738,34.991,34.991,0.0,0.0,0.0,96.484,96.484,0.0,0.0,26.375,26.25,0.0,0.0,0.0,0.14,90.0,76.727,0.109,27.438,0x00000000,0x00000000,0x00000000,0.0,1246,1279,4.776,4.781,0.0,0.0,0.049,0.043,0.0,0.0,1.0,0.981,0.981,0.981,0.196,1.0,1.0,0.462,0.584,0.57,24.267,0x00000101,192.168.0.40,8080,255.255.255.0,192.168.0.1,0xFFFFFFFF,0xFFFFFFFF,0xFFFFFFFF,0x00000000,
16.1329469681,0x00000000,0x00000000,0x00000000,0x00000000,0x00000000,0x00000000,0x00000000,0x00000000,27.32,5,0x00000000,96.484,97.647,0.005,-0.042,-0.02,-0.03,0.036,-0.586,0.611,0.007,-0.416,3.229,0x00000003,1.0,1.0,0.466,-0.028,0.109,-0.014,0.002,0.0,0.0,-0.054,0.659,0.0,0.0,0.301,-2.136,3.611,0.0,0.0,3.611,34.991,34.991,0.0,0.0,0.0,96.484,96.484,0.0,0.0,26.375,26.25,0.0,0.0,0.0,0.09,90.0,76.727,0.109,27.438,0x00000000,0x00000000,0x00000000,0.0,1246,1279,9.753,11.604,0.0,0.0,0.049,0.043,0.0,0.0,1.0,0.981,0.981,0.981,0.196,1.0,1.0,0.462,0.584,0.57,24.267,0x00000101,192.168.0.40,8080,255.255.255.0,192.168.0.1,0xFFFFFFFF,0xFFFFFFFF,0xFFFFFFFF,0x00000000,
16.183027029,0x00000000,0x00000000,0x00000000,0x00000000,0x00000000,0x00000000,0x00000000,0x00000000,27.37,5,0x00000000,96.484,97.647,0.004,-0.048,-0.065,-0.034,0.005,-0.669,-2.668,0.006,0.124,1.132,0x00000003,1.0,1.0,0.26,-0.011,0.048,-0.0,0.003,0.0,0.0,-0.054,0.659,0.0,0.0,0.301,-2.276,3.611,0.0,0.0,3.611,34.991,34.991,0.0,0.0,0.0,96.484,96.484,0.0,0.0,26.375,26.25,0.0,0.0,0.0,0.04,90.0,76.727,0.109,27.438,0x00000000,0x00000000,0x00000000,0.0,1246,1279,4.989,11.884,0.0,0.0,0.049,0.043,0.0,0.0,1.0,0.981,0.981,0.981,0.196,1.0,1.0,0.462,0.584,0.57,24.267,0x00000101,192.168.0.40,8080,255.255.255.0,192.168.0.1,0xFFFFFFFF,0xFFFFFFFF,0xFFFFFFFF,0x00000000,
16.9843099117,0x00000000,0x00000000,0x00000000,0x00000000,0x00000000,0x00000000,0x00000000,0x00000000,28.17,5,0x00000000,96.484,97.647,0.002,-0.029,-0.025,-0.047,0.018,-1.082,-1.099,0.112,-0.399,-0.534,0x00000003,1.0,1.0,0.005,0.001,0.001,0.0,0.002,0.0,0.0,-0.054,0.659,0.0,0.0,0.301,-1.233,1.958,0.0,0.0,1.958,34.991,34.991,0.0,0.0,0.0,96.484,96.484,0.0,0.0,26.375,26.188,0.0,0.0,0.0,0.0,90.0,76.727,0.109,27.438,0x00000000,0x00000000,0x00000000,0.0,1246,1279,4.962,8.803,0.0,0.0,0.05,0.044,0.0,0.0,1.0,0.981,0.981,0.981,0.196,1.0,1.0,0.462,0.584,0.57,24.267,0x00000101,192.168.0.40,8080,255.255.255.0,192.168.0.1,0xFFFFFFFF,0xFFFFFFFF,0xFFFFFFFF,0x00000000,
