Time_stamp,fault_status_word_1,fault_status_word_2,fault_status_word_3,fault_status_word_4,mcu_0_fault_status,mcu_1_fault_status,mcu_2_fault_status,mcu_3_fault_status,operational_time,operational_state,dynamic_response,min_propulsion_batt_soc,aux_batt_soc,inertial_x_acc_g,inertial_y_acc_g,inertial_x_rate_rps,inertial_y_rate_rps,inertial_z_rate_rps,pse_pitch_deg,pse_pitch_rate_dps,pse_roll_deg,pse_roll_rate_dps,pse_yaw_rate_dps,pse_data_is_valid,yaw_rate_limit_rps,vel_limit_mps,linear_accel_mps2,linear_vel_mps,differential_wheel_vel_rps,right_front_vel_mps,left_front_vel_mps,right_rear_vel_mps,left_rear_vel_mps,right_front_pos_m,left_front_pos_m,right_rear_pos_m,left_rear_pos_m,linear_pos_m,right_front_current_A0pk,left_front_current_A0pk,right_rear_current_A0pk,left_rear_current_A0pk,max_motor_current_A0pk,right_front_current_limit_A0pk,left_front_current_limit_A0pk,right_rear_current_limit_A0pk,left_rear_current_limit_A0pk,min_motor_current_limit_A0pk,front_base_batt_1_soc,front_base_batt_2_soc,rear_base_batt_1_soc,rear_base_batt_2_soc,front_base_batt_1_temp_degC,front_base_batt_2_temp_degC,rear_base_batt_1_temp_degC,rear_base_batt_2_temp_degC,vel_target_mps,yaw_rate_target_rps,angle_target_deg,aux_batt_voltage_V,aux_batt_current_A,aux_batt_temp_degC,abb_system_status,aux_batt_status,aux_batt_faults,7p2V_battery_voltage,ccu_sp_sw_build_id,ccu_uip_sw_build_id,mcu_0_inst_power_W,mcu_1_inst_power_W,mcu_2_inst_power_W,mcu_3_inst_power_W,mcu_0_total_energy_Wh,mcu_1_total_energy_Wh,mcu_2_total_energy_Wh,mcu_3_total_energy_Wh,fram_vel_limit_mps,fram_accel_limit_mps2,fram_decel_limit_mps2,fram_dtz_decel_limit_mps2,fram_coastdown_decel_mps2,fram_yaw_rate_limit_rps,fram_yaw_accel_limit_rps2,fram_tire_diameter_m,fram_wheelbase_length_m,fram_wheel_track_width_m,fram_transmission_ratio,fram_config_bitmap,fram_eth_ip_address,fram_eth_port_number,fram_eth_subnet_mask,fram_eth_gateway,user_feedback_bitmap_1,user_feedback_bitmap_2,user_feedback_bitmap_3,user_feedback_bitmap_4,
0.0764920711517,0x00000000,0x00000000,0x00000000,0x00000000,0x00000000,0x00000000,0x00000000,0x00000000,15.1,3,0x00000000,96.875,98.039,-0.008,0.057,-0.014,-0.004,-0.0,3.023,0.007,-1.754,-1.113,-0.782,0x00000003,0.0,0.0,-0.004,0.0,0.001,-0.001,0.0,0.0,0.0,-0.0,-0.001,0.0,0.0,-0.0,0.636,0.75,0.0,0.0,0.75,34.991,34.991,0.0,0.0,0.0,96.875,96.875,0.0,0.0,26.313,26.188,0.0,0.0,0.0,0.0,90.0,76.742,0.109,27.313,0x00000000,0x00000000,0x00000000,0.0,1246,1279,3.515,1.755,0.0,0.0,0.005,0.007,0.0,0.0,1.0,0.981,0.981,0.981,0.196,1.0,1.0,0.462,0.584,0.57,24.267,0x00000101,192.168.0.40,8080,255.255.255.0,192.168.0.1,0xFFFFFFFF,0xFFFFFFFF,0xFFFFFFFF,0x00000000,
0.126554012299,0x00000000,0x00000000,0x00000000,0x00000000,0x00000000,0x00000000,0x00000000,0x00000000,15.15,3,0x00000000,96.875,98.039,-0.007,0.056,0.002,-0.013,-0.018,3.063,0.86,-1.758,-0.671,-0.105,0x00000003,0.0,0.0,-0.009,-0.0,0.001,-0.001,-0.0,0.0,0.0,-0.0,-0.001,0.0,0.0,-0.0,0.737,0.75,0.0,0.0,0.75,34.991,34.991,0.0,0.0,0.0,96.875,96.875,0.0,0.0,26.313,26.125,0.0,0.0,0.0,0.0,90.0,76.742,0.109,27.313,0x00000000,0x00000000,0x00000000,0.0,1246,1279,2.895,4.016,0.0,0.0,0.005,0.007,0.0,0.0,1.0,0.981,0.981,0.981,0.196,1.0,1.0,0.462,0.584,0.57,24.267,0x00000101,192.168.0.40,8080,255.255.255.0,192.168.0.1,0xFFFFFFFF,0xFFFFFFFF,0xFFFFFFFF,0x00000000,
0.176760911942,0x00000000,0x00000000,0x00000000,0x00000000,0x00000000,0x00000000,0x00000000,0x00000000,15.2,3,0x00000000,96.875,98.039,-0.011,0.059,0.006,-0.03,0.006,3.139,1.913,-1.755,-0.799,-2.207,0x00000003,0.0,0.0,0.011,-0.0,0.001,-0.0,0.001,0.0,0.0,-0.0,-0.001,0.0,0.0,-0.0,0.737,0.75,0.0,0.0,0.75,34.991,34.991,0.0,0.0,0.0,96.875,96.875,0.0,0.0,26.313,26.188,0.0,0.0,0.0,0.0,90.0,76.742,0.109,27.313,0x00000000,0x00000000,0x00000000,0.0,1246,1279,3.167,7.128,0.0,0.0,0.005,0.007,0.0,0.0,1.0,0.981,0.981,0.981,0.196,1.0,1.0,0.462,0.584,0.57,24.267,0x00000101,192.168.0.40,8080,255.255.255.0,192.168.0.1,0xFFFFFFFF,0xFFFFFFFF,0xFFFFFFFF,0x00000000,
0.226778030396,0x00000000,0x00000000,0x00000000,0x00000000,0x00000000,0x00000000,0x00000000,0x00000000,15.25,3,0x00000000,96.875,98.039,-0.011,0.06,0.025,0.0,-0.036,3.226,2.114,-1.756,-0.659,-0.48,0x00000003,0.0,0.0,-0.002,-0.0,0.001,-0.001,0.0,0.0,0.0,-0.0,-0.001,0.0,0.0,-0.0,0.648,0.623,0.0,0.0,0.648,34.991,34.991,0.0,0.0,0.0,96.875,96.875,0.0,0.0,26.313,26.188,0.0,0.0,0.0,0.0,90.0,76.742,0.109,27.313,0x00000000,0x00000000,0x00000000,0.0,1246,1279,4.523,4.883,0.0,0.0,0.005,0.007,0.0,0.0,1.0,0.981,0.981,0.981,0.196,1.0,1.0,0.462,0.584,0.57,24.267,0x00000101,192.168.0.40,8080,255.255.255.0,192.168.0.1,0xFFFFFFFF,0xFFFFFFFF,0xFFFFFFFF,0x00000000,
0.276782989502,0x00000000,0x00000000,0x00000000,0x00000000,0x00000000,0x00000000,0x00000000,0x00000000,15.3,3,0x00000000,96.875,98.039,-0.012,0.064,0.028,-0.0,-0.024,3.359,2.196,-1.75,-0.094,-1.51,0x00000003,0.0,0.0,-0.001,0.0,0.002,-0.0,0.0,0.0,0.0,-0.0,-0.001,0.0,0.0,-0.0,0.636,0.623,0.0,0.0,0.636,34.991,34.991,0.0,0.0,0.0,96.875,96.875,0.0,0.0,26.313,26.125,0.0,0.0,0.0,0.0,90.0,76.734,0.109,27.313,0x00000000,0x00000000,0x00000000,0.0,1246,1279,0.196,2.216,0.0,0.0,0.005,0.007,0.0,0.0,1.0,0.981,0.981,0.981,0.196,1.0,1.0,0.462,0.584,0.57,24.267,0x00000101,192.168.0.40,8080,255.255.255.0,192.168.0.1,0xFFFFFFFF,0xFFFFFFFF,0xFFFFFFFF,0x00000000,
0.326870918274,0x00000000,0x00000000,0x00000000,0x00000000,0x00000000,0x00000000,0x00000000,0x00000000,15.35,3,0x00000000,96.875,98.039,-0.008,0.066,0.019,-0.026,-0.006,3.48,2.079,-1.739,-0.653,-0.465,0x00000003,0.0,0.0,-0.0,-0.0,0.001,-0.0,0.0,0.0,0.0,-0.0,-0.001,0.0,0.0,-0.0,0.648,0.839,0.0,0.0,0.839,34.991,34.991,0.0,0.0,0.0,96.875,96.875,0.0,0.0,26.313,26.125,0.0,0.0,0.0,0.0,90.0,76.734,0.109,27.313,0x00000000,0x00000000,0x00000000,0.0,1246,1279,3.763,3.855,0.0,0.0,0.005,0.007,0.0,0.0,1.0,0.981,0.981,0.981,0.196,1.0,1.0,0.462,0.584,0.57,24.267,0x00000101,192.168.0.40,8080,255.255.255.0,192.168.0.1,0xFFFFFFFF,0xFFFFFFFF,0xFFFFFFFF,0x00000000,
0.37693810463,0x00000000,0x00000000,0x00000000,0x00000000,0x00000000,0x00000000,0x00000000,0x00000000,15.4,3,0x00000000,96.875,98.039,-0.007,0.072,0.01,-0.017,-0.012,3.59,1.482,-1.74,-0.858,-0.804,0x00000003,0.0,0.0,0.008,-0.0,0.003,-0.001,0.001,0.0,0.0,-0.0,-0.001,0.0,0.0,-0.0,0.636,0.737,0.0,0.0,0.737,34.991,34.991,0.0,0.0,0.0,96.875,96.875,0.0,0.0,26.313,26.125,0.0,0.0,0.0,0.0,90.0,76.734,0.109,27.313,0x00000000,0x00000000,0x00000000,0.0,1246,1279,2.324,4.561,0.0,0.0,0.005,0.008,0.0,0.0,1.0,0.981,0.981,0.981,0.196,1.0,1.0,0.462,0.584,0.57,24.267,0x00000101,192.168.0.40,8080,255.255.255.0,192.168.0.1,0xFFFFFFFF,0xFFFFFFFF,0xFFFFFFFF,0x00000000,
0.42701792717,0x00000000,0x00000000,0x00000000,0x00000000,0x00000000,0x00000000,0x00000000,0x00000000,15.45,3,0x00000000,96.875,98.039,-0.011,0.074,0.003,-0.026,0.006,3.666,0.855,-1.741,0.05,0.59,0x00000003,0.0,0.0,0.0,-0.0,0.002,-0.001,0.001,0.0,0.0,-0.0,-0.001,0.0,0.0,-0.0,0.547,0.737,0.0,0.0,0.737,34.991,34.991,0.0,0.0,0.0,96.875,96.875,0.0,0.0,26.313,26.125,0.0,0.0,0.0,0.0,90.0,76.734,0.109,27.313,0x00000000,0x00000000,0x00000000,0.0,1246,1279,2.51,4.137,0.0,0.0,0.005,0.008,0.0,0.0,1.0,0.981,0.981,0.981,0.196,1.0,1.0,0.462,0.584,0.57,24.267,0x00000101,192.168.0.40,8080,255.255.255.0,192.168.0.1,0xFFFFFFFF,0xFFFFFFFF,0xFFFFFFFF,0x00000000,
0.477123975754,0x00000000,0x00000000,0x00000000,0x00000000,0x00000000,0x00000000,0x00000000,0x00000000,15.5,3,0x00000000,96.875,98.039,-0.009,0.073,-0.013,-0.017,-0.012,3.724,0.627,-1.741,0.017,-2.178,0x00000003,0.0,0.0,0.002,-0.0,0.002,-0.0,0.0,0.0,0.0,-0.0,-0.001,0.0,0.0,-0.0,0.737,0.661,0.0,0.0,0.737,34.991,34.991,0.0,0.0,0.0,96.875,96.875,0.0,0.0,26.313,26.188,0.0,0.0,0.0,0.0,90.0,76.734,0.109,27.313,0x00000000,0x00000000,0x00000000,0.0,1246,1279,3.707,4.119,0.0,0.0,0.005,0.008,0.0,0.0,1.0,0.981,0.981,0.981,0.196,1.0,1.0,0.462,0.584,0.57,24.267,0x00000101,192.168.0.40,8080,255.255.255.0,192.168.0.1,0xFFFFFFFF,0xFFFFFFFF,0xFFFFFFFF,0x00000000,
0.52729010582,0x00000000,0x00000000,0x00000000,0x00000000,0x00000000,0x00000000,0x00000000,0x00000000,15.55,3,0x00000000,96.875,98.039,-0.01,0.073,-0.019,-0.025,-0.018,3.734,-0.044,-1.762,-1.092,-0.42,0x00000003,0.0,0.0,0.007,0.0,0.002,-0.0,0.001,0.0,0.0,-0.0,-0.001,0.0,0.0,-0.0,0.737,0.75,0.0,0.0,0.75,34.991,34.991,0.0,0.0,0.0,96.875,96.875,0.0,0.0,26.313,26.125,0.0,0.0,0.0,0.0,90.0,76.734,0.109,27.313,0x00000000,0x00000000,0x00000000,0.0,1246,1279,2.905,4.753,0.0,0.0,0.005,0.008,0.0,0.0,1.0,0.981,0.981,0.981,0.196,1.0,1.0,0.462,0.584,0.57,24.267,0x00000101,192.168.0.40,8080,255.255.255.0,192.168.0.1,0xFFFFFFFF,0xFFFFFFFF,0xFFFFFFFF,0x00000000,
0.577347040176,0x00000000,0x00000000,0x00000000,0x00000000,0x00000000,0x00000000,0x00000000,0x00000000,15.6,3,0x00000000,96.875,98.039,-0.011,0.071,-0.019,-0.017,-0.018,3.722,-1.037,-1.748,-0.107,-0.047,0x00000003,0.0,0.0,-0.018,-0.0,0.002,-0.003,-0.0,0.0,0.0,-0.0,-0.001,0.0,0.0,-0.0,0.737,0.75,0.0,0.0,0.75,34.991,34.991,0.0,0.0,0.0,96.875,96.875,0.0,0.0,26.313,26.125,0.0,0.0,0.0,0.0,90.0,76.734,0.109,27.313,0x00000000,0x00000000,0x00000000,0.0,1246,1279,3.717,2.55,0.0,0.0,0.005,0.008,0.0,0.0,1.0,0.981,0.981,0.981,0.196,1.0,1.0,0.462,0.584,0.57,24.267,0x00000101,192.168.0.40,8080,255.255.255.0,192.168.0.1,0xFFFFFFFF,0xFFFFFFFF,0xFFFFFFFF,0x00000000,
0.62742805481,0x00000000,0x00000000,0x00000000,0x00000000,0x00000000,0x00000000,0x00000000,0x00000000,15.65,3,0x00000000,96.875,98.039,-0.012,0.068,-0.033,-0.017,-0.013,3.677,-1.114,-1.763,-0.587,-0.214,0x00000003,0.0,0.0,0.006,-0.0,0.002,-0.0,0.0,0.0,0.0,-0.0,-0.001,0.0,0.0,-0.0,0.636,0.839,0.0,0.0,0.839,34.991,34.991,0.0,0.0,0.0,96.875,96.875,0.0,0.0,26.313,26.125,0.0,0.0,0.0,0.0,90.0,76.734,0.109,27.313,0x00000000,0x00000000,0x00000000,0.0,1246,1279,1.869,2.454,0.0,0.0,0.005,0.008,0.0,0.0,1.0,0.981,0.981,0.981,0.196,1.0,1.0,0.462,0.584,0.57,24.267,0x00000101,192.168.0.40,8080,255.255.255.0,192.168.0.1,0xFFFFFFFF,0xFFFFFFFF,0xFFFFFFFF,0x00000000,
0.677489042282,0x00000000,0x00000000,0x00000000,0x00000000,0x00000000,0x00000000,0x00000000,0x00000000,15.7,3,0x00000000,96.875,98.039,-0.008,0.064,-0.016,-0.023,-0.037,3.642,-0.528,-1.76,-0.158,-1.092,0x00000003,0.0,0.0,-0.006,-0.001,0.001,-0.001,-0.001,0.0,0.0,-0.0,-0.001,0.0,0.0,-0.0,0.737,0.75,0.0,0.0,0.75,34.991,34.991,0.0,0.0,0.0,96.875,96.875,0.0,0.0,26.313,26.188,0.0,0.0,0.0,0.0,90.0,76.734,0.109,27.313,0x00000000,0x00000000,0x00000000,0.0,1246,1279,0.715,4.861,0.0,0.0,0.005,0.008,0.0,0.0,1.0,0.981,0.981,0.981,0.196,1.0,1.0,0.462,0.584,0.57,24.267,0x00000101,192.168.0.40,8080,255.255.255.0,192.168.0.1,0xFFFFFFFF,0xFFFFFFFF,0xFFFFFFFF,0x00000000,
0.727559089661,0x00000000,0x00000000,0x00000000,0x00000000,0x00000000,0x00000000,0x00000000,0x00000000,15.75,3,0x00000000,96.875,98.039,-0.01,0.065,-0.01,-0.017,-0.012,3.651,0.21,-1.783,-1.456,-0.411,0x00000003,0.0,0.0,0.012,-0.0,0.002,-0.001,0.001,0.0,0.0,-0.0,-0.001,0.0,0.0,-0.0,0.648,0.839,0.0,0.0,0.839,34.991,34.991,0.0,0.0,0.0,96.875,96.875,0.0,0.0,26.313,26.188,0.0,0.0,0.0,0.0,90.0,76.734,0.109,27.313,0x00000000,0x00000000,0x00000000,0.0,1246,1279,3.442,3.969,0.0,0.0,0.005,0.008,0.0,0.0,1.0,0.981,0.981,0.981,0.196,1.0,1.0,0.462,0.584,0.57,24.267,0x00000101,192.168.0.40,8080,255.255.255.0,192.168.0.1,0xFFFFFFFF,0xFFFFFFFF,0xFFFFFFFF,0x00000000,
0.777653932571,0x00000000,0x00000000,0x00000000,0x00000000,0x00000000,0x00000000,0x00000000,0x00000000,15.8,3,0x00000000,96.875,98.039,-0.011,0.063,-0.003,-0.01,-0.015,3.688,0.775,-1.783,-0.333,-0.597,0x00000003,0.0,0.0,-0.005,-0.0,0.002,-0.001,0.0,0.0,0.0,-0.0,-0.001,0.0,0.0,-0.0,0.636,0.75,0.0,0.0,0.75,34.991,34.991,0.0,0.0,0.0,96.875,96.875,0.0,0.0,26.313,26.188,0.0,0.0,0.0,0.0,90.0,76.734,0.109,27.313,0x00000000,0x00000000,0x00000000,0.0,1246,1279,3.186,3.556,0.0,0.0,0.005,0.008,0.0,0.0,1.0,0.981,0.981,0.981,0.196,1.0,1.0,0.462,0.584,0.57,24.267,0x00000101,192.168.0.40,8080,255.255.255.0,192.168.0.1,0xFFFFFFFF,0xFFFFFFFF,0xFFFFFFFF,0x00000000,
0.827953100204,0x00000000,0x00000000,0x00000000,0x00000000,0x00000000,0x00000000,0x00000000,0x00000000,15.85,3,0x00000000,96.875,98.039,-0.01,0.066,0.023,-0.015,-0.015,3.75,1.696,-1.778,-0.469,-0.617,0x00000003,0.0,0.0,-0.003,-0.0,0.002,-0.001,0.0,0.0,0.0,-0.0,-0.001,0.0,0.0,-0.0,0.547,0.75,0.0,0.0,0.75,34.991,34.991,0.0,0.0,0.0,96.875,96.875,0.0,0.0,26.313,26.188,0.0,0.0,0.0,0.0,90.0,76.734,0.109,27.313,0x00000000,0x00000000,0x00000000,0.0,1246,1279,2.887,4.548,0.0,0.0,0.005,0.008,0.0,0.0,1.0,0.981,0.981,0.981,0.196,1.0,1.0,0.462,0.584,0.57,24.267,0x00000101,192.168.0.40,8080,255.255.255.0,192.168.0.1,0xFFFFFFFF,0xFFFFFFFF,0xFFFFFFFF,0x00000000,
0.877801895142,0x00000000,0x00000000,0x00000000,0x00000000,0x00000000,0x00000000,0x00000000,0x00000000,15.9,3,0x00000000,96.875,98.039,-0.012,0.07,0.011,-0.009,-0.006,3.854,1.782,-1.764,0.06,-0.971,0x00000003,0.0,0.0,-0.005,-0.0,0.002,-0.001,0.0,0.0,0.0,-0.0,-0.001,0.0,0.0,-0.0,0.737,0.75,0.0,0.0,0.75,34.991,34.991,0.0,0.0,0.0,96.875,96.875,0.0,0.0,26.313,26.188,0.0,0.0,0.0,0.0,90.0,76.734,0.109,27.313,0x00000000,0x00000000,0x00000000,0.0,1246,1279,0.463,3.243,0.0,0.0,0.005,0.008,0.0,0.0,1.0,0.981,0.981,0.981,0.196,1.0,1.0,0.462,0.584,0.57,24.267,0x00000101,192.168.0.40,8080,255.255.255.0,192.168.0.1,0xFFFFFFFF,0xFFFFFFFF,0xFFFFFFFF,0x00000000,
0.92787694931,0x00000000,0x00000000,0x00000000,0x00000000,0x00000000,0x00000000,0x00000000,0x00000000,15.95,3,0x00000000,96.875,98.039,-0.01,0.071,0.008,-0.028,-0.024,3.93,1.436,-1.757,-0.673,-0.958,0x00000003,0.0,0.0,-0.003,-0.0,0.002,-0.001,0.001,0.0,0.0,-0.0,-0.001,0.0,0.0,-0.0,0.547,0.75,0.0,0.0,0.75,34.991,34.991,0.0,0.0,0.0,96.875,96.875,0.0,0.0,26.313,26.188,0.0,0.0,0.0,0.0,90.0,76.734,0.109,27.313,0x00000000,0x00000000,0x00000000,0.0,1246,1279,3.397,1.849,0.0,0.0,0.005,0.008,0.0,0.0,1.0,0.981,0.981,0.981,0.196,1.0,1.0,0.462,0.584,0.57,24.267,0x00000101,192.168.0.40,8080,255.255.255.0,192.168.0.1,0xFFFFFFFF,0xFFFFFFFF,0xFFFFFFFF,0x00000000,
0.977968931198,0x00000000,0x00000000,0x00000000,0x00000000,0x00000000,0x00000000,0x00000000,0x00000000,16.0,3,0x00000000,96.875,98.039,-0.007,0.072,0.013,-0.021,-0.018,4.01,1.442,-1.752,-0.985,-0.085,0x00000003,0.0,0.0,0.005,-0.0,0.002,-0.001,0.001,0.0,0.0,-0.0,-0.001,0.0,0.0,-0.0,0.737,0.737,0.0,0.0,0.737,34.991,34.991,0.0,0.0,0.0,96.875,96.875,0.0,0.0,26.313,26.188,0.0,0.0,0.0,0.0,90.0,76.734,0.109,27.313,0x00000000,0x00000000,0x00000000,0.0,1246,1279,2.715,4.655,0.0,0.0,0.005,0.008,0.0,0.0,1.0,0.981,0.981,0.981,0.196,1.0,1.0,0.462,0.584,0.57,24.267,0x00000101,192.168.0.40,8080,255.255.255.0,192.168.0.1,0xFFFFFFFF,0xFFFFFFFF,0xFFFFFFFF,0x00000000,
1.02806210518,0x00000000,0x00000000,0x00000000,0x00000000,0x00000000,0x00000000,0x00000000,0x00000000,16.05,3,0x00000000,96.875,98.039,-0.009,0.075,0.016,-0.024,-0.018,4.102,1.868,-1.749,-0.439,-0.782,0x00000003,0.0,0.0,0.004,-0.0,0.002,-0.0,0.0,0.0,0.0,-0.0,-0.001,0.0,0.0,-0.0,0.737,0.75,0.0,0.0,0.75,34.991,34.991,0.0,0.0,0.0,96.875,96.875,0.0,0.0,26.313,26.188,0.0,0.0,0.0,0.0,90.0,76.734,0.109,27.313,0x00000000,0x00000000,0x00000000,0.0,1246,1279,1.941,3.96,0.0,0.0,0.005,0.008,0.0,0.0,1.0,0.981,0.981,0.981,0.196,1.0,1.0,0.462,0.584,0.57,24.267,0x00000101,192.168.0.40,8080,255.255.255.0,192.168.0.1,0xFFFFFFFF,0xFFFFFFFF,0xFFFFFFFF,0x00000000,
1.07810807228,0x00000000,0x00000000,0x00000000,0x00000000,0x00000000,0x00000000,0x00000000,0x00000000,16.1,3,0x00000000,96.875,98.039,-0.01,0.078,-0.004,-0.013,-0.024,4.176,0.932,-1.757,-0.487,-1.448,0x00000003,0.0,0.0,0.008,-0.0,0.001,-0.0,0.001,0.0,0.0,-0.0,-0.001,0.0,0.0,-0.0,0.737,0.75,0.0,0.0,0.75,34.991,34.991,0.0,0.0,0.0,96.875,96.875,0.0,0.0,26.313,26.125,0.0,0.0,0.0,0.0,90.0,76.734,0.109,27.313,0x00000000,0x00000000,0x00000000,0.0,1246,1279,4.129,3.772,0.0,0.0,0.005,0.008,0.0,0.0,1.0,0.981,0.981,0.981,0.196,1.0,1.0,0.462,0.584,0.57,24.267,0x00000101,192.168.0.40,8080,255.255.255.0,192.168.0.1,0xFFFFFFFF,0xFFFFFFFF,0xFFFFFFFF,0x00000000,
1.12812399864,0x00000000,0x00000000,0x00000000,0x00000000,0x00000000,0x00000000,0x00000000,0x00000000,16.15,3,0x00000000,96.875,98.039,-0.013,0.079,-0.02,-0.01,-0.01,4.211,0.207,-1.758,-0.553,-0.395,0x00000003,0.0,0.0,-0.009,-0.0,0.002,-0.001,0.0,0.0,0.0,-0.0,-0.001,0.0,0.0,-0.0,0.636,0.75,0.0,0.0,0.75,34.991,34.991,0.0,0.0,0.0,96.875,96.875,0.0,0.0,26.313,26.188,0.0,0.0,0.0,0.0,90.0,76.734,0.109,27.313,0x00000000,0x00000000,0x00000000,0.0,1246,1279,4.561,1.988,0.0,0.0,0.005,0.008,0.0,0.0,1.0,0.981,0.981,0.981,0.196,1.0,1.0,0.462,0.584,0.57,24.267,0x00000101,192.168.0.40,8080,255.255.255.0,192.168.0.1,0xFFFFFFFF,0xFFFFFFFF,0xFFFFFFFF,0x00000000,
1.17820692062,0x00000000,0x00000000,0x00000000,0x00000000,0x00000000,0x00000000,0x00000000,0x00000000,16.2,3,0x00000000,96.875,98.039,-0.011,0.078,-0.019,-0.004,-0.025,4.228,0.412,-1.761,-0.497,-1.089,0x00000003,0.0,0.0,0.004,-0.0,0.002,-0.0,0.0,0.0,0.0,-0.0,-0.001,0.0,0.0,-0.0,0.737,0.763,0.0,0.0,0.763,34.991,34.991,0.0,0.0,0.0,96.875,96.875,0.0,0.0,26.313,26.125,0.0,0.0,0.0,0.0,90.0,76.734,0.109,27.313,0x00000000,0x00000000,0x00000000,0.0,1246,1279,3.944,5.85,0.0,0.0,0.005,0.008,0.0,0.0,1.0,0.981,0.981,0.981,0.196,1.0,1.0,0.462,0.584,0.57,24.267,0x00000101,192.168.0.40,8080,255.255.255.0,192.168.0.1,0xFFFFFFFF,0xFFFFFFFF,0xFFFFFFFF,0x00000000,
1.22834396362,0x00000000,0x00000000,0x00000000,0x00000000,0x00000000,0x00000000,0x00000000,0x00000000,16.25,3,0x00000000,96.875,98.039,-0.01,0.077,-0.028,-0.004,-0.007,4.222,-0.576,-1.765,-1.439,-1.409,0x00000003,0.0,0.0,-0.0,-0.0,0.002,-0.0,0.0,0.0,0.0,-0.0,-0.001,0.0,0.0,-0.0,1.449,-0.076,0.0,0.0,1.449,34.991,34.991,0.0,0.0,0.0,96.875,96.875,0.0,0.0,26.313,26.188,0.0,0.0,0.0,0.0,90.0,76.734,0.109,27.313,0x00000000,0x00000000,0x00000000,0.0,1246,1279,3.209,4.827,0.0,0.0,0.005,0.008,0.0,0.0,1.0,0.981,0.981,0.981,0.196,1.0,1.0,0.462,0.584,0.57,24.267,0x00000101,192.168.0.40,8080,255.255.255.0,192.168.0.1,0xFFFFFFFF,0xFFFFFFFF,0xFFFFFFFF,0x00000000,
1.27837610245,0x00000000,0x00000000,0x00000000,0x00000000,0x00000000,0x00000000,0x00000000,0x00000000,16.3,3,0x00000000,96.875,98.039,-0.008,0.075,-0.032,-0.021,-0.019,4.169,-1.773,-1.738,-0.07,0.347,0x00000003,0.0,0.0,0.002,0.0,0.002,-0.0,0.0,0.0,0.0,-0.0,-0.001,0.0,0.0,-0.0,0.636,0.661,0.0,0.0,0.661,34.991,34.991,0.0,0.0,0.0,96.875,96.875,0.0,0.0,26.313,26.125,0.0,0.0,0.0,0.0,90.0,76.734,0.109,27.313,0x00000000,0x00000000,0x00000000,0.0,1246,1279,0.658,2.553,0.0,0.0,0.005,0.009,0.0,0.0,1.0,0.981,0.981,0.981,0.196,1.0,1.0,0.462,0.584,0.57,24.267,0x00000101,192.168.0.40,8080,255.255.255.0,192.168.0.1,0xFFFFFFFF,0xFFFFFFFF,0xFFFFFFFF,0x00000000,
1.32844209671,0x00000000,0x00000000,0x00000000,0x00000000,0x00000000,0x00000000,0x00000000,0x00000000,16.35,3,0x00000000,96.875,98.039,-0.009,0.073,-0.027,-0.034,-0.006,4.122,-1.047,-1.743,-0.823,0.335,0x00000003,0.0,0.0,-0.001,-0.0,0.001,-0.0,0.0,0.0,0.0,-0.0,-0.001,0.0,0.0,-0.0,0.547,0.737,0.0,0.0,0.737,34.991,34.991,0.0,0.0,0.0,96.875,96.875,0.0,0.0,26.313,26.188,0.0,0.0,0.0,0.0,90.0,76.734,0.109,27.313,0x00000000,0x00000000,0x00000000,0.0,1246,1279,2.029,3.495,0.0,0.0,0.005,0.009,0.0,0.0,1.0,0.981,0.981,0.981,0.196,1.0,1.0,0.462,0.584,0.57,24.267,0x00000101,192.168.0.40,8080,255.255.255.0,192.168.0.1,0xFFFFFFFF,0xFFFFFFFF,0xFFFFFFFF,0x00000000,
1.3785200119,0x00000000,0x00000000,0x00000000,0x00000000,0x00000000,0x00000000,0x00000000,0x00000000,16.4,3,0x00000000,96.875,98.039,-0.011,0.072,-0.029,-0.021,-0.025,4.088,-1.238,-1.743,0.045,-1.058,0x00000003,0.0,0.0,-0.004,-0.0,0.002,-0.001,0.0,0.0,0.0,-0.0,-0.001,0.0,0.0,-0.0,0.737,0.852,0.0,0.0,0.852,34.991,34.991,0.0,0.0,0.0,96.875,96.875,0.0,0.0,26.313,26.188,0.0,0.0,0.0,0.0,90.0,76.734,0.109,27.313,0x00000000,0x00000000,0x00000000,0.0,1246,1279,4.138,6.956,0.0,0.0,0.005,0.009,0.0,0.0,1.0,0.981,0.981,0.981,0.196,1.0,1.0,0.462,0.584,0.57,24.267,0x00000101,192.168.0.40,8080,255.255.255.0,192.168.0.1,0xFFFFFFFF,0xFFFFFFFF,0xFFFFFFFF,0x00000000,
1.42860412598,0x00000000,0x00000000,0x00000000,0x00000000,0x00000000,0x00000000,0x00000000,0x00000000,16.45,3,0x00000000,96.875,98.039,-0.013,0.07,-0.025,-0.021,-0.006,4.059,-0.071,-1.765,-0.585,0.316,0x00000003,0.0,0.0,0.002,-0.0,0.002,-0.001,0.0,0.0,0.0,-0.0,-0.001,0.0,0.0,-0.0,0.75,0.852,0.0,0.0,0.852,34.991,34.991,0.0,0.0,0.0,96.875,96.875,0.0,0.0,26.313,26.188,0.0,0.0,0.0,0.0,90.0,76.734,0.109,27.313,0x00000000,0x00000000,0x00000000,0.0,1246,1279,0.811,4.875,0.0,0.0,0.005,0.009,0.0,0.0,1.0,0.981,0.981,0.981,0.196,1.0,1.0,0.462,0.584,0.57,24.267,0x00000101,192.168.0.40,8080,255.255.255.0,192.168.0.1,0xFFFFFFFF,0xFFFFFFFF,0xFFFFFFFF,0x00000000,
1.47870397568,0x00000000,0x00000000,0x00000000,0x00000000,0x00000000,0x00000000,0x00000000,0x00000000,16.5,3,0x00000000,96.875,98.039,-0.011,0.07,-0.004,-0.008,-0.006,4.057,0.335,-1.776,-0.778,-0.393,0x00000003,0.0,0.0,0.003,-0.0,0.002,-0.001,0.0,0.0,0.0,-0.0,-0.001,0.0,0.0,-0.0,0.75,0.75,0.0,0.0,0.75,34.991,34.991,0.0,0.0,0.0,96.875,96.875,0.0,0.0,26.313,26.188,0.0,0.0,0.0,0.0,90.0,76.734,0.109,27.313,0x00000000,0x00000000,0x00000000,0.0,1246,1279,1.221,4.447,0.0,0.0,0.005,0.009,0.0,0.0,1.0,0.981,0.981,0.981,0.196,1.0,1.0,0.462,0.584,0.57,24.267,0x00000101,192.168.0.40,8080,255.255.255.0,192.168.0.1,0xFFFFFFFF,0xFFFFFFFF,0xFFFFFFFF,0x00000000,
1.52874994278,0x00000000,0x00000000,0x00000000,0x00000000,0x00000000,0x00000000,0x00000000,0x00000000,16.55,3,0x00000000,96.875,98.039,-0.01,0.069,-0.009,-0.013,0.006,4.064,0.482,-1.771,-0.505,-0.732,0x00000003,0.0,0.0,0.002,-0.0,0.001,-0.0,0.0,0.0,0.0,-0.0,-0.001,0.0,0.0,-0.0,0.737,0.852,0.0,0.0,0.852,34.991,34.991,0.0,0.0,0.0,96.875,96.875,0.0,0.0,26.313,26.188,0.0,0.0,0.0,0.0,90.0,76.734,0.109,27.313,0x00000000,0x00000000,0x00000000,0.0,1246,1279,2.909,4.767,0.0,0.0,0.005,0.009,0.0,0.0,1.0,0.981,0.981,0.981,0.196,1.0,1.0,0.462,0.584,0.57,24.267,0x00000101,192.168.0.40,8080,255.255.255.0,192.168.0.1,0xFFFFFFFF,0xFFFFFFFF,0xFFFFFFFF,0x00000000,
1.57899689674,0x00000000,0x00000000,0x00000000,0x00000000,0x00000000,0x00000000,0x00000000,0x00000000,16.6,3,0x00000000,96.875,98.039,-0.009,0.071,-0.005,-0.008,-0.006,4.1,0.682,-1.766,-0.802,-0.052,0x00000003,0.0,0.0,0.002,-0.0,0.001,-0.0,0.0,0.0,0.0,-0.0,-0.001,0.0,0.0,-0.0,-0.483,1.971,0.0,0.0,1.971,34.991,34.991,0.0,0.0,0.0,96.875,96.875,0.0,0.0,26.313,26.125,0.0,0.0,0.0,0.0,90.0,76.734,0.109,27.313,0x00000000,0x00000000,0x00000000,0.0,1246,1279,2.349,5.119,0.0,0.0,0.005,0.009,0.0,0.0,1.0,0.981,0.981,0.981,0.196,1.0,1.0,0.462,0.584,0.57,24.267,0x00000101,192.168.0.40,8080,255.255.255.0,192.168.0.1,0xFFFFFFFF,0xFFFFFFFF,0xFFFFFFFF,0x00000000,
1.62899303436,0x00000000,0x00000000,0x00000000,0x00000000,0x00000000,0x00000000,0x00000000,0x00000000,16.65,3,0x00000000,96.875,98.039,-0.009,0.071,0.006,-0.038,-0.043,4.149,1.573,-1.763,-0.075,-0.062,0x00000003,0.0,0.0,0.0,-0.0,0.001,-0.0,0.0,0.0,0.0,-0.0,-0.001,0.0,0.0,-0.0,-0.178,2.009,0.0,0.0,2.009,34.991,34.991,0.0,0.0,0.0,96.875,96.875,0.0,0.0,26.313,26.188,0.0,0.0,0.0,0.0,90.0,76.734,0.109,27.313,0x00000000,0x00000000,0x00000000,0.0,1246,1279,4.028,11.637,0.0,0.0,0.006,0.009,0.0,0.0,1.0,0.981,0.981,0.981,0.196,1.0,1.0,0.462,0.584,0.57,24.267,0x00000101,192.168.0.40,8080,255.255.255.0,192.168.0.1,0xFFFFFFFF,0xFFFFFFFF,0xFFFFFFFF,0x00000000,
1.67906808853,0x00000000,0x00000000,0x00000000,0x00000000,0x00000000,0x00000000,0x00000000,0x00000000,16.7,3,0x00000000,96.875,98.039,-0.01,0.074,0.001,0.0,-0.006,4.211,1.398,-1.771,-0.505,-0.752,0x00000003,0.0,0.0,0.006,-0.0,0.001,-0.0,0.001,0.0,0.0,-0.0,-0.001,0.0,0.0,-0.0,-0.064,1.259,0.0,0.0,1.259,34.991,34.991,0.0,0.0,0.0,96.875,96.875,0.0,0.0,26.313,26.188,0.0,0.0,0.0,0.0,90.0,76.734,0.109,27.313,0x00000000,0x00000000,0x00000000,0.0,1246,1279,2.915,2.846,0.0,0.0,0.006,0.009,0.0,0.0,1.0,0.981,0.981,0.981,0.196,1.0,1.0,0.462,0.584,0.57,24.267,0x00000101,192.168.0.40,8080,255.255.255.0,192.168.0.1,0xFFFFFFFF,0xFFFFFFFF,0xFFFFFFFF,0x00000000,
1.72914910316,0x00000000,0x00000000,0x00000000,0x00000000,0x00000000,0x00000000,0x00000000,0x00000000,16.75,3,0x00000000,96.875,98.039,-0.011,0.075,0.004,-0.017,-0.03,4.262,1.175,-1.758,-0.554,-0.053,0x00000003,0.0,0.0,0.001,-0.0,0.001,-0.0,-0.0,0.0,0.0,-0.0,-0.001,0.0,0.0,-0.0,-0.381,1.856,0.0,0.0,1.856,34.991,34.991,0.0,0.0,0.0,96.875,96.875,0.0,0.0,26.313,26.188,0.0,0.0,0.0,0.0,90.0,76.734,0.109,27.313,0x00000000,0x00000000,0x00000000,0.0,1246,1279,4.168,4.35,0.0,0.0,0.006,0.009,0.0,0.0,1.0,0.981,0.981,0.981,0.196,1.0,1.0,0.462,0.584,0.57,24.267,0x00000101,192.168.0.40,8080,255.255.255.0,192.168.0.1,0xFFFFFFFF,0xFFFFFFFF,0xFFFFFFFF,0x00000000,
1.78937196732,0x00000000,0x00000000,0x00000000,0x00000000,0x00000000,0x00000000,0x00000000,0x00000000,16.81,3,0x00000000,96.875,98.039,-0.01,0.077,-0.013,-0.017,-0.037,4.316,0.794,-1.753,-1.197,-1.086,0x00000003,0.0,0.0,-0.01,-0.0,0.001,-0.001,0.0,0.0,0.0,-0.0,-0.001,0.0,0.0,-0.0,0.025,1.653,0.0,0.0,1.653,34.991,34.991,0.0,0.0,0.0,96.875,96.875,0.0,0.0,26.313,26.188,0.0,0.0,0.0,0.0,90.0,76.742,0.109,27.313,0x00000000,0x00000000,0x00000000,0.0,1246,1279,1.738,4.852,0.0,0.0,0.006,0.009,0.0,0.0,1.0,0.981,0.981,0.981,0.196,1.0,1.0,0.462,0.584,0.57,24.267,0x00000101,192.168.0.40,8080,255.255.255.0,192.168.0.1,0xFFFFFFFF,0xFFFFFFFF,0xFFFFFFFF,0x00000000,
1.83925700188,0x00000000,0x00000000,0x00000000,0x00000000,0x00000000,0x00000000,0x00000000,0x00000000,16.86,3,0x00000000,96.875,98.039,-0.011,0.078,-0.022,-0.017,0.018,4.336,-0.03,-1.751,-1.051,0.326,0x00000003,0.0,0.0,0.002,0.0,0.002,-0.001,0.001,0.0,0.0,-0.0,-0.001,0.0,0.0,-0.0,-0.483,1.882,0.0,0.0,1.882,34.991,34.991,0.0,0.0,0.0,96.875,96.875,0.0,0.0,26.313,26.125,0.0,0.0,0.0,0.0,90.0,76.742,0.109,27.313,0x00000000,0x00000000,0x00000000,0.0,1246,1279,2.231,4.773,0.0,0.0,0.006,0.009,0.0,0.0,1.0,0.981,0.981,0.981,0.196,1.0,1.0,0.462,0.584,0.57,24.267,0x00000101,192.168.0.40,8080,255.255.255.0,192.168.0.1,0xFFFFFFFF,0xFFFFFFFF,0xFFFFFFFF,0x00000000,
1.88934493065,0x00000000,0x00000000,0x00000000,0x00000000,0x00000000,0x00000000,0x00000000,0x00000000,16.91,3,0x00000000,96.875,98.039,-0.009,0.077,-0.021,-0.03,-0.019,4.347,-0.256,-1.73,0.441,0.331,0x00000003,0.0,0.0,-0.008,0.0,0.002,-0.001,0.0,0.0,0.0,-0.0,-0.001,0.0,0.0,-0.0,0.737,0.75,0.0,0.0,0.75,34.991,34.991,0.0,0.0,0.0,96.875,96.875,0.0,0.0,26.313,26.125,0.0,0.0,0.0,0.0,90.0,76.742,0.109,27.313,0x00000000,0x00000000,0x00000000,0.0,1246,1279,1.067,3.583,0.0,0.0,0.006,0.009,0.0,0.0,1.0,0.981,0.981,0.981,0.196,1.0,1.0,0.462,0.584,0.57,24.267,0x00000101,192.168.0.40,8080,255.255.255.0,192.168.0.1,0xFFFFFFFF,0xFFFFFFFF,0xFFFFFFFF,0x00000000,
1.93942499161,0x00000000,0x00000000,0x00000000,0x00000000,0x00000000,0x00000000,0x00000000,0x00000000,16.96,3,0x00000000,96.875,98.039,-0.011,0.077,-0.024,0.001,-0.025,4.354,0.702,-1.732,-0.936,-1.08,0x00000003,0.0,0.0,0.001,0.0,0.002,-0.001,0.001,0.0,0.0,-0.0,-0.001,0.0,0.0,-0.0,1.449,0.0,0.0,0.0,1.449,34.991,34.991,0.0,0.0,0.0,96.875,96.875,0.0,0.0,26.313,26.188,0.0,0.0,0.0,0.0,90.0,76.742,0.109,27.313,0x00000000,0x00000000,0x00000000,0.0,1246,1279,3.455,4.896,0.0,0.0,0.006,0.009,0.0,0.0,1.0,0.981,0.981,0.981,0.196,1.0,1.0,0.462,0.584,0.57,24.267,0x00000101,192.168.0.40,8080,255.255.255.0,192.168.0.1,0xFFFFFFFF,0xFFFFFFFF,0xFFFFFFFF,0x00000000,
1.98954296112,0x00000000,0x00000000,0x00000000,0x00000000,0x00000000,0x00000000,0x00000000,0x00000000,17.01,3,0x00000000,96.875,98.039,-0.01,0.078,-0.029,-0.012,-0.019,4.328,-0.518,-1.729,-0.884,-1.394,0x00000003,0.0,0.0,-0.006,0.0,0.001,-0.0,0.0,0.0,0.0,-0.0,-0.001,0.0,0.0,-0.0,-0.381,1.869,0.0,0.0,1.869,34.991,34.991,0.0,0.0,0.0,96.875,96.875,0.0,0.0,26.313,26.188,0.0,0.0,0.0,0.0,90.0,76.742,0.109,27.313,0x00000000,0x00000000,0x00000000,0.0,1246,1279,3.185,3.594,0.0,0.0,0.006,0.01,0.0,0.0,1.0,0.981,0.981,0.981,0.196,1.0,1.0,0.462,0.584,0.57,24.267,0x00000101,192.168.0.40,8080,255.255.255.0,192.168.0.1,0xFFFFFFFF,0xFFFFFFFF,0xFFFFFFFF,0x00000000,
2.03957891464,0x00000000,0x00000000,0x00000000,0x00000000,0x00000000,0x00000000,0x00000000,0x00000000,17.06,3,0x00000000,96.875,98.039,-0.012,0.076,-0.021,-0.008,-0.025,4.312,-0.342,-1.719,-0.448,-0.701,0x00000003,0.0,0.0,-0.005,0.0,0.001,-0.0,-0.0,0.0,0.0,-0.0,-0.001,0.0,0.0,-0.0,-0.267,2.098,0.0,0.0,2.098,34.991,34.991,0.0,0.0,0.0,96.875,96.875,0.0,0.0,26.313,26.188,0.0,0.0,0.0,0.0,90.0,76.742,0.109,27.313,0x00000000,0x00000000,0x00000000,0.0,1246,1279,2.994,4.466,0.0,0.0,0.006,0.01,0.0,0.0,1.0,0.981,0.981,0.981,0.196,1.0,1.0,0.462,0.584,0.57,24.267,0x00000101,192.168.0.40,8080,255.255.255.0,192.168.0.1,0xFFFFFFFF,0xFFFFFFFF,0xFFFFFFFF,0x00000000,
2.08964705467,0x00000000,0x00000000,0x00000000,0x00000000,0x00000000,0x00000000,0x00000000,0x00000000,17.11,3,0x00000000,96.875,98.039,-0.01,0.075,-0.024,-0.025,-0.018,4.29,-0.518,-1.711,-0.474,-0.342,0x00000003,0.0,0.0,-0.003,0.0,0.001,-0.0,0.0,0.0,0.0,-0.0,-0.001,0.0,0.0,-0.0,0.547,0.712,0.0,0.0,0.712,34.991,34.991,0.0,0.0,0.0,96.875,96.875,0.0,0.0,26.313,26.188,0.0,0.0,0.0,0.0,90.0,76.742,0.109,27.313,0x00000000,0x00000000,0x00000000,0.0,1246,1279,1.833,4.127,0.0,0.0,0.006,0.01,0.0,0.0,1.0,0.981,0.981,0.981,0.196,1.0,1.0,0.462,0.584,0.57,24.267,0x00000101,192.168.0.40,8080,255.255.255.0,192.168.0.1,0xFFFFFFFF,0xFFFFFFFF,0xFFFFFFFF,0x00000000,
2.13972711563,0x00000000,0x00000000,0x00000000,0x00000000,0x00000000,0x00000000,0x00000000,0x00000000,17.16,3,0x00000000,96.875,98.039,-0.01,0.075,-0.014,-0.017,-0.019,4.271,0.026,-1.701,-0.141,-1.403,0x00000003,0.0,0.0,0.011,0.0,0.002,-0.0,0.002,0.0,0.0,-0.0,-0.001,0.0,0.0,-0.0,-0.687,1.882,0.0,0.0,1.882,34.991,34.991,0.0,0.0,0.0,96.875,96.875,0.0,0.0,26.313,26.188,0.0,0.0,0.0,0.0,90.0,76.742,0.109,27.313,0x00000000,0x00000000,0x00000000,0.0,1246,1279,4.934,4.742,0.0,0.0,0.006,0.01,0.0,0.0,1.0,0.981,0.981,0.981,0.196,1.0,1.0,0.462,0.584,0.57,24.267,0x00000101,192.168.0.40,8080,255.255.255.0,192.168.0.1,0xFFFFFFFF,0xFFFFFFFF,0xFFFFFFFF,0x00000000,
2.18980312347,0x00000000,0x00000000,0x00000000,0x00000000,0x00000000,0x00000000,0x00000000,0x00000000,17.21,3,0x00000000,96.875,98.039,-0.01,0.074,-0.023,-0.025,-0.031,4.274,0.259,-1.681,0.539,-0.703,0x00000003,0.0,0.0,0.011,0.001,0.003,-0.0,0.002,0.0,0.0,-0.0,-0.001,0.0,0.0,-0.0,0.737,0.547,0.0,0.0,0.737,34.991,34.991,0.0,0.0,0.0,96.875,96.875,0.0,0.0,26.313,26.125,0.0,0.0,0.0,0.0,90.0,76.742,0.109,27.313,0x00000000,0x00000000,0x00000000,0.0,1246,1279,1.184,7.151,0.0,0.0,0.006,0.01,0.0,0.0,1.0,0.981,0.981,0.981,0.196,1.0,1.0,0.462,0.584,0.57,24.267,0x00000101,192.168.0.40,8080,255.255.255.0,192.168.0.1,0xFFFFFFFF,0xFFFFFFFF,0xFFFFFFFF,0x00000000,
2.23989391327,0x00000000,0x00000000,0x00000000,0x00000000,0x00000000,0x00000000,0x00000000,0x00000000,17.26,3,0x00000000,96.875,98.039,-0.011,0.076,-0.015,-0.012,-0.025,4.271,-0.079,-1.692,-0.875,-1.397,0x00000003,0.0,0.0,0.001,0.0,0.003,-0.001,0.002,0.0,0.0,-0.0,-0.001,0.0,0.0,-0.0,0.839,0.216,0.0,0.0,0.839,34.991,34.991,0.0,0.0,0.0,96.875,96.875,0.0,0.0,26.313,26.188,0.0,0.0,0.0,0.0,90.0,76.742,0.109,27.313,0x00000000,0x00000000,0x00000000,0.0,1246,1279,5.468,3.502,0.0,0.0,0.006,0.01,0.0,0.0,1.0,0.981,0.981,0.981,0.196,1.0,1.0,0.462,0.584,0.57,24.267,0x00000101,192.168.0.40,8080,255.255.255.0,192.168.0.1,0xFFFFFFFF,0xFFFFFFFF,0xFFFFFFFF,0x00000000,
2.28999090195,0x00000000,0x00000000,0x00000000,0x00000000,0x00000000,0x00000000,0x00000000,0x00000000,17.31,3,0x00000000,96.875,98.039,-0.011,0.073,-0.021,-0.021,0.006,4.25,-0.505,-1.687,-0.645,-1.04,0x00000003,0.0,0.0,0.009,0.001,0.004,-0.0,0.002,0.0,0.0,-0.0,-0.001,0.0,0.0,-0.0,1.653,-0.203,0.0,0.0,1.653,34.991,34.991,0.0,0.0,0.0,96.875,96.875,0.0,0.0,26.313,26.188,0.0,0.0,0.0,0.0,90.0,76.742,0.109,27.313,0x00000000,0x00000000,0x00000000,0.0,1246,1279,4.616,4.713,0.0,0.0,0.006,0.01,0.0,0.0,1.0,0.981,0.981,0.981,0.196,1.0,1.0,0.462,0.584,0.57,24.267,0x00000101,192.168.0.40,8080,255.255.255.0,192.168.0.1,0xFFFFFFFF,0xFFFFFFFF,0xFFFFFFFF,0x00000000,
2.34006905556,0x00000000,0x00000000,0x00000000,0x00000000,0x00000000,0x00000000,0x00000000,0x00000000,17.36,3,0x00000000,96.875,98.039,-0.01,0.074,-0.028,-0.004,-0.031,4.225,-0.701,-1.692,-0.637,-1.036,0x00000003,0.0,0.0,-0.001,0.001,0.004,-0.001,0.002,0.0,0.0,-0.0,-0.001,0.0,0.0,-0.0,0.737,0.432,0.0,0.0,0.737,34.991,34.991,0.0,0.0,0.0,96.875,96.875,0.0,0.0,26.313,26.188,0.0,0.0,0.0,0.0,90.0,76.727,0.109,27.313,0x00000000,0x00000000,0x00000000,0.0,1246,1279,4.242,5.064,0.0,0.0,0.006,0.01,0.0,0.0,1.0,0.981,0.981,0.981,0.196,1.0,1.0,0.462,0.584,0.57,24.267,0x00000101,192.168.0.40,8080,255.255.255.0,192.168.0.1,0xFFFFFFFF,0xFFFFFFFF,0xFFFFFFFF,0x00000000,
2.39014101028,0x00000000,0x00000000,0x00000000,0x00000000,0x00000000,0x00000000,0x00000000,0x00000000,17.41,3,0x00000000,96.875,98.039,-0.01,0.072,-0.021,0.0,-0.0,4.196,-0.88,-1.683,0.108,-1.022,0x00000003,0.0,0.0,-0.005,0.0,0.003,-0.0,0.0,0.0,0.0,-0.0,-0.001,0.0,0.0,-0.0,1.755,-0.076,0.0,0.0,1.755,34.991,34.991,0.0,0.0,0.0,96.875,96.875,0.0,0.0,26.313,26.188,0.0,0.0,0.0,0.0,90.0,76.727,0.109,27.313,0x00000000,0x00000000,0x00000000,0.0,1246,1279,1.707,4.78,0.0,0.0,0.006,0.01,0.0,0.0,1.0,0.981,0.981,0.981,0.196,1.0,1.0,0.462,0.584,0.57,24.267,0x00000101,192.168.0.40,8080,255.255.255.0,192.168.0.1,0xFFFFFFFF,0xFFFFFFFF,0xFFFFFFFF,0x00000000,
2.4402449131,0x00000000,0x00000000,0x00000000,0x00000000,0x00000000,0x00000000,0x00000000,0x00000000,17.46,3,0x00000000,96.875,98.039,-0.009,0.071,-0.014,-0.017,-0.006,4.173,0.246,-1.674,-0.457,-0.359,0x00000003,0.0,0.0,0.017,-0.0,0.003,-0.001,0.002,0.0,0.0,-0.0,-0.001,0.0,0.0,-0.0,1.551,0.0,0.0,0.0,1.551,34.991,34.991,0.0,0.0,0.0,96.875,96.875,0.0,0.0,26.313,26.188,0.0,0.0,0.0,0.0,90.0,76.727,0.109,27.313,0x00000000,0x00000000,0x00000000,0.0,1246,1279,3.267,3.245,0.0,0.0,0.006,0.01,0.0,0.0,1.0,0.981,0.981,0.981,0.196,1.0,1.0,0.462,0.584,0.57,24.267,0x00000101,192.168.0.40,8080,255.255.255.0,192.168.0.1,0xFFFFFFFF,0xFFFFFFFF,0xFFFFFFFF,0x00000000,
2.49030208588,0x00000000,0x00000000,0x00000000,0x00000000,0x00000000,0x00000000,0x00000000,0x00000000,17.51,3,0x00000000,96.875,98.039,-0.011,0.071,-0.009,-0.017,-0.0,4.166,0.082,-1.698,-1.034,0.69,0x00000003,0.0,0.0,-0.006,-0.0,0.003,-0.001,0.0,0.0,0.0,-0.0,-0.001,0.0,0.0,-0.0,-0.267,1.577,0.0,0.0,1.577,34.991,34.991,0.0,0.0,0.0,96.875,96.875,0.0,0.0,26.313,26.188,0.0,0.0,0.0,0.0,90.0,76.727,0.109,27.313,0x00000000,0x00000000,0x00000000,0.0,1246,1279,3.515,4.704,0.0,0.0,0.006,0.01,0.0,0.0,1.0,0.981,0.981,0.981,0.196,1.0,1.0,0.462,0.584,0.57,24.267,0x00000101,192.168.0.40,8080,255.255.255.0,192.168.0.1,0xFFFFFFFF,0xFFFFFFFF,0xFFFFFFFF,0x00000000,
2.54043006897,0x00000000,0x00000000,0x00000000,0x00000000,0x00000000,0x00000000,0x00000000,0x00000000,17.56,3,0x00000000,96.875,98.039,-0.011,0.072,-0.017,-0.004,-0.019,4.165,-0.267,-1.703,-0.632,-1.041,0x00000003,0.0,0.0,0.001,-0.0,0.002,-0.0,0.0,0.0,0.0,-0.0,-0.001,0.0,0.0,-0.0,0.636,0.852,0.0,0.0,0.852,34.991,34.991,0.0,0.0,0.0,96.875,96.875,0.0,0.0,26.313,26.125,0.0,0.0,0.0,0.0,90.0,76.727,0.109,27.313,0x00000000,0x00000000,0x00000000,0.0,1246,1279,4.079,3.582,0.0,0.0,0.006,0.01,0.0,0.0,1.0,0.981,0.981,0.981,0.196,1.0,1.0,0.462,0.584,0.57,24.267,0x00000101,192.168.0.40,8080,255.255.255.0,192.168.0.1,0xFFFFFFFF,0xFFFFFFFF,0xFFFFFFFF,0x00000000,
2.5904610157,0x00000000,0x00000000,0x00000000,0x00000000,0x00000000,0x00000000,0x00000000,0x00000000,17.61,3,0x00000000,96.875,98.039,-0.01,0.072,-0.007,-0.017,-0.055,4.16,-0.105,-1.664,0.357,-1.035,0x00000003,0.0,0.0,-0.001,0.0,0.001,-0.0,0.0,0.0,0.0,-0.0,-0.001,0.0,0.0,-0.0,-0.178,1.564,0.0,0.0,1.564,34.991,34.991,0.0,0.0,0.0,96.875,96.875,0.0,0.0,26.313,26.188,0.0,0.0,0.0,0.0,90.0,76.727,0.109,27.313,0x00000000,0x00000000,0x00000000,0.0,1246,1279,4.398,9.161,0.0,0.0,0.006,0.01,0.0,0.0,1.0,0.981,0.981,0.981,0.196,1.0,1.0,0.462,0.584,0.57,24.267,0x00000101,192.168.0.40,8080,255.255.255.0,192.168.0.1,0xFFFFFFFF,0xFFFFFFFF,0xFFFFFFFF,0x00000000,
2.64053893089,0x00000000,0x00000000,0x00000000,0x00000000,0x00000000,0x00000000,0x00000000,0x00000000,17.66,3,0x00000000,96.875,98.039,-0.01,0.072,-0.019,0.001,-0.043,4.158,-0.041,-1.635,0.328,-0.681,0x00000003,0.0,0.0,-0.001,0.0,0.001,-0.0,0.0,0.0,0.0,-0.0,-0.001,0.0,0.0,-0.0,0.229,1.055,0.0,0.0,1.055,34.991,34.991,0.0,0.0,0.0,96.875,96.875,0.0,0.0,26.313,26.188,0.0,0.0,0.0,0.0,90.0,76.727,0.109,27.313,0x00000000,0x00000000,0x00000000,0.0,1246,1279,1.16,5.121,0.0,0.0,0.006,0.01,0.0,0.0,1.0,0.981,0.981,0.981,0.196,1.0,1.0,0.462,0.584,0.57,24.267,0x00000101,192.168.0.40,8080,255.255.255.0,192.168.0.1,0xFFFFFFFF,0xFFFFFFFF,0xFFFFFFFF,0x00000000,
2.69067311287,0x00000000,0x00000000,0x00000000,0x00000000,0x00000000,0x00000000,0x00000000,0x00000000,17.71,3,0x00000000,96.875,98.039,-0.009,0.071,-0.033,-0.017,-0.013,4.121,-0.778,-1.617,0.097,-0.667,0x00000003,0.0,0.0,-0.0,-0.0,0.001,-0.0,0.0,0.0,0.0,-0.0,-0.001,0.0,0.0,-0.0,0.127,0.941,0.0,0.0,0.941,34.991,34.991,0.0,0.0,0.0,96.875,96.875,0.0,0.0,26.313,26.125,0.0,0.0,0.0,0.0,90.0,76.727,0.109,27.313,0x00000000,0x00000000,0x00000000,0.0,1246,1279,4.092,5.466,0.0,0.0,0.006,0.01,0.0,0.0,1.0,0.981,0.981,0.981,0.196,1.0,1.0,0.462,0.584,0.57,24.267,0x00000101,192.168.0.40,8080,255.255.255.0,192.168.0.1,0xFFFFFFFF,0xFFFFFFFF,0xFFFFFFFF,0x00000000,
2.74067211151,0x00000000,0x00000000,0x00000000,0x00000000,0x00000000,0x00000000,0x00000000,0x00000000,17.76,3,0x00000000,96.875,98.039,-0.01,0.07,-0.033,-0.008,-0.025,4.09,-0.808,-1.607,-0.451,0.03,0x00000003,0.0,0.0,-0.004,-0.0,0.001,-0.001,0.0,0.0,0.0,-0.0,-0.001,0.0,0.0,-0.0,1.958,-0.483,0.0,0.0,1.958,34.991,34.991,0.0,0.0,0.0,96.875,96.875,0.0,0.0,26.313,26.125,0.0,0.0,0.0,0.0,90.0,76.727,0.109,27.313,0x00000000,0x00000000,0x00000000,0.0,1246,1279,0.177,1.75,0.0,0.0,0.006,0.011,0.0,0.0,1.0,0.981,0.981,0.981,0.196,1.0,1.0,0.462,0.584,0.57,24.267,0x00000101,192.168.0.40,8080,255.255.255.0,192.168.0.1,0xFFFFFFFF,0xFFFFFFFF,0xFFFFFFFF,0x00000000,
2.79080510139,0x00000000,0x00000000,0x00000000,0x00000000,0x00000000,0x00000000,0x00000000,0x00000000,17.81,3,0x00000000,96.875,98.039,-0.01,0.069,-0.021,-0.021,-0.019,4.034,-1.132,-1.604,-0.744,0.729,0x00000003,0.0,0.0,0.006,-0.0,0.001,-0.0,0.0,0.0,0.0,-0.0,-0.001,0.0,0.0,-0.0,-0.381,1.996,0.0,0.0,1.996,34.991,34.991,0.0,0.0,0.0,96.875,96.875,0.0,0.0,26.313,26.188,0.0,0.0,0.0,0.0,90.0,76.727,0.109,27.313,0x00000000,0x00000000,0x00000000,0.0,1246,1279,1.158,4.009,0.0,0.0,0.006,0.011,0.0,0.0,1.0,0.981,0.981,0.981,0.196,1.0,1.0,0.462,0.584,0.57,24.267,0x00000101,192.168.0.40,8080,255.255.255.0,192.168.0.1,0xFFFFFFFF,0xFFFFFFFF,0xFFFFFFFF,0x00000000,
2.84083294868,0x00000000,0x00000000,0x00000000,0x00000000,0x00000000,0x00000000,0x00000000,0x00000000,17.86,3,0x00000000,96.875,98.039,-0.012,0.065,-0.046,-0.016,-0.019,4.016,-0.452,-1.595,0.128,-1.016,0x00000003,0.0,0.0,0.002,-0.0,0.001,-0.0,0.0,0.0,0.0,-0.0,-0.001,0.0,0.0,-0.0,1.043,0.013,0.0,0.0,1.043,34.991,34.991,0.0,0.0,0.0,96.875,96.875,0.0,0.0,26.313,26.188,0.0,0.0,0.0,0.0,90.0,76.727,0.109,27.313,0x00000000,0x00000000,0x00000000,0.0,1246,1279,1.2,4.101,0.0,0.0,0.006,0.011,0.0,0.0,1.0,0.981,0.981,0.981,0.196,1.0,1.0,0.462,0.584,0.57,24.267,0x00000101,192.168.0.40,8080,255.255.255.0,192.168.0.1,0xFFFFFFFF,0xFFFFFFFF,0xFFFFFFFF,0x00000000,
2.89092206955,0x00000000,0x00000000,0x00000000,0x00000000,0x00000000,0x00000000,0x00000000,0x00000000,17.91,3,0x00000000,96.875,98.039,-0.01,0.066,-0.005,-0.008,-0.024,3.99,-0.186,-1.608,-1.358,-1.026,0x00000003,0.0,0.0,0.001,-0.0,0.001,-0.0,0.0,0.0,0.0,-0.0,-0.001,0.0,0.0,-0.0,-0.381,1.475,0.0,0.0,1.475,34.991,34.991,0.0,0.0,0.0,96.875,96.875,0.0,0.0,26.313,26.188,0.0,0.0,0.0,0.0,90.0,76.727,0.109,27.313,0x00000000,0x00000000,0x00000000,0.0,1246,1279,0.57,6.594,0.0,0.0,0.007,0.011,0.0,0.0,1.0,0.981,0.981,0.981,0.196,1.0,1.0,0.462,0.584,0.57,24.267,0x00000101,192.168.0.40,8080,255.255.255.0,192.168.0.1,0xFFFFFFFF,0xFFFFFFFF,0xFFFFFFFF,0x00000000,
2.94102597237,0x00000000,0x00000000,0x00000000,0x00000000,0x00000000,0x00000000,0x00000000,0x00000000,17.96,3,0x00000000,96.875,98.039,-0.01,0.064,0.009,-0.004,-0.03,3.999,-0.014,-1.556,-0.148,-0.676,0x00000003,0.0,0.0,-0.004,-0.0,-0.0,-0.0,-0.001,0.0,0.0,-0.0,-0.001,0.0,0.0,-0.0,0.331,-0.483,0.0,0.0,-0.483,34.991,34.991,0.0,0.0,0.0,96.875,96.875,0.0,0.0,26.313,26.125,0.0,0.0,0.0,0.0,90.0,76.727,0.109,27.313,0x00000000,0x00000000,0x00000000,0.0,1246,1279,4.247,3.662,0.0,0.0,0.007,0.011,0.0,0.0,1.0,0.981,0.981,0.981,0.196,1.0,1.0,0.462,0.584,0.57,24.267,0x00000101,192.168.0.40,8080,255.255.255.0,192.168.0.1,0xFFFFFFFF,0xFFFFFFFF,0xFFFFFFFF,0x00000000,
2.99109506607,0x00000000,0x00000000,0x00000000,0x00000000,0x00000000,0x00000000,0x00000000,0x00000000,18.01,3,0x00000000,96.875,98.039,-0.008,0.065,0.004,-0.026,-0.018,4.037,0.819,-1.554,-0.436,-0.34,0x00000003,0.0,0.0,0.002,-0.0,-0.0,-0.001,0.0,0.0,0.0,-0.0,-0.001,0.0,0.0,-0.0,-0.381,-0.076,0.0,0.0,-0.381,34.991,34.991,0.0,0.0,0.0,96.875,96.875,0.0,0.0,26.313,26.188,0.0,0.0,0.0,0.0,90.0,76.727,0.109,27.313,0x00000000,0x00000000,0x00000000,0.0,1246,1279,9.19,2.722,0.0,0.0,0.007,0.011,0.0,0.0,1.0,0.981,0.981,0.981,0.196,1.0,1.0,0.462,0.584,0.57,24.267,0x00000101,192.168.0.40,8080,255.255.255.0,192.168.0.1,0xFFFFFFFF,0xFFFFFFFF,0xFFFFFFFF,0x00000000,
3.04112792015,0x00000000,0x00000000,0x00000000,0x00000000,0x00000000,0x00000000,0x00000000,0x00000000,18.06,3,0x00000000,96.875,98.039,-0.009,0.068,0.01,-0.026,-0.0,4.096,0.84,-1.539,-0.376,-1.034,0x00000003,0.0,0.0,0.002,-0.0,0.001,-0.0,0.0,0.0,0.0,-0.0,-0.001,0.0,0.0,-0.0,0.025,2.098,0.0,0.0,2.098,34.991,34.991,0.0,0.0,0.0,96.875,96.875,0.0,0.0,26.313,26.188,0.0,0.0,0.0,0.0,90.0,76.727,0.109,27.313,0x00000000,0x00000000,0x00000000,0.0,1246,1279,1.583,4.678,0.0,0.0,0.007,0.011,0.0,0.0,1.0,0.981,0.981,0.981,0.196,1.0,1.0,0.462,0.584,0.57,24.267,0x00000101,192.168.0.40,8080,255.255.255.0,192.168.0.1,0xFFFFFFFF,0xFFFFFFFF,0xFFFFFFFF,0x00000000,
3.09123897552,0x00000000,0x00000000,0x00000000,0x00000000,0x00000000,0x00000000,0x00000000,0x00000000,18.11,3,0x00000000,96.875,98.039,-0.012,0.069,0.013,0.0,-0.012,4.129,0.292,-1.54,0.049,0.014,0x00000003,0.0,0.0,0.001,-0.0,0.001,-0.0,0.0,0.0,0.0,-0.0,-0.001,0.0,0.0,-0.0,0.636,0.852,0.0,0.0,0.852,34.991,34.991,0.0,0.0,0.0,96.875,96.875,0.0,0.0,26.313,26.188,0.0,0.0,0.0,0.0,90.0,76.727,0.109,27.313,0x00000000,0x00000000,0x00000000,0.0,1246,1279,3.478,4.787,0.0,0.0,0.007,0.011,0.0,0.0,1.0,0.981,0.981,0.981,0.196,1.0,1.0,0.462,0.584,0.57,24.267,0x00000101,192.168.0.40,8080,255.255.255.0,192.168.0.1,0xFFFFFFFF,0xFFFFFFFF,0xFFFFFFFF,0x00000000,
3.14127612114,0x00000000,0x00000000,0x00000000,0x00000000,0x00000000,0x00000000,0x00000000,0x00000000,18.16,3,0x00000000,96.875,98.039,-0.011,0.072,0.001,-0.021,-0.0,4.178,1.059,-1.532,-0.704,0.0,0x00000003,0.0,0.0,0.0,-0.0,0.001,-0.0,0.0,0.0,0.0,-0.0,-0.001,0.0,0.0,-0.0,0.852,0.75,0.0,0.0,0.852,34.991,34.991,0.0,0.0,0.0,96.875,96.875,0.0,0.0,26.313,26.188,0.0,0.0,0.0,0.0,90.0,76.727,0.109,27.313,0x00000000,0x00000000,0x00000000,0.0,1246,1279,3.56,2.544,0.0,0.0,0.007,0.011,0.0,0.0,1.0,0.981,0.981,0.981,0.196,1.0,1.0,0.462,0.584,0.57,24.267,0x00000101,192.168.0.40,8080,255.255.255.0,192.168.0.1,0xFFFFFFFF,0xFFFFFFFF,0xFFFFFFFF,0x00000000,
3.19140005112,0x00000000,0x00000000,0x00000000,0x00000000,0x00000000,0x00000000,0x00000000,0x00000000,18.21,3,0x00000000,96.875,98.039,-0.009,0.073,-0.005,-0.004,-0.006,4.225,0.595,-1.501,0.02,0.36,0x00000003,0.0,0.0,-0.01,-0.0,0.001,-0.002,0.0,0.0,0.0,-0.0,-0.001,0.0,0.0,-0.0,0.737,0.737,0.0,0.0,0.737,34.991,34.991,0.0,0.0,0.0,96.875,96.875,0.0,0.0,26.313,26.188,0.0,0.0,0.0,0.0,90.0,76.727,0.109,27.313,0x00000000,0x00000000,0x00000000,0.0,1246,1279,3.743,2.975,0.0,0.0,0.007,0.011,0.0,0.0,1.0,0.981,0.981,0.981,0.196,1.0,1.0,0.462,0.584,0.57,24.267,0x00000101,192.168.0.40,8080,255.255.255.0,192.168.0.1,0xFFFFFFFF,0xFFFFFFFF,0xFFFFFFFF,0x00000000,
3.24144005775,0x00000000,0x00000000,0x00000000,0x00000000,0x00000000,0x00000000,0x00000000,0x00000000,18.26,3,0x00000000,96.875,98.039,-0.012,0.073,-0.013,-0.004,0.006,4.258,0.401,-1.494,-0.744,0.706,0x00000003,0.0,0.0,-0.001,-0.0,0.001,-0.001,0.0,0.0,0.0,-0.0,-0.001,0.0,0.0,-0.0,0.547,0.737,0.0,0.0,0.737,34.991,34.991,0.0,0.0,0.0,96.875,96.875,0.0,0.0,26.313,26.188,0.0,0.0,0.0,0.0,90.0,76.727,0.109,27.313,0x00000000,0x00000000,0x00000000,0.0,1246,1279,2.565,7.073,0.0,0.0,0.007,0.011,0.0,0.0,1.0,0.981,0.981,0.981,0.196,1.0,1.0,0.462,0.584,0.57,24.267,0x00000101,192.168.0.40,8080,255.255.255.0,192.168.0.1,0xFFFFFFFF,0xFFFFFFFF,0xFFFFFFFF,0x00000000,
3.29158306122,0x00000000,0x00000000,0x00000000,0x00000000,0x00000000,0x00000000,0x00000000,0x00000000,18.31,3,0x00000000,96.875,98.039,-0.01,0.075,-0.012,-0.03,-0.024,4.275,0.96,-1.476,0.441,-1.728,0x00000003,0.0,0.0,0.001,-0.0,0.002,-0.001,0.0,0.0,0.0,-0.0,-0.001,0.0,0.0,-0.0,-0.47,1.17,0.0,0.0,1.17,34.991,34.991,0.0,0.0,0.0,96.875,96.875,0.0,0.0,26.313,26.188,0.0,0.0,0.0,0.0,90.0,76.727,0.109,27.313,0x00000000,0x00000000,0x00000000,0.0,1246,1279,5.19,2.642,0.0,0.0,0.007,0.011,0.0,0.0,1.0,0.981,0.981,0.981,0.196,1.0,1.0,0.462,0.584,0.57,24.267,0x00000101,192.168.0.40,8080,255.255.255.0,192.168.0.1,0xFFFFFFFF,0xFFFFFFFF,0xFFFFFFFF,0x00000000,
3.34161806107,0x00000000,0x00000000,0x00000000,0x00000000,0x00000000,0x00000000,0x00000000,0x00000000,18.36,3,0x00000000,96.875,98.039,-0.011,0.074,-0.017,0.001,-0.025,4.274,-0.386,-1.479,-1.079,-1.004,0x00000003,0.0,0.0,0.015,-0.0,0.002,-0.0,0.002,0.0,0.0,-0.0,-0.001,0.0,0.0,-0.0,-0.381,-0.076,0.0,0.0,-0.381,34.991,34.991,0.0,0.0,0.0,96.875,96.875,0.0,0.0,26.313,26.188,0.0,0.0,0.0,0.0,90.0,76.727,0.109,27.313,0x00000000,0x00000000,0x00000000,0.0,1246,1279,4.151,4.683,0.0,0.0,0.007,0.011,0.0,0.0,1.0,0.981,0.981,0.981,0.196,1.0,1.0,0.462,0.584,0.57,24.267,0x00000101,192.168.0.40,8080,255.255.255.0,192.168.0.1,0xFFFFFFFF,0xFFFFFFFF,0xFFFFFFFF,0x00000000,
3.39175200462,0x00000000,0x00000000,0x00000000,0x00000000,0x00000000,0x00000000,0x00000000,0x00000000,18.41,3,0x00000000,96.875,98.039,-0.01,0.073,-0.033,-0.025,-0.013,4.221,-1.635,-1.469,0.066,0.411,0x00000003,0.0,0.0,0.001,-0.0,0.002,-0.0,0.0,0.0,0.0,-0.0,-0.001,0.0,0.0,-0.0,0.534,0.839,0.0,0.0,0.839,34.991,34.991,0.0,0.0,0.0,96.875,96.875,0.0,0.0,26.313,26.188,0.0,0.0,0.0,0.0,90.0,76.727,0.109,27.313,0x00000000,0x00000000,0x00000000,0.0,1246,1279,0.812,4.424,0.0,0.0,0.007,0.011,0.0,0.0,1.0,0.981,0.981,0.981,0.196,1.0,1.0,0.462,0.584,0.57,24.267,0x00000101,192.168.0.40,8080,255.255.255.0,192.168.0.1,0xFFFFFFFF,0xFFFFFFFF,0xFFFFFFFF,0x00000000,
3.44176793098,0x00000000,0x00000000,0x00000000,0x00000000,0x00000000,0x00000000,0x00000000,0x00000000,18.46,3,0x00000000,96.875,98.039,-0.011,0.071,-0.029,-0.026,0.012,4.175,-1.069,-1.469,-0.316,-0.995,0x00000003,0.0,0.0,0.003,0.0,0.002,-0.0,0.001,0.0,0.0,-0.0,-0.001,0.0,0.0,-0.0,0.636,0.737,0.0,0.0,0.737,34.991,34.991,0.0,0.0,0.0,96.875,96.875,0.0,0.0,26.313,26.188,0.0,0.0,0.0,0.0,90.0,76.727,0.109,27.313,0x00000000,0x00000000,0x00000000,0.0,1246,1279,4.077,4.573,0.0,0.0,0.007,0.011,0.0,0.0,1.0,0.981,0.981,0.981,0.196,1.0,1.0,0.462,0.584,0.57,24.267,0x00000101,192.168.0.40,8080,255.255.255.0,192.168.0.1,0xFFFFFFFF,0xFFFFFFFF,0xFFFFFFFF,0x00000000,
3.49189305305,0x00000000,0x00000000,0x00000000,0x00000000,0x00000000,0x00000000,0x00000000,0x00000000,18.51,3,0x00000000,96.875,98.039,-0.009,0.069,-0.034,-0.008,-0.007,4.096,-1.916,-1.492,-0.608,-0.278,0x00000003,0.0,0.0,-0.003,0.0,0.002,-0.0,0.0,0.0,0.0,-0.0,-0.001,0.0,0.0,-0.0,0.636,0.75,0.0,0.0,0.75,34.991,34.991,0.0,0.0,0.0,96.875,96.875,0.0,0.0,26.313,26.188,0.0,0.0,0.0,0.0,90.0,76.727,0.109,27.313,0x00000000,0x00000000,0x00000000,0.0,1246,1279,3.032,2.539,0.0,0.0,0.007,0.011,0.0,0.0,1.0,0.981,0.981,0.981,0.196,1.0,1.0,0.462,0.584,0.57,24.267,0x00000101,192.168.0.40,8080,255.255.255.0,192.168.0.1,0xFFFFFFFF,0xFFFFFFFF,0xFFFFFFFF,0x00000000,
3.54192399979,0x00000000,0x00000000,0x00000000,0x00000000,0x00000000,0x00000000,0x00000000,0x00000000,18.56,3,0x00000000,96.875,98.039,-0.013,0.066,-0.038,-0.008,0.006,4.015,-1.567,-1.47,0.627,-0.286,0x00000003,0.0,0.0,-0.015,-0.0,0.002,-0.002,0.0,0.0,0.0,-0.0,-0.001,0.0,0.0,-0.0,0.636,0.852,0.0,0.0,0.852,34.991,34.991,0.0,0.0,0.0,96.875,96.875,0.0,0.0,26.313,26.188,0.0,0.0,0.0,0.0,90.0,76.727,0.109,27.313,0x00000000,0x00000000,0x00000000,0.0,1246,1279,3.878,4.154,0.0,0.0,0.007,0.011,0.0,0.0,1.0,0.981,0.981,0.981,0.196,1.0,1.0,0.462,0.584,0.57,24.267,0x00000101,192.168.0.40,8080,255.255.255.0,192.168.0.1,0xFFFFFFFF,0xFFFFFFFF,0xFFFFFFFF,0x00000000,
3.59205198288,0x00000000,0x00000000,0x00000000,0x00000000,0x00000000,0x00000000,0x00000000,0x00000000,18.61,3,0x00000000,96.875,98.039,-0.01,0.065,-0.051,-0.012,-0.031,3.95,-1.262,-1.453,-0.173,0.402,0x00000003,0.0,0.0,0.002,-0.0,0.001,-0.0,0.0,0.0,0.0,-0.0,-0.001,0.0,0.0,-0.0,0.75,0.75,0.0,0.0,0.75,34.991,34.991,0.0,0.0,0.0,96.875,96.875,0.0,0.0,26.313,26.188,0.0,0.0,0.0,0.0,90.0,76.727,0.109,27.313,0x00000000,0x00000000,0x00000000,0.0,1246,1279,2.391,4.11,0.0,0.0,0.007,0.011,0.0,0.0,1.0,0.981,0.981,0.981,0.196,1.0,1.0,0.462,0.584,0.57,24.267,0x00000101,192.168.0.40,8080,255.255.255.0,192.168.0.1,0xFFFFFFFF,0xFFFFFFFF,0xFFFFFFFF,0x00000000,
3.64207792282,0x00000000,0x00000000,0x00000000,0x00000000,0x00000000,0x00000000,0x00000000,0x00000000,18.66,3,0x00000000,96.875,98.039,-0.011,0.064,-0.044,-0.008,-0.013,3.892,-1.131,-1.457,-0.999,1.449,0x00000003,0.0,0.0,0.002,-0.0,0.001,-0.0,0.0,0.0,0.0,-0.0,-0.001,0.0,0.0,-0.0,0.636,0.75,0.0,0.0,0.75,34.991,34.991,0.0,0.0,0.0,96.875,96.875,0.0,0.0,26.313,26.188,0.0,0.0,0.0,0.0,90.0,76.727,0.109,27.313,0x00000000,0x00000000,0x00000000,0.0,1246,1279,1.807,2.52,0.0,0.0,0.007,0.012,0.0,0.0,1.0,0.981,0.981,0.981,0.196,1.0,1.0,0.462,0.584,0.57,24.267,0x00000101,192.168.0.40,8080,255.255.255.0,192.168.0.1,0xFFFFFFFF,0xFFFFFFFF,0xFFFFFFFF,0x00000000,
3.69220590591,0x00000000,0x00000000,0x00000000,0x00000000,0x00000000,0x00000000,0x00000000,0x00000000,18.71,3,0x00000000,96.875,98.039,-0.01,0.062,-0.032,-0.025,-0.001,3.829,-0.679,-1.435,-0.487,-2.033,0x00000003,0.0,0.0,0.002,-0.0,0.001,-0.0,0.0,0.0,0.0,-0.0,-0.001,0.0,0.0,-0.0,0.636,0.852,0.0,0.0,0.852,34.991,34.991,0.0,0.0,0.0,96.875,96.875,0.0,0.0,26.313,26.188,0.0,0.0,0.0,0.0,90.0,76.727,0.109,27.313,0x00000000,0x00000000,0x00000000,0.0,1246,1279,0.416,2.109,0.0,0.0,0.007,0.012,0.0,0.0,1.0,0.981,0.981,0.981,0.196,1.0,1.0,0.462,0.584,0.57,24.267,0x00000101,192.168.0.40,8080,255.255.255.0,192.168.0.1,0xFFFFFFFF,0xFFFFFFFF,0xFFFFFFFF,0x00000000,
3.74225401878,0x00000000,0x00000000,0x00000000,0x00000000,0x00000000,0x00000000,0x00000000,0x00000000,18.76,3,0x00000000,96.875,98.039,-0.01,0.06,-0.021,-0.021,-0.006,3.791,-0.622,-1.424,0.234,-1.693,0x00000003,0.0,0.0,-0.005,-0.0,0.001,-0.001,0.0,0.0,0.0,-0.0,-0.001,0.0,0.0,-0.0,0.636,0.75,0.0,0.0,0.75,34.991,34.991,0.0,0.0,0.0,96.875,96.875,0.0,0.0,26.313,26.188,0.0,0.0,0.0,0.0,90.0,76.727,0.109,27.313,0x00000000,0x00000000,0x00000000,0.0,1246,1279,2.579,4.658,0.0,0.0,0.007,0.012,0.0,0.0,1.0,0.981,0.981,0.981,0.196,1.0,1.0,0.462,0.584,0.57,24.267,0x00000101,192.168.0.40,8080,255.255.255.0,192.168.0.1,0xFFFFFFFF,0xFFFFFFFF,0xFFFFFFFF,0x00000000,
3.79236102104,0x00000000,0x00000000,0x00000000,0x00000000,0x00000000,0x00000000,0x00000000,0x00000000,18.81,3,0x00000000,96.875,98.039,-0.011,0.06,-0.009,-0.021,0.006,3.777,0.142,-1.406,0.557,0.383,0x00000003,0.0,0.0,0.002,-0.0,0.0,-0.0,0.0,0.0,0.0,-0.0,-0.001,0.0,0.0,-0.0,0.636,0.75,0.0,0.0,0.75,34.991,34.991,0.0,0.0,0.0,96.875,96.875,0.0,0.0,26.313,26.188,0.0,0.0,0.0,0.0,90.0,76.727,0.109,27.313,0x00000000,0x00000000,0x00000000,0.0,1246,1279,0.744,1.908,0.0,0.0,0.007,0.012,0.0,0.0,1.0,0.981,0.981,0.981,0.196,1.0,1.0,0.462,0.584,0.57,24.267,0x00000101,192.168.0.40,8080,255.255.255.0,192.168.0.1,0xFFFFFFFF,0xFFFFFFFF,0xFFFFFFFF,0x00000000,
3.84240698814,0x00000000,0x00000000,0x00000000,0x00000000,0x00000000,0x00000000,0x00000000,0x00000000,18.86,3,0x00000000,96.875,98.039,-0.01,0.06,-0.012,-0.026,-0.018,3.794,0.869,-1.406,-0.862,-0.663,0x00000003,0.0,0.0,0.001,-0.0,0.001,-0.0,0.0,0.0,0.0,-0.0,-0.001,0.0,0.0,-0.0,0.636,0.661,0.0,0.0,0.661,34.991,34.991,0.0,0.0,0.0,96.875,96.875,0.0,0.0,26.313,26.188,0.0,0.0,0.0,0.0,90.0,76.727,0.109,27.313,0x00000000,0x00000000,0x00000000,0.0,1246,1279,1.851,4.126,0.0,0.0,0.007,0.012,0.0,0.0,1.0,0.981,0.981,0.981,0.196,1.0,1.0,0.462,0.584,0.57,24.267,0x00000101,192.168.0.40,8080,255.255.255.0,192.168.0.1,0xFFFFFFFF,0xFFFFFFFF,0xFFFFFFFF,0x00000000,
3.89252591133,0x00000000,0x00000000,0x00000000,0x00000000,0x00000000,0x00000000,0x00000000,0x00000000,18.91,3,0x00000000,96.875,98.039,-0.011,0.061,0.016,-0.004,-0.012,3.827,0.581,-1.399,0.47,-1.711,0x00000003,0.0,0.0,0.001,-0.0,0.0,-0.0,0.0,0.0,0.0,-0.0,-0.001,0.0,0.0,-0.0,0.636,0.839,0.0,0.0,0.839,34.991,34.991,0.0,0.0,0.0,96.875,96.875,0.0,0.0,26.313,26.125,0.0,0.0,0.0,0.0,90.0,76.727,0.109,27.313,0x00000000,0x00000000,0x00000000,0.0,1246,1279,1.446,2.335,0.0,0.0,0.007,0.012,0.0,0.0,1.0,0.981,0.981,0.981,0.196,1.0,1.0,0.462,0.584,0.57,24.267,0x00000101,192.168.0.40,8080,255.255.255.0,192.168.0.1,0xFFFFFFFF,0xFFFFFFFF,0xFFFFFFFF,0x00000000,
3.94255590439,0x00000000,0x00000000,0x00000000,0x00000000,0x00000000,0x00000000,0x00000000,0x00000000,18.96,3,0x00000000,96.875,98.039,-0.009,0.063,0.009,0.004,-0.0,3.885,0.394,-1.378,0.615,-0.313,0x00000003,0.0,0.0,0.008,-0.0,0.001,-0.0,0.001,0.0,0.0,-0.0,-0.001,0.0,0.0,-0.0,0.737,0.725,0.0,0.0,0.737,34.991,34.991,0.0,0.0,0.0,96.875,96.875,0.0,0.0,26.313,26.188,0.0,0.0,0.0,0.0,90.0,76.727,0.109,27.313,0x00000000,0x00000000,0x00000000,0.0,1246,1279,4.285,4.661,0.0,0.0,0.007,0.012,0.0,0.0,1.0,0.981,0.981,0.981,0.196,1.0,1.0,0.462,0.584,0.57,24.267,0x00000101,192.168.0.40,8080,255.255.255.0,192.168.0.1,0xFFFFFFFF,0xFFFFFFFF,0xFFFFFFFF,0x00000000,
3.99268293381,0x00000000,0x00000000,0x00000000,0x00000000,0x00000000,0x00000000,0x00000000,0x00000000,19.01,3,0x00000000,96.875,98.039,-0.01,0.064,0.008,-0.035,-0.006,3.958,1.684,-1.353,-0.12,-0.676,0x00000003,0.0,0.0,-0.0,0.0,0.001,-0.0,0.0,0.0,0.0,-0.0,-0.001,0.0,0.0,-0.0,1.755,1.882,0.0,0.0,1.882,34.991,34.991,0.0,0.0,0.0,96.875,96.875,0.0,0.0,26.313,26.188,0.0,0.0,0.0,0.0,90.0,76.727,0.109,27.313,0x00000000,0x00000000,0x00000000,0.0,1246,1279,3.379,3.948,0.0,0.0,0.007,0.012,0.0,0.0,1.0,0.981,0.981,0.981,0.196,1.0,1.0,0.462,0.584,0.57,24.267,0x00000101,192.168.0.40,8080,255.255.255.0,192.168.0.1,0xFFFFFFFF,0xFFFFFFFF,0xFFFFFFFF,0x00000000,
4.04270601273,0x00000000,0x00000000,0x00000000,0x00000000,0x00000000,0x00000000,0x00000000,0x00000000,19.06,3,0x00000000,96.875,98.039,-0.009,0.065,0.016,-0.005,0.012,4.037,2.095,-1.36,-0.092,-1.038,0x00000003,0.0,0.0,0.001,-0.0,0.001,-0.001,0.001,0.0,0.0,-0.0,-0.001,0.0,0.0,-0.0,1.157,1.653,0.0,0.0,1.653,34.991,34.991,0.0,0.0,0.0,96.875,96.875,0.0,0.0,26.313,26.125,0.0,0.0,0.0,0.0,90.0,76.727,0.109,27.313,0x00000000,0x00000000,0x00000000,0.0,1246,1279,0.779,1.141,0.0,0.0,0.007,0.012,0.0,0.0,1.0,0.981,0.981,0.981,0.196,1.0,1.0,0.462,0.584,0.57,24.267,0x00000101,192.168.0.40,8080,255.255.255.0,192.168.0.1,0xFFFFFFFF,0xFFFFFFFF,0xFFFFFFFF,0x00000000,
4.09284806252,0x00000000,0x00000000,0x00000000,0x00000000,0x00000000,0x00000000,0x00000000,0x00000000,19.11,3,0x00000000,96.875,98.039,-0.01,0.067,0.016,-0.021,-0.049,4.146,2.665,-1.348,-0.927,0.002,0x00000003,0.0,0.0,-0.007,0.0,0.002,-0.001,0.0,0.0,0.0,-0.0,-0.001,0.0,0.0,-0.0,0.737,0.648,0.0,0.0,0.737,34.991,34.991,0.0,0.0,0.0,96.875,96.875,0.0,0.0,26.313,26.188,0.0,0.0,0.0,0.0,90.0,76.727,0.109,27.313,0x00000000,0x00000000,0x00000000,0.0,1246,1279,1.184,3.085,0.0,0.0,0.007,0.012,0.0,0.0,1.0,0.981,0.981,0.981,0.196,1.0,1.0,0.462,0.584,0.57,24.267,0x00000101,192.168.0.40,8080,255.255.255.0,192.168.0.1,0xFFFFFFFF,0xFFFFFFFF,0xFFFFFFFF,0x00000000,
4.14291405678,0x00000000,0x00000000,0x00000000,0x00000000,0x00000000,0x00000000,0x00000000,0x00000000,19.16,3,0x00000000,96.875,98.039,-0.011,0.07,0.031,-0.022,-0.012,4.247,2.281,-1.335,-0.583,-1.035,0x00000003,0.0,0.0,-0.001,0.0,0.002,-0.001,0.001,0.0,0.0,-0.0,-0.001,0.0,0.0,-0.0,0.636,0.852,0.0,0.0,0.852,34.991,34.991,0.0,0.0,0.0,96.875,96.875,0.0,0.0,26.313,26.188,0.0,0.0,0.0,0.0,90.0,76.727,0.109,27.313,0x00000000,0x00000000,0x00000000,0.0,1246,1279,2.725,4.525,0.0,0.0,0.007,0.012,0.0,0.0,1.0,0.981,0.981,0.981,0.196,1.0,1.0,0.462,0.584,0.57,24.267,0x00000101,192.168.0.40,8080,255.255.255.0,192.168.0.1,0xFFFFFFFF,0xFFFFFFFF,0xFFFFFFFF,0x00000000,
4.19301104546,0x00000000,0x00000000,0x00000000,0x00000000,0x00000000,0x00000000,0x00000000,0x00000000,19.21,3,0x00000000,96.875,98.039,-0.011,0.073,0.023,-0.004,-0.012,4.364,2.725,-1.339,0.311,0.011,0x00000003,0.0,0.0,0.001,0.0,0.001,-0.0,0.0,0.0,0.0,-0.0,-0.001,0.0,0.0,-0.0,0.636,0.75,0.0,0.0,0.75,34.991,34.991,0.0,0.0,0.0,96.875,96.875,0.0,0.0,26.313,26.188,0.0,0.0,0.0,0.0,90.0,76.727,0.109,27.313,0x00000000,0x00000000,0x00000000,0.0,1246,1279,1.088,4.768,0.0,0.0,0.007,0.012,0.0,0.0,1.0,0.981,0.981,0.981,0.196,1.0,1.0,0.462,0.584,0.57,24.267,0x00000101,192.168.0.40,8080,255.255.255.0,192.168.0.1,0xFFFFFFFF,0xFFFFFFFF,0xFFFFFFFF,0x00000000,
4.24302411079,0x00000000,0x00000000,0x00000000,0x00000000,0x00000000,0x00000000,0x00000000,0x00000000,19.26,3,0x00000000,96.875,98.039,-0.011,0.078,0.03,-0.022,-0.018,4.487,1.548,-1.345,-0.408,0.026,0x00000003,0.0,0.0,-0.008,0.0,0.001,-0.001,0.0,0.0,0.0,-0.0,-0.001,0.0,0.0,-0.0,0.636,0.737,0.0,0.0,0.737,34.991,34.991,0.0,0.0,0.0,96.875,96.875,0.0,0.0,26.313,26.188,0.0,0.0,0.0,0.0,90.0,76.727,0.109,27.313,0x00000000,0x00000000,0x00000000,0.0,1246,1279,-0.99,4.438,0.0,0.0,0.007,0.012,0.0,0.0,1.0,0.981,0.981,0.981,0.196,1.0,1.0,0.462,0.584,0.57,24.267,0x00000101,192.168.0.40,8080,255.255.255.0,192.168.0.1,0xFFFFFFFF,0xFFFFFFFF,0xFFFFFFFF,0x00000000,
4.29319405556,0x00000000,0x00000000,0x00000000,0x00000000,0x00000000,0x00000000,0x00000000,0x00000000,19.31,3,0x00000000,96.875,98.039,-0.011,0.08,0.003,-0.008,-0.025,4.571,1.227,-1.335,-0.587,-0.661,0x00000003,0.0,0.0,0.012,-0.0,0.001,-0.0,0.001,0.0,0.0,-0.0,-0.001,0.0,0.0,-0.0,0.547,0.75,0.0,0.0,0.75,34.991,34.991,0.0,0.0,0.0,96.875,96.875,0.0,0.0,26.313,26.188,0.0,0.0,0.0,0.0,90.0,76.727,0.109,27.313,0x00000000,0x00000000,0x00000000,0.0,1246,1279,3.151,2.197,0.0,0.0,0.007,0.012,0.0,0.0,1.0,0.981,0.981,0.981,0.196,1.0,1.0,0.462,0.584,0.57,24.267,0x00000101,192.168.0.40,8080,255.255.255.0,192.168.0.1,0xFFFFFFFF,0xFFFFFFFF,0xFFFFFFFF,0x00000000,
4.34319400787,0x00000000,0x00000000,0x00000000,0x00000000,0x00000000,0x00000000,0x00000000,0x00000000,19.36,3,0x00000000,96.875,98.039,-0.009,0.081,-0.004,-0.004,-0.012,4.626,1.063,-1.346,-0.894,0.044,0x00000003,0.0,0.0,0.001,-0.0,0.001,0.0,-0.0,0.0,0.0,-0.0,-0.001,0.0,0.0,-0.0,0.737,0.763,0.0,0.0,0.763,34.991,34.991,0.0,0.0,0.0,96.875,96.875,0.0,0.0,26.313,26.188,0.0,0.0,0.0,0.0,90.0,76.727,0.109,27.313,0x00000000,0x00000000,0x00000000,0.0,1246,1279,0.654,4.67,0.0,0.0,0.007,0.012,0.0,0.0,1.0,0.981,0.981,0.981,0.196,1.0,1.0,0.462,0.584,0.57,24.267,0x00000101,192.168.0.40,8080,255.255.255.0,192.168.0.1,0xFFFFFFFF,0xFFFFFFFF,0xFFFFFFFF,0x00000000,
4.39331889153,0x00000000,0x00000000,0x00000000,0x00000000,0x00000000,0x00000000,0x00000000,0x00000000,19.41,3,0x00000000,96.875,98.039,-0.011,0.081,-0.011,-0.021,-0.018,4.651,0.07,-1.326,-0.59,-0.296,0x00000003,0.0,0.0,0.004,-0.0,0.001,-0.0,0.001,0.0,0.0,-0.0,-0.001,0.0,0.0,-0.0,0.636,0.75,0.0,0.0,0.75,34.991,34.991,0.0,0.0,0.0,96.875,96.875,0.0,0.0,26.313,26.188,0.0,0.0,0.0,0.0,90.0,76.727,0.109,27.313,0x00000000,0x00000000,0x00000000,0.0,1246,1279,2.769,4.438,0.0,0.0,0.008,0.012,0.0,0.0,1.0,0.981,0.981,0.981,0.196,1.0,1.0,0.462,0.584,0.57,24.267,0x00000101,192.168.0.40,8080,255.255.255.0,192.168.0.1,0xFFFFFFFF,0xFFFFFFFF,0xFFFFFFFF,0x00000000,
4.44334411621,0x00000000,0x00000000,0x00000000,0x00000000,0x00000000,0x00000000,0x00000000,0x00000000,19.46,3,0x00000000,96.875,98.039,-0.012,0.081,-0.025,-0.017,-0.025,4.633,-0.965,-1.321,-0.389,0.419,0x00000003,0.0,0.0,0.01,-0.0,0.002,-0.0,0.001,0.0,0.0,-0.0,-0.001,0.0,0.0,-0.0,0.636,0.852,0.0,0.0,0.852,34.991,34.991,0.0,0.0,0.0,96.875,96.875,0.0,0.0,26.313,26.188,0.0,0.0,0.0,0.0,90.0,76.727,0.109,27.313,0x00000000,0x00000000,0x00000000,0.0,1246,1279,0.638,5.855,0.0,0.0,0.008,0.012,0.0,0.0,1.0,0.981,0.981,0.981,0.196,1.0,1.0,0.462,0.584,0.57,24.267,0x00000101,192.168.0.40,8080,255.255.255.0,192.168.0.1,0xFFFFFFFF,0xFFFFFFFF,0xFFFFFFFF,0x00000000,
