Time_stamp,fault_status_word_1,fault_status_word_2,fault_status_word_3,fault_status_word_4,mcu_0_fault_status,mcu_1_fault_status,mcu_2_fault_status,mcu_3_fault_status,operational_time,operational_state,dynamic_response,min_propulsion_batt_soc,aux_batt_soc,inertial_x_acc_g,inertial_y_acc_g,inertial_x_rate_rps,inertial_y_rate_rps,inertial_z_rate_rps,pse_pitch_deg,pse_pitch_rate_dps,pse_roll_deg,pse_roll_rate_dps,pse_yaw_rate_dps,pse_data_is_valid,yaw_rate_limit_rps,vel_limit_mps,linear_accel_mps2,linear_vel_mps,differential_wheel_vel_rps,right_front_vel_mps,left_front_vel_mps,right_rear_vel_mps,left_rear_vel_mps,right_front_pos_m,left_front_pos_m,right_rear_pos_m,left_rear_pos_m,linear_pos_m,right_front_current_A0pk,left_front_current_A0pk,right_rear_current_A0pk,left_rear_current_A0pk,max_motor_current_A0pk,right_front_current_limit_A0pk,left_front_current_limit_A0pk,right_rear_current_limit_A0pk,left_rear_current_limit_A0pk,min_motor_current_limit_A0pk,front_base_batt_1_soc,front_base_batt_2_soc,rear_base_batt_1_soc,rear_base_batt_2_soc,front_base_batt_1_temp_degC,front_base_batt_2_temp_degC,rear_base_batt_1_temp_degC,rear_base_batt_2_temp_degC,vel_target_mps,yaw_rate_target_rps,angle_target_deg,aux_batt_voltage_V,aux_batt_current_A,aux_batt_temp_degC,abb_system_status,aux_batt_status,aux_batt_faults,7p2V_battery_voltage,ccu_sp_sw_build_id,ccu_uip_sw_build_id,mcu_0_inst_power_W,mcu_1_inst_power_W,mcu_2_inst_power_W,mcu_3_inst_power_W,mcu_0_total_energy_Wh,mcu_1_total_energy_Wh,mcu_2_total_energy_Wh,mcu_3_total_energy_Wh,fram_vel_limit_mps,fram_accel_limit_mps2,fram_decel_limit_mps2,fram_dtz_decel_limit_mps2,fram_coastdown_decel_mps2,fram_yaw_rate_limit_rps,fram_yaw_accel_limit_rps2,fram_tire_diameter_m,fram_wheelbase_length_m,fram_wheel_track_width_m,fram_transmission_ratio,fram_config_bitmap,fram_eth_ip_address,fram_eth_port_number,fram_eth_subnet_mask,fram_eth_gateway,user_feedback_bitmap_1,user_feedback_bitmap_2,user_feedback_bitmap_3,user_feedback_bitmap_4,
0.0803439617157,0x00000000,0x00000000,0x00000000,0x00000000,0x00000000,0x00000000,0x00000000,0x00000000,82.77,4,0x00000000,96.875,98.039,0.005,0.014,-0.011,-0.004,-0.0,0.817,-0.289,0.208,0.045,5.272,0x00000003,1.0,1.0,-0.001,0.0,0.001,-0.0,0.0,0.0,0.0,-1.567,1.613,0.0,0.0,0.032,0.648,0.254,0.0,0.0,0.648,34.991,34.991,0.0,0.0,0.0,97.266,96.875,0.0,0.0,26.313,26.125,0.0,0.0,0.0,0.0,90.0,76.742,0.102,27.188,0x00000000,0x00000000,0x00000000,0.0,1246,1279,4.428,1.228,0.0,0.0,0.095,0.107,0.0,0.0,1.0,0.981,0.981,0.981,0.196,1.0,1.0,0.462,0.584,0.57,24.267,0x00000101,192.168.0.40,8080,255.255.255.0,192.168.0.1,0xFFFFFFFF,0xFFFFFFFF,0xFFFFFFFF,0x00000000,
0.130572080612,0x00000000,0x00000000,0x00000000,0x00000000,0x00000000,0x00000000,0x00000000,0x00000000,82.82,4,0x00000000,96.875,98.039,0.003,0.013,-0.026,-0.008,-0.007,0.809,-0.001,0.222,0.541,5.25,0x00000003,1.0,1.0,-0.01,0.0,0.001,-0.001,0.0,0.0,0.0,-1.567,1.613,0.0,0.0,0.032,0.636,0.102,0.0,0.0,0.636,34.991,34.991,0.0,0.0,0.0,97.266,96.875,0.0,0.0,26.313,26.125,0.0,0.0,0.0,0.0,90.0,76.742,0.102,27.188,0x00000000,0x00000000,0x00000000,0.0,1246,1279,4.751,3.655,0.0,0.0,0.095,0.107,0.0,0.0,1.0,0.981,0.981,0.981,0.196,1.0,1.0,0.462,0.584,0.57,24.267,0x00000101,192.168.0.40,8080,255.255.255.0,192.168.0.1,0xFFFFFFFF,0xFFFFFFFF,0xFFFFFFFF,0x00000000,
0.180608987808,0x00000000,0x00000000,0x00000000,0x00000000,0x00000000,0x00000000,0x00000000,0x00000000,82.87,4,0x00000000,96.875,98.039,0.004,0.013,-0.009,-0.026,-0.012,0.81,0.455,0.229,0.28,5.584,0x00000003,1.0,1.0,-0.007,0.0,0.001,-0.001,0.0,0.0,0.0,-1.567,1.613,0.0,0.0,0.032,0.674,0.254,0.0,0.0,0.674,34.991,34.991,0.0,0.0,0.0,97.266,96.875,0.0,0.0,26.313,26.125,0.0,0.0,0.0,0.01,90.0,76.742,0.102,27.188,0x00000000,0x00000000,0x00000000,0.0,1246,1279,4.132,4.718,0.0,0.0,0.095,0.107,0.0,0.0,1.0,0.981,0.981,0.981,0.196,1.0,1.0,0.462,0.584,0.57,24.267,0x00000101,192.168.0.40,8080,255.255.255.0,192.168.0.1,0xFFFFFFFF,0xFFFFFFFF,0xFFFFFFFF,0x00000000,
0.230712890625,0x00000000,0x00000000,0x00000000,0x00000000,0x00000000,0x00000000,0x00000000,0x00000000,82.92,4,0x00000000,96.875,98.039,0.005,0.013,-0.009,-0.004,0.006,0.812,-0.389,0.209,-0.183,4.529,0x00000003,1.0,1.0,0.002,-0.0,0.001,-0.0,0.0,0.0,0.0,-1.567,1.613,0.0,0.0,0.032,0.038,0.547,0.0,0.0,0.547,34.991,34.991,0.0,0.0,0.0,97.266,96.875,0.0,0.0,26.313,26.125,0.0,0.0,0.0,0.06,90.0,76.742,0.102,27.188,0x00000000,0x00000000,0x00000000,0.0,1246,1279,4.738,2.54,0.0,0.0,0.095,0.107,0.0,0.0,1.0,0.981,0.981,0.981,0.196,1.0,1.0,0.462,0.584,0.57,24.267,0x00000101,192.168.0.40,8080,255.255.255.0,192.168.0.1,0xFFFFFFFF,0xFFFFFFFF,0xFFFFFFFF,0x00000000,
0.280771017075,0x00000000,0x00000000,0x00000000,0x00000000,0x00000000,0x00000000,0x00000000,0x00000000,82.97,4,0x00000000,96.875,98.039,0.004,0.014,-0.02,-0.021,-0.015,0.82,-0.152,0.207,-0.06,4.508,0x00000003,1.0,1.0,0.22,0.003,0.013,-0.0,0.028,0.0,0.0,-1.567,1.613,0.0,0.0,0.032,-1.386,0.725,0.0,0.0,-1.386,34.991,34.991,0.0,0.0,0.0,97.266,96.875,0.0,0.0,26.25,26.125,0.0,0.0,0.0,0.11,90.0,76.742,0.102,27.188,0x00000000,0x00000000,0x00000000,0.0,1246,1279,4.584,4.669,0.0,0.0,0.095,0.107,0.0,0.0,1.0,0.981,0.981,0.981,0.196,1.0,1.0,0.462,0.584,0.57,24.267,0x00000101,192.168.0.40,8080,255.255.255.0,192.168.0.1,0xFFFFFFFF,0xFFFFFFFF,0xFFFFFFFF,0x00000000,
0.33084487915,0x00000000,0x00000000,0x00000000,0x00000000,0x00000000,0x00000000,0x00000000,0x00000000,83.02,4,0x00000000,96.875,98.039,0.003,0.012,-0.016,-0.01,-0.012,0.843,-0.138,0.218,0.418,5.027,0x00000003,1.0,1.0,-0.065,0.009,0.083,-0.042,0.053,0.0,0.0,-1.567,1.615,0.0,0.0,0.032,-1.322,1.03,0.0,0.0,-1.322,34.991,34.991,0.0,0.0,0.0,97.266,96.875,0.0,0.0,26.25,26.125,0.0,0.0,0.0,0.16,90.0,76.742,0.102,27.188,0x00000000,0x00000000,0x00000000,0.0,1246,1279,4.578,4.761,0.0,0.0,0.095,0.108,0.0,0.0,1.0,0.981,0.981,0.981,0.196,1.0,1.0,0.462,0.584,0.57,24.267,0x00000101,192.168.0.40,8080,255.255.255.0,192.168.0.1,0xFFFFFFFF,0xFFFFFFFF,0xFFFFFFFF,0x00000000,
0.380904912949,0x00000000,0x00000000,0x00000000,0x00000000,0x00000000,0x00000000,0x00000000,0x00000000,83.07,4,0x00000000,96.875,98.039,0.004,0.013,-0.014,-0.021,-0.012,0.817,0.165,0.219,-0.216,5.556,0x00000003,1.0,1.0,-0.103,0.002,0.146,-0.063,0.056,0.0,0.0,-1.57,1.617,0.0,0.0,0.032,-0.509,0.903,0.0,0.0,0.903,34.991,34.991,0.0,0.0,0.0,97.266,96.875,0.0,0.0,26.313,26.125,0.0,0.0,0.0,0.196,90.0,76.742,0.102,27.188,0x00000000,0x00000000,0x00000000,0.0,1246,1279,4.125,6.031,0.0,0.0,0.095,0.108,0.0,0.0,1.0,0.981,0.981,0.981,0.196,1.0,1.0,0.462,0.584,0.57,24.267,0x00000101,192.168.0.40,8080,255.255.255.0,192.168.0.1,0xFFFFFFFF,0xFFFFFFFF,0xFFFFFFFF,0x00000000,
0.431051015854,0x00000000,0x00000000,0x00000000,0x00000000,0x00000000,0x00000000,0x00000000,0x00000000,83.12,4,0x00000000,96.875,98.039,0.004,0.014,-0.013,-0.01,-0.009,0.807,0.025,0.224,-0.199,5.046,0x00000003,1.0,1.0,-0.066,-0.002,0.194,-0.072,0.062,0.0,0.0,-1.573,1.62,0.0,0.0,0.032,-0.737,0.852,0.0,0.0,0.852,34.991,34.991,0.0,0.0,0.0,97.266,96.875,0.0,0.0,26.313,26.125,0.0,0.0,0.0,0.199,90.0,76.75,0.102,27.188,0x00000000,0x00000000,0x00000000,0.0,1246,1279,4.738,4.82,0.0,0.0,0.096,0.108,0.0,0.0,1.0,0.981,0.981,0.981,0.196,1.0,1.0,0.462,0.584,0.57,24.267,0x00000101,192.168.0.40,8080,255.255.255.0,192.168.0.1,0xFFFFFFFF,0xFFFFFFFF,0xFFFFFFFF,0x00000000,
0.481105089188,0x00000000,0x00000000,0x00000000,0x00000000,0x00000000,0x00000000,0x00000000,0x00000000,83.17,4,0x00000000,96.875,98.039,0.003,0.014,-0.006,-0.024,0.021,0.819,0.471,0.2,-0.716,5.599,0x00000003,1.0,1.0,-0.01,-0.001,0.213,-0.062,0.059,0.0,0.0,-1.576,1.623,0.0,0.0,0.032,-1.106,0.305,0.0,0.0,-1.106,34.991,34.991,0.0,0.0,0.0,97.266,96.875,0.0,0.0,26.313,26.125,0.0,0.0,0.0,0.199,90.0,76.75,0.102,27.188,0x00000000,0x00000000,0x00000000,0.0,1246,1279,4.764,4.768,0.0,0.0,0.096,0.108,0.0,0.0,1.0,0.981,0.981,0.981,0.196,1.0,1.0,0.462,0.584,0.57,24.267,0x00000101,192.168.0.40,8080,255.255.255.0,192.168.0.1,0xFFFFFFFF,0xFFFFFFFF,0xFFFFFFFF,0x00000000,
0.531168937683,0x00000000,0x00000000,0x00000000,0x00000000,0x00000000,0x00000000,0x00000000,0x00000000,83.22,4,0x00000000,96.875,98.039,0.004,0.013,-0.007,-0.019,-0.009,0.821,0.259,0.2,0.276,5.785,0x00000003,1.0,1.0,-0.107,-0.004,0.212,-0.067,0.048,0.0,0.0,-1.579,1.625,0.0,0.0,0.032,-0.89,0.61,0.0,0.0,-0.89,34.991,34.991,0.0,0.0,0.0,97.266,96.875,0.0,0.0,26.25,26.125,0.0,0.0,0.0,0.2,90.0,76.75,0.102,27.188,0x00000000,0x00000000,0x00000000,0.0,1246,1279,4.428,8.875,0.0,0.0,0.096,0.108,0.0,0.0,1.0,0.981,0.981,0.981,0.196,1.0,1.0,0.462,0.584,0.57,24.267,0x00000101,192.168.0.40,8080,255.255.255.0,192.168.0.1,0xFFFFFFFF,0xFFFFFFFF,0xFFFFFFFF,0x00000000,
0.581263065338,0x00000000,0x00000000,0x00000000,0x00000000,0x00000000,0x00000000,0x00000000,0x00000000,83.27,4,0x00000000,96.875,98.039,0.004,0.012,-0.022,-0.01,-0.0,0.817,0.172,0.201,0.662,5.282,0x00000003,1.0,1.0,-0.001,-0.006,0.204,-0.065,0.054,0.0,0.0,-1.582,1.628,0.0,0.0,0.032,-1.221,0.954,0.0,0.0,-1.221,34.991,34.991,0.0,0.0,0.0,97.266,96.875,0.0,0.0,26.25,26.125,0.0,0.0,0.0,0.2,90.0,76.75,0.102,27.188,0x00000000,0x00000000,0x00000000,0.0,1246,1279,3.565,4.943,0.0,0.0,0.096,0.108,0.0,0.0,1.0,0.981,0.981,0.981,0.196,1.0,1.0,0.462,0.584,0.57,24.267,0x00000101,192.168.0.40,8080,255.255.255.0,192.168.0.1,0xFFFFFFFF,0xFFFFFFFF,0xFFFFFFFF,0x00000000,
0.631303071976,0x00000000,0x00000000,0x00000000,0x00000000,0x00000000,0x00000000,0x00000000,0x00000000,83.32,4,0x00000000,96.875,98.039,0.003,0.012,-0.01,-0.011,-0.006,0.807,0.038,0.209,0.281,5.825,0x00000003,1.0,1.0,0.074,-0.005,0.214,-0.065,0.063,0.0,0.0,-1.585,1.63,0.0,0.0,0.032,-0.661,1.271,0.0,0.0,1.271,34.991,34.991,0.0,0.0,0.0,97.266,96.875,0.0,0.0,26.313,26.125,0.0,0.0,0.0,0.2,90.0,76.75,0.102,27.188,0x00000000,0x00000000,0x00000000,0.0,1246,1279,2.491,2.55,0.0,0.0,0.096,0.108,0.0,0.0,1.0,0.981,0.981,0.981,0.196,1.0,1.0,0.462,0.584,0.57,24.267,0x00000101,192.168.0.40,8080,255.255.255.0,192.168.0.1,0xFFFFFFFF,0xFFFFFFFF,0xFFFFFFFF,0x00000000,
0.681437969208,0x00000000,0x00000000,0x00000000,0x00000000,0x00000000,0x00000000,0x00000000,0x00000000,83.37,4,0x00000000,96.875,98.039,0.003,0.014,-0.008,-0.017,-0.012,0.833,0.365,0.223,0.051,4.814,0x00000003,1.0,1.0,-0.015,-0.001,0.223,-0.067,0.064,0.0,0.0,-1.588,1.633,0.0,0.0,0.032,-0.165,0.712,0.0,0.0,0.712,34.991,34.991,0.0,0.0,0.0,97.266,96.875,0.0,0.0,26.313,26.125,0.0,0.0,0.0,0.2,90.0,76.75,0.102,27.188,0x00000000,0x00000000,0x00000000,0.0,1246,1279,4.337,2.114,0.0,0.0,0.096,0.108,0.0,0.0,1.0,0.981,0.981,0.981,0.196,1.0,1.0,0.462,0.584,0.57,24.267,0x00000101,192.168.0.40,8080,255.255.255.0,192.168.0.1,0xFFFFFFFF,0xFFFFFFFF,0xFFFFFFFF,0x00000000,
0.731506109238,0x00000000,0x00000000,0x00000000,0x00000000,0x00000000,0x00000000,0x00000000,0x00000000,83.42,4,0x00000000,96.875,98.039,0.004,0.013,-0.023,-0.017,0.006,0.829,-0.668,0.225,0.309,5.0,0x00000003,1.0,1.0,0.093,0.001,0.218,-0.057,0.067,0.0,0.0,-1.591,1.636,0.0,0.0,0.032,-0.776,0.598,0.0,0.0,-0.776,34.991,34.991,0.0,0.0,0.0,97.266,96.875,0.0,0.0,26.313,26.125,0.0,0.0,0.0,0.2,90.0,76.75,0.102,27.188,0x00000000,0x00000000,0x00000000,0.0,1246,1279,0.82,3.466,0.0,0.0,0.096,0.108,0.0,0.0,1.0,0.981,0.981,0.981,0.196,1.0,1.0,0.462,0.584,0.57,24.267,0x00000101,192.168.0.40,8080,255.255.255.0,192.168.0.1,0xFFFFFFFF,0xFFFFFFFF,0xFFFFFFFF,0x00000000,
0.781559944153,0x00000000,0x00000000,0x00000000,0x00000000,0x00000000,0x00000000,0x00000000,0x00000000,83.47,4,0x00000000,96.875,98.039,0.004,0.014,-0.012,-0.008,0.006,0.836,-0.151,0.233,0.328,3.657,0x00000003,1.0,1.0,0.071,0.005,0.199,-0.042,0.059,0.0,0.0,-1.593,1.639,0.0,0.0,0.032,-1.081,0.648,0.0,0.0,-1.081,34.991,34.991,0.0,0.0,0.0,97.266,96.875,0.0,0.0,26.313,26.125,0.0,0.0,0.0,0.2,90.0,76.75,0.102,27.188,0x00000000,0x00000000,0x00000000,0.0,1246,1279,4.266,4.71,0.0,0.0,0.096,0.108,0.0,0.0,1.0,0.981,0.981,0.981,0.196,1.0,1.0,0.462,0.584,0.57,24.267,0x00000101,192.168.0.40,8080,255.255.255.0,192.168.0.1,0xFFFFFFFF,0xFFFFFFFF,0xFFFFFFFF,0x00000000,
0.831649065018,0x00000000,0x00000000,0x00000000,0x00000000,0x00000000,0x00000000,0x00000000,0x00000000,83.52,4,0x00000000,96.875,98.039,0.004,0.013,-0.019,-0.021,-0.0,0.841,0.119,0.212,-1.16,3.674,0x00000003,1.0,1.0,-0.074,0.005,0.195,-0.055,0.059,0.0,0.0,-1.595,1.642,0.0,0.0,0.032,-0.572,0.547,0.0,0.0,-0.572,34.991,34.991,0.0,0.0,0.0,97.266,96.875,0.0,0.0,26.25,26.125,0.0,0.0,0.0,0.2,90.0,76.75,0.102,27.188,0x00000000,0x00000000,0x00000000,0.0,1246,1279,4.233,4.426,0.0,0.0,0.096,0.108,0.0,0.0,1.0,0.981,0.981,0.981,0.196,1.0,1.0,0.462,0.584,0.57,24.267,0x00000101,192.168.0.40,8080,255.255.255.0,192.168.0.1,0xFFFFFFFF,0xFFFFFFFF,0xFFFFFFFF,0x00000000,
0.881717920303,0x00000000,0x00000000,0x00000000,0x00000000,0x00000000,0x00000000,0x00000000,0x00000000,83.57,4,0x00000000,96.875,98.039,0.003,0.013,-0.013,-0.021,0.006,0.819,-0.567,0.185,0.588,3.676,0x00000003,1.0,1.0,-0.05,0.002,0.185,-0.049,0.048,0.0,0.0,-1.597,1.644,0.0,0.0,0.032,-1.017,0.432,0.0,0.0,-1.017,34.991,34.991,0.0,0.0,0.0,97.266,96.875,0.0,0.0,26.25,26.125,0.0,0.0,0.0,0.2,90.0,76.75,0.102,27.188,0x00000000,0x00000000,0x00000000,0.0,1246,1279,3.565,4.751,0.0,0.0,0.096,0.108,0.0,0.0,1.0,0.981,0.981,0.981,0.196,1.0,1.0,0.462,0.584,0.57,24.267,0x00000101,192.168.0.40,8080,255.255.255.0,192.168.0.1,0xFFFFFFFF,0xFFFFFFFF,0xFFFFFFFF,0x00000000,
0.931777954102,0x00000000,0x00000000,0x00000000,0x00000000,0x00000000,0x00000000,0x00000000,0x00000000,83.62,4,0x00000000,96.875,98.039,0.004,0.013,-0.033,-0.012,-0.006,0.828,0.653,0.172,-0.443,4.744,0x00000003,1.0,1.0,-0.093,0.001,0.167,-0.046,0.038,0.0,0.0,-1.599,1.646,0.0,0.0,0.032,-0.788,1.31,0.0,0.0,1.31,34.991,34.991,0.0,0.0,0.0,97.266,96.875,0.0,0.0,26.313,26.125,0.0,0.0,0.0,0.2,90.0,76.75,0.109,27.188,0x00000000,0x00000000,0x00000000,0.0,1246,1279,4.205,2.947,0.0,0.0,0.096,0.108,0.0,0.0,1.0,0.981,0.981,0.981,0.196,1.0,1.0,0.462,0.584,0.57,24.267,0x00000101,192.168.0.40,8080,255.255.255.0,192.168.0.1,0xFFFFFFFF,0xFFFFFFFF,0xFFFFFFFF,0x00000000,
0.981868028641,0x00000000,0x00000000,0x00000000,0x00000000,0x00000000,0x00000000,0x00000000,0x00000000,83.67,4,0x00000000,96.875,98.039,0.004,0.015,-0.019,-0.021,0.012,0.8,-0.569,0.175,-0.193,5.44,0x00000003,1.0,1.0,0.02,-0.002,0.18,-0.057,0.056,0.0,0.0,-1.602,1.648,0.0,0.0,0.032,-1.068,0.509,0.0,0.0,-1.068,34.991,34.991,0.0,0.0,0.0,97.266,96.875,0.0,0.0,26.313,26.125,0.0,0.0,0.0,0.2,90.0,76.75,0.109,27.188,0x00000000,0x00000000,0x00000000,0.0,1246,1279,3.382,4.687,0.0,0.0,0.096,0.108,0.0,0.0,1.0,0.981,0.981,0.981,0.196,1.0,1.0,0.462,0.584,0.57,24.267,0x00000101,192.168.0.40,8080,255.255.255.0,192.168.0.1,0xFFFFFFFF,0xFFFFFFFF,0xFFFFFFFF,0x00000000,
1.0319340229,0x00000000,0x00000000,0x00000000,0x00000000,0x00000000,0x00000000,0x00000000,0x00000000,83.72,4,0x00000000,96.875,98.039,0.004,0.013,-0.018,-0.008,-0.012,0.813,0.098,0.182,0.533,5.809,0x00000003,1.0,1.0,-0.055,-0.0,0.182,-0.054,0.048,0.0,0.0,-1.604,1.651,0.0,0.0,0.032,-1.462,0.877,0.0,0.0,-1.462,34.991,34.991,0.0,0.0,0.0,97.266,96.875,0.0,0.0,26.313,26.125,0.0,0.0,0.0,0.2,90.0,76.75,0.109,27.188,0x00000000,0x00000000,0x00000000,0.0,1246,1279,2.489,2.54,0.0,0.0,0.096,0.108,0.0,0.0,1.0,0.981,0.981,0.981,0.196,1.0,1.0,0.462,0.584,0.57,24.267,0x00000101,192.168.0.40,8080,255.255.255.0,192.168.0.1,0xFFFFFFFF,0xFFFFFFFF,0xFFFFFFFF,0x00000000,
1.08204007149,0x00000000,0x00000000,0x00000000,0x00000000,0x00000000,0x00000000,0x00000000,0x00000000,83.77,4,0x00000000,96.875,98.039,0.004,0.013,-0.014,-0.008,-0.037,0.825,0.87,0.189,0.29,5.14,0x00000003,1.0,1.0,0.014,-0.001,0.193,-0.057,0.057,0.0,0.0,-1.607,1.653,0.0,0.0,0.032,-1.259,0.509,0.0,0.0,-1.259,34.991,34.991,0.0,0.0,0.0,97.266,96.875,0.0,0.0,26.313,26.125,0.0,0.0,0.0,0.2,90.0,76.75,0.109,27.188,0x00000000,0x00000000,0x00000000,0.0,1246,1279,4.336,2.515,0.0,0.0,0.096,0.108,0.0,0.0,1.0,0.981,0.981,0.981,0.196,1.0,1.0,0.462,0.584,0.57,24.267,0x00000101,192.168.0.40,8080,255.255.255.0,192.168.0.1,0xFFFFFFFF,0xFFFFFFFF,0xFFFFFFFF,0x00000000,
1.13210606575,0x00000000,0x00000000,0x00000000,0x00000000,0x00000000,0x00000000,0x00000000,0x00000000,83.82,4,0x00000000,96.875,98.039,0.004,0.012,-0.02,0.0,-0.001,0.811,-0.925,0.205,0.791,5.838,0x00000003,1.0,1.0,-0.079,-0.004,0.198,-0.064,0.048,0.0,0.0,-1.61,1.656,0.0,0.0,0.032,-0.776,0.776,0.0,0.0,0.776,34.991,34.991,0.0,0.0,0.0,97.266,96.875,0.0,0.0,26.25,26.125,0.0,0.0,0.0,0.2,90.0,76.75,0.109,27.188,0x00000000,0x00000000,0x00000000,0.0,1246,1279,4.752,4.341,0.0,0.0,0.096,0.108,0.0,0.0,1.0,0.981,0.981,0.981,0.196,1.0,1.0,0.462,0.584,0.57,24.267,0x00000101,192.168.0.40,8080,255.255.255.0,192.168.0.1,0xFFFFFFFF,0xFFFFFFFF,0xFFFFFFFF,0x00000000,
1.18223404884,0x00000000,0x00000000,0x00000000,0x00000000,0x00000000,0x00000000,0x00000000,0x00000000,83.87,4,0x00000000,96.875,98.039,0.004,0.013,-0.024,-0.008,-0.025,0.811,0.13,0.215,0.055,5.166,0x00000003,1.0,1.0,0.065,-0.005,0.2,-0.061,0.059,0.0,0.0,-1.613,1.658,0.0,0.0,0.032,-1.221,0.636,0.0,0.0,-1.221,34.991,34.991,0.0,0.0,0.0,97.266,96.875,0.0,0.0,26.313,26.125,0.0,0.0,0.0,0.2,90.0,76.75,0.109,27.188,0x00000000,0x00000000,0x00000000,0.0,1246,1279,4.431,3.608,0.0,0.0,0.096,0.109,0.0,0.0,1.0,0.981,0.981,0.981,0.196,1.0,1.0,0.462,0.584,0.57,24.267,0x00000101,192.168.0.40,8080,255.255.255.0,192.168.0.1,0xFFFFFFFF,0xFFFFFFFF,0xFFFFFFFF,0x00000000,
1.2322640419,0x00000000,0x00000000,0x00000000,0x00000000,0x00000000,0x00000000,0x00000000,0x00000000,83.92,4,0x00000000,96.875,98.039,0.003,0.013,-0.019,-0.017,-0.001,0.823,0.453,0.2,-1.186,4.86,0x00000003,1.0,1.0,0.097,-0.002,0.216,-0.063,0.067,0.0,0.0,-1.616,1.661,0.0,0.0,0.032,-0.737,1.081,0.0,0.0,1.081,34.991,34.991,0.0,0.0,0.0,97.266,96.875,0.0,0.0,26.313,26.125,0.0,0.0,0.0,0.2,90.0,76.75,0.109,27.188,0x00000000,0x00000000,0x00000000,0.0,1246,1279,4.414,3.42,0.0,0.0,0.096,0.109,0.0,0.0,1.0,0.981,0.981,0.981,0.196,1.0,1.0,0.462,0.584,0.57,24.267,0x00000101,192.168.0.40,8080,255.255.255.0,192.168.0.1,0xFFFFFFFF,0xFFFFFFFF,0xFFFFFFFF,0x00000000,
1.28235006332,0x00000000,0x00000000,0x00000000,0x00000000,0x00000000,0x00000000,0x00000000,0x00000000,83.97,4,0x00000000,96.875,98.039,0.004,0.014,-0.006,0.005,-0.006,0.813,-0.555,0.221,0.796,5.554,0x00000003,1.0,1.0,0.001,0.0,0.217,-0.061,0.062,0.0,0.0,-1.618,1.664,0.0,0.0,0.032,-0.598,0.826,0.0,0.0,0.826,34.991,34.991,0.0,0.0,0.0,97.266,96.875,0.0,0.0,26.313,26.125,0.0,0.0,0.0,0.2,90.0,76.75,0.109,27.188,0x00000000,0x00000000,0x00000000,0.0,1246,1279,3.564,7.65,0.0,0.0,0.096,0.109,0.0,0.0,1.0,0.981,0.981,0.981,0.196,1.0,1.0,0.462,0.584,0.57,24.267,0x00000101,192.168.0.40,8080,255.255.255.0,192.168.0.1,0xFFFFFFFF,0xFFFFFFFF,0xFFFFFFFF,0x00000000,
1.33241510391,0x00000000,0x00000000,0x00000000,0x00000000,0x00000000,0x00000000,0x00000000,0x00000000,84.02,4,0x00000000,96.875,98.039,0.004,0.013,-0.01,-0.004,-0.012,0.823,0.489,0.227,0.03,5.942,0x00000003,1.0,1.0,0.036,0.002,0.218,-0.055,0.063,0.0,0.0,-1.621,1.667,0.0,0.0,0.032,-0.687,0.547,0.0,0.0,-0.687,34.991,34.991,0.0,0.0,0.0,97.266,96.875,0.0,0.0,26.313,26.125,0.0,0.0,0.0,0.2,90.0,76.75,0.109,27.188,0x00000000,0x00000000,0x00000000,0.0,1246,1279,1.305,4.293,0.0,0.0,0.096,0.109,0.0,0.0,1.0,0.981,0.981,0.981,0.196,1.0,1.0,0.462,0.584,0.57,24.267,0x00000101,192.168.0.40,8080,255.255.255.0,192.168.0.1,0xFFFFFFFF,0xFFFFFFFF,0xFFFFFFFF,0x00000000,
1.38250589371,0x00000000,0x00000000,0x00000000,0x00000000,0x00000000,0x00000000,0x00000000,0x00000000,84.07,4,0x00000000,96.875,98.039,0.004,0.013,-0.004,-0.021,-0.006,0.829,0.325,0.242,0.305,4.916,0x00000003,1.0,1.0,0.055,0.006,0.183,-0.032,0.05,0.0,0.0,-1.623,1.669,0.0,0.0,0.032,-1.132,0.903,0.0,0.0,-1.132,34.991,34.991,0.0,0.0,0.0,97.266,96.875,0.0,0.0,26.25,26.125,0.0,0.0,0.0,0.2,90.0,76.75,0.109,27.188,0x00000000,0x00000000,0x00000000,0.0,1246,1279,1.209,2.529,0.0,0.0,0.096,0.109,0.0,0.0,1.0,0.981,0.981,0.981,0.196,1.0,1.0,0.462,0.584,0.57,24.267,0x00000101,192.168.0.40,8080,255.255.255.0,192.168.0.1,0xFFFFFFFF,0xFFFFFFFF,0xFFFFFFFF,0x00000000,
1.4325709343,0x00000000,0x00000000,0x00000000,0x00000000,0x00000000,0x00000000,0x00000000,0x00000000,84.12,4,0x00000000,96.875,98.039,0.004,0.013,-0.023,-0.026,0.006,0.842,-0.462,0.227,-0.463,6.31,0x00000003,1.0,1.0,-0.121,0.007,0.179,-0.053,0.055,0.0,0.0,-1.625,1.672,0.0,0.0,0.033,-0.674,0.648,0.0,0.0,-0.674,34.991,34.991,0.0,0.0,0.0,97.266,96.875,0.0,0.0,26.25,26.125,0.0,0.0,0.0,0.2,90.0,76.75,0.109,27.188,0x00000000,0x00000000,0x00000000,0.0,1246,1279,1.576,4.684,0.0,0.0,0.097,0.109,0.0,0.0,1.0,0.981,0.981,0.981,0.196,1.0,1.0,0.462,0.584,0.57,24.267,0x00000101,192.168.0.40,8080,255.255.255.0,192.168.0.1,0xFFFFFFFF,0xFFFFFFFF,0xFFFFFFFF,0x00000000,
1.48268890381,0x00000000,0x00000000,0x00000000,0x00000000,0x00000000,0x00000000,0x00000000,0x00000000,84.17,4,0x00000000,96.875,98.039,0.004,0.014,-0.019,-0.025,-0.031,0.819,-0.351,0.216,-0.437,5.287,0x00000003,1.0,1.0,-0.046,0.002,0.185,-0.05,0.05,0.0,0.0,-1.627,1.675,0.0,0.0,0.033,-0.928,0.865,0.0,0.0,-0.928,34.991,34.991,0.0,0.0,0.0,97.266,96.875,0.0,0.0,26.313,26.125,0.0,0.0,0.0,0.2,90.0,76.742,0.109,27.188,0x00000000,0x00000000,0x00000000,0.0,1246,1279,3.445,2.545,0.0,0.0,0.097,0.109,0.0,0.0,1.0,0.981,0.981,0.981,0.196,1.0,1.0,0.462,0.584,0.57,24.267,0x00000101,192.168.0.40,8080,255.255.255.0,192.168.0.1,0xFFFFFFFF,0xFFFFFFFF,0xFFFFFFFF,0x00000000,
1.5327539444,0x00000000,0x00000000,0x00000000,0x00000000,0x00000000,0x00000000,0x00000000,0x00000000,84.22,4,0x00000000,96.875,98.039,0.004,0.013,-0.013,-0.017,-0.012,0.794,0.346,0.209,0.293,5.654,0x00000003,1.0,1.0,-0.1,-0.002,0.176,-0.056,0.042,0.0,0.0,-1.629,1.676,0.0,0.0,0.033,-0.521,1.068,0.0,0.0,1.068,34.991,34.991,0.0,0.0,0.0,97.266,96.875,0.0,0.0,26.313,26.125,0.0,0.0,0.0,0.2,90.0,76.742,0.109,27.188,0x00000000,0x00000000,0x00000000,0.0,1246,1279,4.201,2.454,0.0,0.0,0.097,0.109,0.0,0.0,1.0,0.981,0.981,0.981,0.196,1.0,1.0,0.462,0.584,0.57,24.267,0x00000101,192.168.0.40,8080,255.255.255.0,192.168.0.1,0xFFFFFFFF,0xFFFFFFFF,0xFFFFFFFF,0x00000000,
1.58283901215,0x00000000,0x00000000,0x00000000,0x00000000,0x00000000,0x00000000,0x00000000,0x00000000,84.27,4,0x00000000,96.875,98.039,0.004,0.014,-0.023,-0.008,0.006,0.785,0.137,0.202,0.269,6.718,0x00000003,1.0,1.0,0.076,0.0,0.187,-0.049,0.057,0.0,0.0,-1.632,1.679,0.0,0.0,0.033,-1.093,0.636,0.0,0.0,-1.093,34.991,34.991,0.0,0.0,0.0,97.266,96.875,0.0,0.0,26.313,26.125,0.0,0.0,0.0,0.19,90.0,76.742,0.109,27.188,0x00000000,0x00000000,0x00000000,0.0,1246,1279,4.115,4.668,0.0,0.0,0.097,0.109,0.0,0.0,1.0,0.981,0.981,0.981,0.196,1.0,1.0,0.462,0.584,0.57,24.267,0x00000101,192.168.0.40,8080,255.255.255.0,192.168.0.1,0xFFFFFFFF,0xFFFFFFFF,0xFFFFFFFF,0x00000000,
1.63291406631,0x00000000,0x00000000,0x00000000,0x00000000,0x00000000,0x00000000,0x00000000,0x00000000,84.32,4,0x00000000,96.875,98.039,0.004,0.014,-0.016,-0.012,-0.031,0.778,0.094,0.211,1.047,5.34,0x00000003,1.0,1.0,-0.127,-0.001,0.176,-0.054,0.038,0.0,0.0,-1.634,1.681,0.0,0.0,0.033,-1.119,1.526,0.0,0.0,1.526,34.991,34.991,0.0,0.0,0.0,97.266,96.875,0.0,0.0,26.25,26.125,0.0,0.0,0.0,0.14,90.0,76.742,0.109,27.188,0x00000000,0x00000000,0x00000000,0.0,1246,1279,3.216,4.591,0.0,0.0,0.097,0.109,0.0,0.0,1.0,0.981,0.981,0.981,0.196,1.0,1.0,0.462,0.584,0.57,24.267,0x00000101,192.168.0.40,8080,255.255.255.0,192.168.0.1,0xFFFFFFFF,0xFFFFFFFF,0xFFFFFFFF,0x00000000,
1.68301892281,0x00000000,0x00000000,0x00000000,0x00000000,0x00000000,0x00000000,0x00000000,0x00000000,84.37,4,0x00000000,96.875,98.039,0.004,0.013,-0.01,-0.008,-0.006,0.762,0.31,0.196,-0.44,5.355,0x00000003,1.0,1.0,0.011,-0.005,0.136,-0.02,0.012,0.0,0.0,-1.636,1.682,0.0,0.0,0.032,-1.933,0.102,0.0,0.0,-1.933,34.991,34.991,0.0,0.0,0.0,97.266,96.875,0.0,0.0,26.313,26.125,0.0,0.0,0.0,0.161,90.0,76.742,0.109,27.188,0x00000000,0x00000000,0x00000000,0.0,1246,1279,2.542,4.229,0.0,0.0,0.097,0.109,0.0,0.0,1.0,0.981,0.981,0.981,0.196,1.0,1.0,0.462,0.584,0.57,24.267,0x00000101,192.168.0.40,8080,255.255.255.0,192.168.0.1,0xFFFFFFFF,0xFFFFFFFF,0xFFFFFFFF,0x00000000,
1.73305106163,0x00000000,0x00000000,0x00000000,0x00000000,0x00000000,0x00000000,0x00000000,0x00000000,84.42,4,0x00000000,96.875,98.039,0.004,0.013,-0.028,-0.017,-0.013,0.772,-0.296,0.212,0.819,4.668,0x00000003,1.0,1.0,-0.099,-0.006,0.098,-0.043,0.022,0.0,0.0,-1.637,1.683,0.0,0.0,0.032,-2.95,2.479,0.0,0.0,-2.95,34.991,34.991,0.0,0.0,0.0,97.266,96.875,0.0,0.0,26.313,26.125,0.0,0.0,0.0,0.185,90.0,76.742,0.109,27.188,0x00000000,0x00000000,0x00000000,0.0,1246,1279,3.483,4.123,0.0,0.0,0.097,0.109,0.0,0.0,1.0,0.981,0.981,0.981,0.196,1.0,1.0,0.462,0.584,0.57,24.267,0x00000101,192.168.0.40,8080,255.255.255.0,192.168.0.1,0xFFFFFFFF,0xFFFFFFFF,0xFFFFFFFF,0x00000000,
1.78314590454,0x00000000,0x00000000,0x00000000,0x00000000,0x00000000,0x00000000,0x00000000,0x00000000,84.47,4,0x00000000,96.875,98.039,0.004,0.012,-0.025,0.009,-0.007,0.758,0.286,0.194,-0.2,5.716,0x00000003,1.0,1.0,0.083,-0.007,0.179,-0.075,0.07,0.0,0.0,-1.64,1.685,0.0,0.0,0.032,-2.212,1.729,0.0,0.0,-2.212,34.991,34.991,0.0,0.0,0.0,97.266,96.875,0.0,0.0,26.313,26.125,0.0,0.0,0.0,0.194,90.0,76.742,0.109,27.188,0x00000000,0x00000000,0x00000000,0.0,1246,1279,2.487,9.196,0.0,0.0,0.097,0.109,0.0,0.0,1.0,0.981,0.981,0.981,0.196,1.0,1.0,0.462,0.584,0.57,24.267,0x00000101,192.168.0.40,8080,255.255.255.0,192.168.0.1,0xFFFFFFFF,0xFFFFFFFF,0xFFFFFFFF,0x00000000,
1.83320903778,0x00000000,0x00000000,0x00000000,0x00000000,0x00000000,0x00000000,0x00000000,0x00000000,84.52,4,0x00000000,96.875,98.039,0.005,0.013,-0.002,-0.021,-0.018,0.748,0.452,0.203,-0.969,6.785,0x00000003,1.0,1.0,0.096,-0.008,0.23,-0.074,0.068,0.0,0.0,-1.644,1.688,0.0,0.0,0.032,-0.445,0.305,0.0,0.0,-0.445,34.991,34.991,0.0,0.0,0.0,97.266,96.875,0.0,0.0,26.313,26.125,0.0,0.0,0.0,0.198,90.0,76.742,0.109,27.188,0x00000000,0x00000000,0x00000000,0.0,1246,1279,1.635,4.335,0.0,0.0,0.097,0.109,0.0,0.0,1.0,0.981,0.981,0.981,0.196,1.0,1.0,0.462,0.584,0.57,24.267,0x00000101,192.168.0.40,8080,255.255.255.0,192.168.0.1,0xFFFFFFFF,0xFFFFFFFF,0xFFFFFFFF,0x00000000,
1.88330006599,0x00000000,0x00000000,0x00000000,0x00000000,0x00000000,0x00000000,0x00000000,0x00000000,84.57,4,0x00000000,96.875,98.039,0.005,0.014,-0.009,-0.034,-0.0,0.756,-0.492,0.207,-0.135,3.33,0x00000003,1.0,1.0,0.05,-0.002,0.227,-0.062,0.062,0.0,0.0,-1.647,1.691,0.0,0.0,0.032,-1.589,1.844,0.0,0.0,1.844,34.991,34.991,0.0,0.0,0.0,97.266,96.875,0.0,0.0,26.25,26.125,0.0,0.0,0.0,0.199,90.0,76.742,0.109,27.188,0x00000000,0x00000000,0x00000000,0.0,1246,1279,1.041,4.783,0.0,0.0,0.097,0.109,0.0,0.0,1.0,0.981,0.981,0.981,0.196,1.0,1.0,0.462,0.584,0.57,24.267,0x00000101,192.168.0.40,8080,255.255.255.0,192.168.0.1,0xFFFFFFFF,0xFFFFFFFF,0xFFFFFFFF,0x00000000,
1.93337011337,0x00000000,0x00000000,0x00000000,0x00000000,0x00000000,0x00000000,0x00000000,0x00000000,84.62,4,0x00000000,96.875,98.039,0.004,0.013,-0.02,-0.026,-0.0,0.773,0.667,0.189,0.016,6.839,0x00000003,1.0,1.0,0.038,-0.001,0.216,-0.058,0.06,0.0,0.0,-1.65,1.694,0.0,0.0,0.032,0.038,0.292,0.0,0.0,0.292,34.991,34.991,0.0,0.0,0.0,97.266,96.875,0.0,0.0,26.25,26.125,0.0,0.0,0.0,0.2,90.0,76.742,0.109,27.188,0x00000000,0x00000000,0x00000000,0.0,1246,1279,3.419,4.601,0.0,0.0,0.097,0.109,0.0,0.0,1.0,0.981,0.981,0.981,0.196,1.0,1.0,0.462,0.584,0.57,24.267,0x00000101,192.168.0.40,8080,255.255.255.0,192.168.0.1,0xFFFFFFFF,0xFFFFFFFF,0xFFFFFFFF,0x00000000,
1.98349189758,0x00000000,0x00000000,0x00000000,0x00000000,0x00000000,0x00000000,0x00000000,0x00000000,84.67,4,0x00000000,96.875,98.039,0.004,0.015,-0.013,-0.017,0.024,0.786,-0.548,0.159,-0.397,4.063,0x00000003,1.0,1.0,0.088,0.004,0.197,-0.042,0.058,0.0,0.0,-1.652,1.697,0.0,0.0,0.032,-0.064,0.064,0.0,0.0,-0.064,34.991,34.991,0.0,0.0,0.0,97.266,96.875,0.0,0.0,26.313,26.125,0.0,0.0,0.0,0.2,90.0,76.742,0.109,27.188,0x00000000,0x00000000,0x00000000,0.0,1246,1279,2.552,2.542,0.0,0.0,0.097,0.11,0.0,0.0,1.0,0.981,0.981,0.981,0.196,1.0,1.0,0.462,0.584,0.57,24.267,0x00000101,192.168.0.40,8080,255.255.255.0,192.168.0.1,0xFFFFFFFF,0xFFFFFFFF,0xFFFFFFFF,0x00000000,
2.03354501724,0x00000000,0x00000000,0x00000000,0x00000000,0x00000000,0x00000000,0x00000000,0x00000000,84.72,4,0x00000000,96.875,98.039,0.004,0.013,-0.014,-0.013,-0.0,0.789,-0.226,0.174,0.054,5.82,0x00000003,1.0,1.0,-0.023,0.007,0.196,-0.053,0.064,0.0,0.0,-1.654,1.7,0.0,0.0,0.032,0.038,-0.203,0.0,0.0,-0.203,34.991,34.991,0.0,0.0,0.0,97.266,96.875,0.0,0.0,26.313,26.125,0.0,0.0,0.0,0.2,90.0,76.742,0.109,27.188,0x00000000,0x00000000,0x00000000,0.0,1246,1279,5.039,5.949,0.0,0.0,0.097,0.11,0.0,0.0,1.0,0.981,0.981,0.981,0.196,1.0,1.0,0.462,0.584,0.57,24.267,0x00000101,192.168.0.40,8080,255.255.255.0,192.168.0.1,0xFFFFFFFF,0xFFFFFFFF,0xFFFFFFFF,0x00000000,
2.08357310295,0x00000000,0x00000000,0x00000000,0x00000000,0x00000000,0x00000000,0x00000000,0x00000000,84.77,4,0x00000000,96.875,98.039,0.004,0.013,0.0,-0.008,-0.018,0.764,-0.57,0.16,-0.156,4.45,0x00000003,1.0,1.0,-0.001,0.004,0.191,-0.044,0.053,0.0,0.0,-1.656,1.702,0.0,0.0,0.032,0.191,0.191,0.0,0.0,0.191,34.991,34.991,0.0,0.0,0.0,97.266,96.875,0.0,0.0,26.313,26.125,0.0,0.0,0.0,0.2,90.0,76.742,0.109,27.188,0x00000000,0x00000000,0x00000000,0.0,1246,1279,0.735,2.601,0.0,0.0,0.097,0.11,0.0,0.0,1.0,0.981,0.981,0.981,0.196,1.0,1.0,0.462,0.584,0.57,24.267,0x00000101,192.168.0.40,8080,255.255.255.0,192.168.0.1,0xFFFFFFFF,0xFFFFFFFF,0xFFFFFFFF,0x00000000,
2.13369202614,0x00000000,0x00000000,0x00000000,0x00000000,0x00000000,0x00000000,0x00000000,0x00000000,84.82,4,0x00000000,96.875,98.039,0.004,0.013,-0.024,-0.008,-0.006,0.76,-0.287,0.159,1.316,4.819,0x00000003,1.0,1.0,-0.018,0.002,0.162,-0.038,0.041,0.0,0.0,-1.658,1.704,0.0,0.0,0.032,-0.013,0.305,0.0,0.0,0.305,34.991,34.991,0.0,0.0,0.0,97.266,96.875,0.0,0.0,26.25,26.125,0.0,0.0,0.0,0.2,90.0,76.742,0.109,27.188,0x00000000,0x00000000,0x00000000,0.0,1246,1279,4.411,7.053,0.0,0.0,0.097,0.11,0.0,0.0,1.0,0.981,0.981,0.981,0.196,1.0,1.0,0.462,0.584,0.57,24.267,0x00000101,192.168.0.40,8080,255.255.255.0,192.168.0.1,0xFFFFFFFF,0xFFFFFFFF,0xFFFFFFFF,0x00000000,
2.18371605873,0x00000000,0x00000000,0x00000000,0x00000000,0x00000000,0x00000000,0x00000000,0x00000000,84.87,4,0x00000000,96.875,98.039,0.003,0.013,-0.013,-0.013,-0.006,0.743,-0.936,0.156,0.321,5.519,0x00000003,1.0,1.0,-0.039,0.001,0.179,-0.057,0.055,0.0,0.0,-1.661,1.707,0.0,0.0,0.032,-0.826,0.928,0.0,0.0,0.928,34.991,34.991,0.0,0.0,0.0,97.266,96.875,0.0,0.0,26.25,26.125,0.0,0.0,0.0,0.2,90.0,76.742,0.109,27.188,0x00000000,0x00000000,0x00000000,0.0,1246,1279,4.762,4.878,0.0,0.0,0.097,0.11,0.0,0.0,1.0,0.981,0.981,0.981,0.196,1.0,1.0,0.462,0.584,0.57,24.267,0x00000101,192.168.0.40,8080,255.255.255.0,192.168.0.1,0xFFFFFFFF,0xFFFFFFFF,0xFFFFFFFF,0x00000000,
2.23377990723,0x00000000,0x00000000,0x00000000,0x00000000,0x00000000,0x00000000,0x00000000,0x00000000,84.92,4,0x00000000,96.875,98.039,0.004,0.014,-0.008,-0.009,0.006,0.744,-0.438,0.139,-1.181,5.891,0x00000003,1.0,1.0,0.028,0.001,0.19,-0.057,0.061,0.0,0.0,-1.663,1.709,0.0,0.0,0.032,-1.182,0.369,0.0,0.0,-1.182,34.991,34.991,0.0,0.0,0.0,97.266,96.875,0.0,0.0,26.313,26.125,0.0,0.0,0.0,0.2,90.0,76.742,0.109,27.188,0x00000000,0x00000000,0x00000000,0.0,1246,1279,3.958,4.784,0.0,0.0,0.097,0.11,0.0,0.0,1.0,0.981,0.981,0.981,0.196,1.0,1.0,0.462,0.584,0.57,24.267,0x00000101,192.168.0.40,8080,255.255.255.0,192.168.0.1,0xFFFFFFFF,0xFFFFFFFF,0xFFFFFFFF,0x00000000,
2.28387188911,0x00000000,0x00000000,0x00000000,0x00000000,0x00000000,0x00000000,0x00000000,0x00000000,84.97,4,0x00000000,96.875,98.039,0.004,0.013,-0.006,-0.026,-0.012,0.748,0.41,0.122,-0.19,5.56,0x00000003,1.0,1.0,-0.003,-0.001,0.197,-0.057,0.056,0.0,0.0,-1.666,1.712,0.0,0.0,0.032,-1.195,0.623,0.0,0.0,-1.195,34.991,34.991,0.0,0.0,0.0,97.266,96.875,0.0,0.0,26.313,26.125,0.0,0.0,0.0,0.2,90.0,76.742,0.109,27.188,0x00000000,0x00000000,0x00000000,0.0,1246,1279,4.738,4.78,0.0,0.0,0.097,0.11,0.0,0.0,1.0,0.981,0.981,0.981,0.196,1.0,1.0,0.462,0.584,0.57,24.267,0x00000101,192.168.0.40,8080,255.255.255.0,192.168.0.1,0xFFFFFFFF,0xFFFFFFFF,0xFFFFFFFF,0x00000000,
2.33403205872,0x00000000,0x00000000,0x00000000,0x00000000,0x00000000,0x00000000,0x00000000,0x00000000,85.02,4,0x00000000,96.875,98.039,0.003,0.013,-0.006,-0.004,-0.0,0.744,-0.038,0.111,-0.679,5.574,0x00000003,1.0,1.0,-0.11,-0.004,0.194,-0.065,0.045,0.0,0.0,-1.669,1.714,0.0,0.0,0.032,-0.915,1.157,0.0,0.0,1.157,34.991,34.991,0.0,0.0,0.0,97.266,96.875,0.0,0.0,26.313,26.125,0.0,0.0,0.0,0.2,90.0,76.742,0.109,27.188,0x00000000,0x00000000,0x00000000,0.0,1246,1279,4.136,4.804,0.0,0.0,0.097,0.11,0.0,0.0,1.0,0.981,0.981,0.981,0.196,1.0,1.0,0.462,0.584,0.57,24.267,0x00000101,192.168.0.40,8080,255.255.255.0,192.168.0.1,0xFFFFFFFF,0xFFFFFFFF,0xFFFFFFFF,0x00000000,
2.38422203064,0x00000000,0x00000000,0x00000000,0x00000000,0x00000000,0x00000000,0x00000000,0x00000000,85.07,4,0x00000000,96.875,98.039,0.004,0.012,-0.022,-0.03,-0.006,0.752,0.673,0.133,0.577,4.221,0x00000003,1.0,1.0,-0.004,-0.004,0.208,-0.067,0.06,0.0,0.0,-1.672,1.717,0.0,0.0,0.032,-1.233,0.928,0.0,0.0,-1.233,34.991,34.991,0.0,0.0,0.0,97.266,96.875,0.0,0.0,26.313,26.125,0.0,0.0,0.0,0.2,90.0,76.742,0.109,27.188,0x00000000,0x00000000,0x00000000,0.0,1246,1279,4.401,5.71,0.0,0.0,0.097,0.11,0.0,0.0,1.0,0.981,0.981,0.981,0.196,1.0,1.0,0.462,0.584,0.57,24.267,0x00000101,192.168.0.40,8080,255.255.255.0,192.168.0.1,0xFFFFFFFF,0xFFFFFFFF,0xFFFFFFFF,0x00000000,
2.43417406082,0x00000000,0x00000000,0x00000000,0x00000000,0x00000000,0x00000000,0x00000000,0x00000000,85.12,4,0x00000000,96.875,98.039,0.005,0.012,-0.012,-0.017,-0.0,0.755,0.346,0.11,-0.416,4.586,0x00000003,1.0,1.0,0.064,-0.002,0.225,-0.065,0.068,0.0,0.0,-1.675,1.72,0.0,0.0,0.032,-0.547,0.305,0.0,0.0,-0.547,34.991,34.991,0.0,0.0,0.0,97.266,96.875,0.0,0.0,26.313,26.125,0.0,0.0,0.0,0.2,90.0,76.742,0.109,27.188,0x00000000,0x00000000,0x00000000,0.0,1246,1279,4.75,2.93,0.0,0.0,0.097,0.11,0.0,0.0,1.0,0.981,0.981,0.981,0.196,1.0,1.0,0.462,0.584,0.57,24.267,0x00000101,192.168.0.40,8080,255.255.255.0,192.168.0.1,0xFFFFFFFF,0xFFFFFFFF,0xFFFFFFFF,0x00000000,
2.48426795006,0x00000000,0x00000000,0x00000000,0x00000000,0x00000000,0x00000000,0x00000000,0x00000000,85.17,4,0x00000000,96.875,98.039,0.004,0.013,-0.002,-0.017,0.012,0.757,-0.358,0.11,0.1,4.249,0x00000003,1.0,1.0,0.026,-0.0,0.218,-0.057,0.059,0.0,0.0,-1.677,1.723,0.0,0.0,0.032,-0.636,1.132,0.0,0.0,1.132,34.991,34.991,0.0,0.0,0.0,97.266,96.875,0.0,0.0,26.313,26.125,0.0,0.0,0.0,0.2,90.0,76.734,0.109,27.25,0x00000000,0x00000000,0x00000000,0.0,1246,1279,2.947,4.701,0.0,0.0,0.098,0.11,0.0,0.0,1.0,0.981,0.981,0.981,0.196,1.0,1.0,0.462,0.584,0.57,24.267,0x00000101,192.168.0.40,8080,255.255.255.0,192.168.0.1,0xFFFFFFFF,0xFFFFFFFF,0xFFFFFFFF,0x00000000,
2.53435111046,0x00000000,0x00000000,0x00000000,0x00000000,0x00000000,0x00000000,0x00000000,0x00000000,85.22,4,0x00000000,96.875,98.039,0.004,0.015,-0.015,0.0,0.018,0.759,-0.655,0.113,-0.442,6.359,0x00000003,1.0,1.0,0.021,0.002,0.212,-0.054,0.059,0.0,0.0,-1.68,1.725,0.0,0.0,0.032,-0.89,0.623,0.0,0.0,-0.89,34.991,34.991,0.0,0.0,0.0,97.266,96.875,0.0,0.0,26.313,26.125,0.0,0.0,0.0,0.2,90.0,76.734,0.109,27.25,0x00000000,0x00000000,0x00000000,0.0,1246,1279,4.358,4.136,0.0,0.0,0.098,0.11,0.0,0.0,1.0,0.981,0.981,0.981,0.196,1.0,1.0,0.462,0.584,0.57,24.267,0x00000101,192.168.0.40,8080,255.255.255.0,192.168.0.1,0xFFFFFFFF,0xFFFFFFFF,0xFFFFFFFF,0x00000000,
2.58439302444,0x00000000,0x00000000,0x00000000,0x00000000,0x00000000,0x00000000,0x00000000,0x00000000,85.27,4,0x00000000,96.875,98.039,0.004,0.013,-0.009,-0.013,-0.006,0.761,-0.258,0.11,-0.645,4.293,0x00000003,1.0,1.0,0.095,0.005,0.18,-0.033,0.053,0.0,0.0,-1.682,1.728,0.0,0.0,0.032,-1.093,0.61,0.0,0.0,-1.093,34.991,34.991,0.0,0.0,0.0,97.266,96.875,0.0,0.0,26.313,26.125,0.0,0.0,0.0,0.2,90.0,76.734,0.109,27.25,0x00000000,0x00000000,0x00000000,0.0,1246,1279,2.929,4.745,0.0,0.0,0.098,0.11,0.0,0.0,1.0,0.981,0.981,0.981,0.196,1.0,1.0,0.462,0.584,0.57,24.267,0x00000101,192.168.0.40,8080,255.255.255.0,192.168.0.1,0xFFFFFFFF,0xFFFFFFFF,0xFFFFFFFF,0x00000000,
2.63442802429,0x00000000,0x00000000,0x00000000,0x00000000,0x00000000,0x00000000,0x00000000,0x00000000,85.32,4,0x00000000,96.875,98.039,0.004,0.014,-0.01,0.005,-0.0,0.75,-0.821,0.124,-0.196,6.729,0x00000003,1.0,1.0,-0.102,0.005,0.176,-0.055,0.056,0.0,0.0,-1.684,1.73,0.0,0.0,0.032,-0.674,0.623,0.0,0.0,-0.674,34.991,34.991,0.0,0.0,0.0,97.266,96.875,0.0,0.0,26.313,26.125,0.0,0.0,0.0,0.2,90.0,76.734,0.109,27.25,0x00000000,0x00000000,0x00000000,0.0,1246,1279,2.465,7.008,0.0,0.0,0.098,0.11,0.0,0.0,1.0,0.981,0.981,0.981,0.196,1.0,1.0,0.462,0.584,0.57,24.267,0x00000101,192.168.0.40,8080,255.255.255.0,192.168.0.1,0xFFFFFFFF,0xFFFFFFFF,0xFFFFFFFF,0x00000000,
2.68453001976,0x00000000,0x00000000,0x00000000,0x00000000,0x00000000,0x00000000,0x00000000,0x00000000,85.37,4,0x00000000,96.875,98.039,0.004,0.013,-0.012,-0.03,-0.024,0.743,0.091,0.137,-0.19,6.053,0x00000003,1.0,1.0,-0.074,-0.0,0.18,-0.053,0.045,0.0,0.0,-1.686,1.733,0.0,0.0,0.032,-0.814,0.839,0.0,0.0,0.839,34.991,34.991,0.0,0.0,0.0,97.266,96.875,0.0,0.0,26.25,26.125,0.0,0.0,0.0,0.2,90.0,76.734,0.109,27.25,0x00000000,0x00000000,0x00000000,0.0,1246,1279,3.304,4.875,0.0,0.0,0.098,0.111,0.0,0.0,1.0,0.981,0.981,0.981,0.196,1.0,1.0,0.462,0.584,0.57,24.267,0x00000101,192.168.0.40,8080,255.255.255.0,192.168.0.1,0xFFFFFFFF,0xFFFFFFFF,0xFFFFFFFF,0x00000000,
2.73464488983,0x00000000,0x00000000,0x00000000,0x00000000,0x00000000,0x00000000,0x00000000,0x00000000,85.42,4,0x00000000,96.875,98.039,0.004,0.014,-0.016,-0.008,-0.025,0.727,-0.609,0.13,0.06,6.412,0x00000003,1.0,1.0,-0.012,-0.0,0.176,-0.055,0.053,0.0,0.0,-1.688,1.735,0.0,0.0,0.032,-0.496,0.839,0.0,0.0,0.839,34.991,34.991,0.0,0.0,0.0,97.266,96.875,0.0,0.0,26.313,26.125,0.0,0.0,0.0,0.2,90.0,76.734,0.109,27.25,0x00000000,0x00000000,0x00000000,0.0,1246,1279,4.706,4.605,0.0,0.0,0.098,0.111,0.0,0.0,1.0,0.981,0.981,0.981,0.196,1.0,1.0,0.462,0.584,0.57,24.267,0x00000101,192.168.0.40,8080,255.255.255.0,192.168.0.1,0xFFFFFFFF,0xFFFFFFFF,0xFFFFFFFF,0x00000000,
2.78466510773,0x00000000,0x00000000,0x00000000,0x00000000,0x00000000,0x00000000,0x00000000,0x00000000,85.47,4,0x00000000,96.875,98.039,0.004,0.012,-0.023,-0.013,0.012,0.709,0.141,0.12,0.044,6.783,0x00000003,1.0,1.0,0.023,-0.001,0.186,-0.053,0.053,0.0,0.0,-1.691,1.737,0.0,0.0,0.032,-1.068,0.89,0.0,0.0,-1.068,34.991,34.991,0.0,0.0,0.0,97.266,96.875,0.0,0.0,26.313,26.125,0.0,0.0,0.0,0.2,90.0,76.734,0.109,27.25,0x00000000,0x00000000,0x00000000,0.0,1246,1279,4.771,4.49,0.0,0.0,0.098,0.111,0.0,0.0,1.0,0.981,0.981,0.981,0.196,1.0,1.0,0.462,0.584,0.57,24.267,0x00000101,192.168.0.40,8080,255.255.255.0,192.168.0.1,0xFFFFFFFF,0xFFFFFFFF,0xFFFFFFFF,0x00000000,
2.83479309082,0x00000000,0x00000000,0x00000000,0x00000000,0x00000000,0x00000000,0x00000000,0x00000000,85.52,4,0x00000000,96.875,98.039,0.005,0.014,-0.026,-0.012,-0.037,0.718,0.093,0.136,0.279,7.483,0x00000003,1.0,1.0,-0.025,0.001,0.194,-0.06,0.06,0.0,0.0,-1.693,1.74,0.0,0.0,0.032,-0.788,0.216,0.0,0.0,-0.788,34.991,34.991,0.0,0.0,0.0,97.266,96.875,0.0,0.0,26.313,26.125,0.0,0.0,0.0,0.2,90.0,76.734,0.109,27.25,0x00000000,0x00000000,0x00000000,0.0,1246,1279,3.584,5.443,0.0,0.0,0.098,0.111,0.0,0.0,1.0,0.981,0.981,0.981,0.196,1.0,1.0,0.462,0.584,0.57,24.267,0x00000101,192.168.0.40,8080,255.255.255.0,192.168.0.1,0xFFFFFFFF,0xFFFFFFFF,0xFFFFFFFF,0x00000000,
2.88485193253,0x00000000,0x00000000,0x00000000,0x00000000,0x00000000,0x00000000,0x00000000,0x00000000,85.57,4,0x00000000,96.875,98.039,0.003,0.014,-0.012,-0.013,-0.007,0.694,-0.684,0.144,-0.887,4.721,0x00000003,1.0,1.0,-0.025,-0.001,0.196,-0.055,0.051,0.0,0.0,-1.696,1.742,0.0,0.0,0.032,-1.068,0.585,0.0,0.0,-1.068,34.991,34.991,0.0,0.0,0.0,97.266,96.875,0.0,0.0,26.313,26.125,0.0,0.0,0.0,0.2,90.0,76.734,0.109,27.25,0x00000000,0x00000000,0x00000000,0.0,1246,1279,4.718,4.169,0.0,0.0,0.098,0.111,0.0,0.0,1.0,0.981,0.981,0.981,0.196,1.0,1.0,0.462,0.584,0.57,24.267,0x00000101,192.168.0.40,8080,255.255.255.0,192.168.0.1,0xFFFFFFFF,0xFFFFFFFF,0xFFFFFFFF,0x00000000,
2.93490195274,0x00000000,0x00000000,0x00000000,0x00000000,0x00000000,0x00000000,0x00000000,0x00000000,85.62,4,0x00000000,96.875,98.039,0.004,0.012,-0.007,-0.021,-0.012,0.68,-0.424,0.14,-0.166,5.777,0x00000003,1.0,1.0,0.003,-0.003,0.203,-0.063,0.057,0.0,0.0,-1.699,1.745,0.0,0.0,0.032,-0.966,0.826,0.0,0.0,-0.966,34.991,34.991,0.0,0.0,0.0,97.266,96.875,0.0,0.0,26.313,26.125,0.0,0.0,0.0,0.2,90.0,76.734,0.109,27.25,0x00000000,0x00000000,0x00000000,0.0,1246,1279,4.764,6.985,0.0,0.0,0.098,0.111,0.0,0.0,1.0,0.981,0.981,0.981,0.196,1.0,1.0,0.462,0.584,0.57,24.267,0x00000101,192.168.0.40,8080,255.255.255.0,192.168.0.1,0xFFFFFFFF,0xFFFFFFFF,0xFFFFFFFF,0x00000000,
2.9849998951,0x00000000,0x00000000,0x00000000,0x00000000,0x00000000,0x00000000,0x00000000,0x00000000,85.67,4,0x00000000,96.875,98.039,0.005,0.014,-0.001,-0.013,-0.031,0.676,-0.826,0.133,-0.17,6.146,0x00000003,1.0,1.0,0.08,-0.001,0.21,-0.059,0.066,0.0,0.0,-1.702,1.748,0.0,0.0,0.032,-1.233,1.068,0.0,0.0,-1.233,34.991,34.991,0.0,0.0,0.0,97.266,96.875,0.0,0.0,26.25,26.125,0.0,0.0,0.0,0.2,90.0,76.734,0.109,27.188,0x00000000,0x00000000,0x00000000,0.0,1246,1279,2.544,2.646,0.0,0.0,0.098,0.111,0.0,0.0,1.0,0.981,0.981,0.981,0.196,1.0,1.0,0.462,0.584,0.57,24.267,0x00000101,192.168.0.40,8080,255.255.255.0,192.168.0.1,0xFFFFFFFF,0xFFFFFFFF,0xFFFFFFFF,0x00000000,
3.03508090973,0x00000000,0x00000000,0x00000000,0x00000000,0x00000000,0x00000000,0x00000000,0x00000000,85.72,4,0x00000000,96.875,98.039,0.005,0.013,-0.014,-0.03,-0.006,0.683,-0.168,0.116,-1.381,4.441,0x00000003,1.0,1.0,-0.023,0.0,0.221,-0.063,0.061,0.0,0.0,-1.705,1.751,0.0,0.0,0.032,-0.547,0.839,0.0,0.0,0.839,34.991,34.991,0.0,0.0,0.0,97.266,96.875,0.0,0.0,26.313,26.125,0.0,0.0,0.0,0.2,90.0,76.734,0.109,27.188,0x00000000,0x00000000,0x00000000,0.0,1246,1279,4.153,2.98,0.0,0.0,0.098,0.111,0.0,0.0,1.0,0.981,0.981,0.981,0.196,1.0,1.0,0.462,0.584,0.57,24.267,0x00000101,192.168.0.40,8080,255.255.255.0,192.168.0.1,0xFFFFFFFF,0xFFFFFFFF,0xFFFFFFFF,0x00000000,
3.08514499664,0x00000000,0x00000000,0x00000000,0x00000000,0x00000000,0x00000000,0x00000000,0x00000000,85.77,4,0x00000000,96.875,98.039,0.005,0.013,-0.017,-0.013,0.006,0.686,-0.696,0.109,0.331,5.843,0x00000003,1.0,1.0,0.009,0.002,0.216,-0.063,0.067,0.0,0.0,-1.707,1.754,0.0,0.0,0.032,-0.292,0.153,0.0,0.0,-0.292,34.991,34.991,0.0,0.0,0.0,97.266,96.875,0.0,0.0,26.313,26.125,0.0,0.0,0.0,0.19,90.0,76.734,0.109,27.188,0x00000000,0x00000000,0x00000000,0.0,1246,1279,4.57,4.725,0.0,0.0,0.098,0.111,0.0,0.0,1.0,0.981,0.981,0.981,0.196,1.0,1.0,0.462,0.584,0.57,24.267,0x00000101,192.168.0.40,8080,255.255.255.0,192.168.0.1,0xFFFFFFFF,0xFFFFFFFF,0xFFFFFFFF,0x00000000,
3.13522696495,0x00000000,0x00000000,0x00000000,0x00000000,0x00000000,0x00000000,0x00000000,0x00000000,85.82,4,0x00000000,96.875,98.039,0.004,0.013,-0.017,-0.017,0.024,0.693,-0.325,0.095,-0.429,6.555,0x00000003,1.0,1.0,0.167,0.004,0.191,-0.025,0.049,0.0,0.0,-1.71,1.756,0.0,0.0,0.032,-0.687,0.61,0.0,0.0,-0.687,34.991,34.991,0.0,0.0,0.0,97.266,96.875,0.0,0.0,26.313,26.125,0.0,0.0,0.0,0.14,90.0,76.734,0.109,27.188,0x00000000,0x00000000,0x00000000,0.0,1246,1279,3.571,4.779,0.0,0.0,0.098,0.111,0.0,0.0,1.0,0.981,0.981,0.981,0.196,1.0,1.0,0.462,0.584,0.57,24.267,0x00000101,192.168.0.40,8080,255.255.255.0,192.168.0.1,0xFFFFFFFF,0xFFFFFFFF,0xFFFFFFFF,0x00000000,
3.18531703949,0x00000000,0x00000000,0x00000000,0x00000000,0x00000000,0x00000000,0x00000000,0x00000000,85.87,4,0x00000000,96.875,98.039,0.004,0.013,-0.024,-0.008,-0.0,0.709,0.704,0.101,0.797,6.238,0x00000003,1.0,1.0,-0.029,0.006,0.107,-0.002,0.012,0.0,0.0,-1.71,1.757,0.0,0.0,0.033,-1.208,0.712,0.0,0.0,-1.208,34.991,34.991,0.0,0.0,0.0,97.266,96.875,0.0,0.0,26.25,26.125,0.0,0.0,0.0,0.161,90.0,76.734,0.109,27.188,0x00000000,0x00000000,0x00000000,0.0,1246,1279,2.378,4.781,0.0,0.0,0.098,0.111,0.0,0.0,1.0,0.981,0.981,0.981,0.196,1.0,1.0,0.462,0.584,0.57,24.267,0x00000101,192.168.0.40,8080,255.255.255.0,192.168.0.1,0xFFFFFFFF,0xFFFFFFFF,0xFFFFFFFF,0x00000000,
3.23537397385,0x00000000,0x00000000,0x00000000,0x00000000,0x00000000,0x00000000,0x00000000,0x00000000,85.92,4,0x00000000,96.875,98.039,0.005,0.012,-0.004,-0.026,-0.018,0.7,-0.14,0.115,1.081,5.186,0x00000003,1.0,1.0,-0.028,0.006,0.096,-0.037,0.047,0.0,0.0,-1.71,1.758,0.0,0.0,0.033,-1.666,0.979,0.0,0.0,-1.666,34.991,34.991,0.0,0.0,0.0,97.266,96.875,0.0,0.0,26.313,26.125,0.0,0.0,0.0,0.185,90.0,76.734,0.109,27.188,0x00000000,0x00000000,0x00000000,0.0,1246,1279,1.253,4.78,0.0,0.0,0.098,0.111,0.0,0.0,1.0,0.981,0.981,0.981,0.196,1.0,1.0,0.462,0.584,0.57,24.267,0x00000101,192.168.0.40,8080,255.255.255.0,192.168.0.1,0xFFFFFFFF,0xFFFFFFFF,0xFFFFFFFF,0x00000000,
3.28548288345,0x00000000,0x00000000,0x00000000,0x00000000,0x00000000,0x00000000,0x00000000,0x00000000,85.97,4,0x00000000,96.875,98.039,0.006,0.012,-0.017,-0.012,-0.031,0.675,-0.301,0.102,-0.14,4.502,0x00000003,1.0,1.0,-0.131,-0.001,0.169,-0.069,0.054,0.0,0.0,-1.713,1.761,0.0,0.0,0.033,-0.674,0.903,0.0,0.0,0.903,34.991,34.991,0.0,0.0,0.0,97.266,96.875,0.0,0.0,26.313,26.125,0.0,0.0,0.0,0.194,90.0,76.734,0.109,27.188,0x00000000,0x00000000,0x00000000,0.0,1246,1279,3.428,4.781,0.0,0.0,0.098,0.111,0.0,0.0,1.0,0.981,0.981,0.981,0.196,1.0,1.0,0.462,0.584,0.57,24.267,0x00000101,192.168.0.40,8080,255.255.255.0,192.168.0.1,0xFFFFFFFF,0xFFFFFFFF,0xFFFFFFFF,0x00000000,
3.33553910255,0x00000000,0x00000000,0x00000000,0x00000000,0x00000000,0x00000000,0x00000000,0x00000000,86.02,4,0x00000000,96.875,98.039,0.004,0.013,-0.019,0.001,-0.031,0.678,0.146,0.111,0.365,3.829,0x00000003,1.0,1.0,0.008,-0.001,0.195,-0.06,0.058,0.0,0.0,-1.716,1.764,0.0,0.0,0.033,-0.42,0.623,0.0,0.0,0.623,34.991,34.991,0.0,0.0,0.0,97.266,96.875,0.0,0.0,26.313,26.125,0.0,0.0,0.0,0.198,90.0,76.734,0.109,27.188,0x00000000,0x00000000,0x00000000,0.0,1246,1279,1.301,4.773,0.0,0.0,0.098,0.111,0.0,0.0,1.0,0.981,0.981,0.981,0.196,1.0,1.0,0.462,0.584,0.57,24.267,0x00000101,192.168.0.40,8080,255.255.255.0,192.168.0.1,0xFFFFFFFF,0xFFFFFFFF,0xFFFFFFFF,0x00000000,
3.38564896584,0x00000000,0x00000000,0x00000000,0x00000000,0x00000000,0x00000000,0x00000000,0x00000000,86.07,4,0x00000000,96.875,98.039,0.004,0.014,-0.006,0.005,-0.013,0.674,0.14,0.125,-0.129,3.849,0x00000003,1.0,1.0,-0.025,-0.003,0.194,-0.054,0.046,0.0,0.0,-1.719,1.766,0.0,0.0,0.033,-1.068,0.89,0.0,0.0,-1.068,34.991,34.991,0.0,0.0,0.0,97.266,96.875,0.0,0.0,26.313,26.125,0.0,0.0,0.0,0.199,90.0,76.734,0.109,27.188,0x00000000,0x00000000,0x00000000,0.0,1246,1279,4.441,4.781,0.0,0.0,0.098,0.111,0.0,0.0,1.0,0.981,0.981,0.981,0.196,1.0,1.0,0.462,0.584,0.57,24.267,0x00000101,192.168.0.40,8080,255.255.255.0,192.168.0.1,0xFFFFFFFF,0xFFFFFFFF,0xFFFFFFFF,0x00000000,
3.43596696854,0x00000000,0x00000000,0x00000000,0x00000000,0x00000000,0x00000000,0x00000000,0x00000000,86.12,4,0x00000000,96.875,98.039,0.004,0.014,-0.011,-0.021,-0.012,0.682,0.058,0.138,0.616,3.862,0x00000003,1.0,1.0,0.031,0.001,0.182,-0.049,0.054,0.0,0.0,-1.721,1.768,0.0,0.0,0.033,-1.36,0.712,0.0,0.0,-1.36,34.991,34.991,0.0,0.0,0.0,97.266,96.875,0.0,0.0,26.313,26.125,0.0,0.0,0.0,0.2,90.0,76.734,0.109,27.188,0x00000000,0x00000000,0x00000000,0.0,1246,1279,3.939,2.952,0.0,0.0,0.098,0.111,0.0,0.0,1.0,0.981,0.981,0.981,0.196,1.0,1.0,0.462,0.584,0.57,24.267,0x00000101,192.168.0.40,8080,255.255.255.0,192.168.0.1,0xFFFFFFFF,0xFFFFFFFF,0xFFFFFFFF,0x00000000,
3.48578095436,0x00000000,0x00000000,0x00000000,0x00000000,0x00000000,0x00000000,0x00000000,0x00000000,86.17,4,0x00000000,96.875,98.039,0.003,0.013,-0.023,-0.017,-0.019,0.669,-0.487,0.151,0.362,4.566,0x00000003,1.0,1.0,-0.046,-0.001,0.19,-0.058,0.052,0.0,0.0,-1.724,1.771,0.0,0.0,0.033,-1.195,0.839,0.0,0.0,-1.195,34.991,34.991,0.0,0.0,0.0,97.266,96.875,0.0,0.0,26.25,26.125,0.0,0.0,0.0,0.2,90.0,76.742,0.109,27.188,0x00000000,0x00000000,0x00000000,0.0,1246,1279,4.733,4.702,0.0,0.0,0.099,0.112,0.0,0.0,1.0,0.981,0.981,0.981,0.196,1.0,1.0,0.462,0.584,0.57,24.267,0x00000101,192.168.0.40,8080,255.255.255.0,192.168.0.1,0xFFFFFFFF,0xFFFFFFFF,0xFFFFFFFF,0x00000000,
3.53586602211,0x00000000,0x00000000,0x00000000,0x00000000,0x00000000,0x00000000,0x00000000,0x00000000,86.22,4,0x00000000,96.875,98.039,0.005,0.012,-0.013,-0.021,-0.018,0.65,-0.225,0.161,0.307,7.02,0x00000003,1.0,1.0,-0.017,-0.002,0.204,-0.067,0.061,0.0,0.0,-1.727,1.773,0.0,0.0,0.033,-0.801,0.712,0.0,0.0,-0.801,34.991,34.991,0.0,0.0,0.0,97.266,96.875,0.0,0.0,26.25,26.125,0.0,0.0,0.0,0.2,90.0,76.742,0.109,27.188,0x00000000,0x00000000,0x00000000,0.0,1246,1279,4.767,4.438,0.0,0.0,0.099,0.112,0.0,0.0,1.0,0.981,0.981,0.981,0.196,1.0,1.0,0.462,0.584,0.57,24.267,0x00000101,192.168.0.40,8080,255.255.255.0,192.168.0.1,0xFFFFFFFF,0xFFFFFFFF,0xFFFFFFFF,0x00000000,
3.58593893051,0x00000000,0x00000000,0x00000000,0x00000000,0x00000000,0x00000000,0x00000000,0x00000000,86.27,4,0x00000000,96.875,98.039,0.004,0.012,-0.012,-0.017,-0.006,0.658,-0.067,0.143,-0.676,6.688,0x00000003,1.0,1.0,0.077,-0.0,0.217,-0.062,0.068,0.0,0.0,-1.729,1.776,0.0,0.0,0.033,-1.335,0.712,0.0,0.0,-1.335,34.991,34.991,0.0,0.0,0.0,97.266,96.875,0.0,0.0,26.313,26.125,0.0,0.0,0.0,0.2,90.0,76.742,0.109,27.188,0x00000000,0x00000000,0x00000000,0.0,1246,1279,3.582,2.941,0.0,0.0,0.099,0.112,0.0,0.0,1.0,0.981,0.981,0.981,0.196,1.0,1.0,0.462,0.584,0.57,24.267,0x00000101,192.168.0.40,8080,255.255.255.0,192.168.0.1,0xFFFFFFFF,0xFFFFFFFF,0xFFFFFFFF,0x00000000,
3.63601708412,0x00000000,0x00000000,0x00000000,0x00000000,0x00000000,0x00000000,0x00000000,0x00000000,86.32,4,0x00000000,96.875,98.039,0.004,0.013,-0.012,-0.017,0.012,0.648,-0.162,0.147,-0.426,6.706,0x00000003,1.0,1.0,0.01,-0.001,0.225,-0.063,0.062,0.0,0.0,-1.733,1.779,0.0,0.0,0.033,-0.636,0.877,0.0,0.0,0.877,34.991,34.991,0.0,0.0,0.0,97.266,96.875,0.0,0.0,26.313,26.125,0.0,0.0,0.0,0.2,90.0,76.742,0.109,27.188,0x00000000,0x00000000,0x00000000,0.0,1246,1279,4.083,3.741,0.0,0.0,0.099,0.112,0.0,0.0,1.0,0.981,0.981,0.981,0.196,1.0,1.0,0.462,0.584,0.57,24.267,0x00000101,192.168.0.40,8080,255.255.255.0,192.168.0.1,0xFFFFFFFF,0xFFFFFFFF,0xFFFFFFFF,0x00000000,
3.68613505363,0x00000000,0x00000000,0x00000000,0x00000000,0x00000000,0x00000000,0x00000000,0x00000000,86.37,4,0x00000000,96.875,98.039,0.004,0.014,-0.002,-0.017,0.024,0.655,0.326,0.132,0.066,6.724,0x00000003,1.0,1.0,0.034,0.001,0.219,-0.057,0.064,0.0,0.0,-1.735,1.782,0.0,0.0,0.033,-0.521,0.648,0.0,0.0,0.648,34.991,34.991,0.0,0.0,0.0,97.266,96.875,0.0,0.0,26.313,26.125,0.0,0.0,0.0,0.2,90.0,76.742,0.109,27.188,0x00000000,0x00000000,0x00000000,0.0,1246,1279,4.743,2.505,0.0,0.0,0.099,0.112,0.0,0.0,1.0,0.981,0.981,0.981,0.196,1.0,1.0,0.462,0.584,0.57,24.267,0x00000101,192.168.0.40,8080,255.255.255.0,192.168.0.1,0xFFFFFFFF,0xFFFFFFFF,0xFFFFFFFF,0x00000000,
3.73618793488,0x00000000,0x00000000,0x00000000,0x00000000,0x00000000,0x00000000,0x00000000,0x00000000,86.42,4,0x00000000,96.875,98.039,0.004,0.014,-0.017,-0.017,-0.012,0.664,-0.73,0.134,0.323,6.74,0x00000003,1.0,1.0,-0.009,0.001,0.204,-0.052,0.053,0.0,0.0,-1.738,1.785,0.0,0.0,0.033,-0.788,0.725,0.0,0.0,-0.788,34.991,34.991,0.0,0.0,0.0,97.266,96.875,0.0,0.0,26.313,26.125,0.0,0.0,0.0,0.2,90.0,76.742,0.109,27.188,0x00000000,0x00000000,0x00000000,0.0,1246,1279,2.024,4.5,0.0,0.0,0.099,0.112,0.0,0.0,1.0,0.981,0.981,0.981,0.196,1.0,1.0,0.462,0.584,0.57,24.267,0x00000101,192.168.0.40,8080,255.255.255.0,192.168.0.1,0xFFFFFFFF,0xFFFFFFFF,0xFFFFFFFF,0x00000000,
3.79627990723,0x00000000,0x00000000,0x00000000,0x00000000,0x00000000,0x00000000,0x00000000,0x00000000,86.48,4,0x00000000,96.875,98.039,0.003,0.015,-0.017,-0.017,-0.0,0.672,-0.494,0.131,-0.19,7.453,0x00000003,1.0,1.0,0.087,0.004,0.183,-0.039,0.055,0.0,0.0,-1.74,1.788,0.0,0.0,0.033,-1.182,0.737,0.0,0.0,-1.182,34.991,34.991,0.0,0.0,0.0,97.266,96.875,0.0,0.0,26.313,26.125,0.0,0.0,0.0,0.2,90.0,76.742,0.109,27.188,0x00000000,0x00000000,0x00000000,0.0,1246,1279,2.486,4.774,0.0,0.0,0.099,0.112,0.0,0.0,1.0,0.981,0.981,0.981,0.196,1.0,1.0,0.462,0.584,0.57,24.267,0x00000101,192.168.0.40,8080,255.255.255.0,192.168.0.1,0xFFFFFFFF,0xFFFFFFFF,0xFFFFFFFF,0x00000000,
3.8463768959,0x00000000,0x00000000,0x00000000,0x00000000,0x00000000,0x00000000,0x00000000,0x00000000,86.53,4,0x00000000,96.875,98.039,0.004,0.013,-0.013,0.001,-0.025,0.678,0.31,0.144,0.288,7.815,0x00000003,1.0,1.0,-0.127,0.002,0.178,-0.054,0.046,0.0,0.0,-1.742,1.79,0.0,0.0,0.033,-0.674,0.979,0.0,0.0,0.979,34.991,34.991,0.0,0.0,0.0,97.266,96.875,0.0,0.0,26.313,26.125,0.0,0.0,0.0,0.2,90.0,76.742,0.109,27.188,0x00000000,0x00000000,0x00000000,0.0,1246,1279,1.258,4.772,0.0,0.0,0.099,0.112,0.0,0.0,1.0,0.981,0.981,0.981,0.196,1.0,1.0,0.462,0.584,0.57,24.267,0x00000101,192.168.0.40,8080,255.255.255.0,192.168.0.1,0xFFFFFFFF,0xFFFFFFFF,0xFFFFFFFF,0x00000000,
3.89644098282,0x00000000,0x00000000,0x00000000,0x00000000,0x00000000,0x00000000,0x00000000,0x00000000,86.58,4,0x00000000,96.875,98.039,0.005,0.013,-0.029,-0.021,-0.013,0.665,0.235,0.128,-0.419,6.102,0x00000003,1.0,1.0,-0.034,-0.003,0.169,-0.051,0.042,0.0,0.0,-1.745,1.792,0.0,0.0,0.033,-0.979,1.093,0.0,0.0,1.093,34.991,34.991,0.0,0.0,0.0,97.266,96.875,0.0,0.0,26.313,26.125,0.0,0.0,0.0,0.2,90.0,76.742,0.109,27.188,0x00000000,0x00000000,0x00000000,0.0,1246,1279,4.444,4.77,0.0,0.0,0.099,0.112,0.0,0.0,1.0,0.981,0.981,0.981,0.196,1.0,1.0,0.462,0.584,0.57,24.267,0x00000101,192.168.0.40,8080,255.255.255.0,192.168.0.1,0xFFFFFFFF,0xFFFFFFFF,0xFFFFFFFF,0x00000000,
3.94651889801,0x00000000,0x00000000,0x00000000,0x00000000,0x00000000,0x00000000,0x00000000,0x00000000,86.63,4,0x00000000,96.875,98.039,0.005,0.014,-0.025,-0.025,-0.031,0.663,0.444,0.124,0.057,7.143,0x00000003,1.0,1.0,-0.025,-0.003,0.186,-0.061,0.053,0.0,0.0,-1.747,1.794,0.0,0.0,0.033,-0.61,0.852,0.0,0.0,0.852,34.991,34.991,0.0,0.0,0.0,97.266,96.875,0.0,0.0,26.313,26.125,0.0,0.0,0.0,0.2,90.0,76.742,0.109,27.188,0x00000000,0x00000000,0x00000000,0.0,1246,1279,4.572,5.71,0.0,0.0,0.099,0.112,0.0,0.0,1.0,0.981,0.981,0.981,0.196,1.0,1.0,0.462,0.584,0.57,24.267,0x00000101,192.168.0.40,8080,255.255.255.0,192.168.0.1,0xFFFFFFFF,0xFFFFFFFF,0xFFFFFFFF,0x00000000,
3.99662494659,0x00000000,0x00000000,0x00000000,0x00000000,0x00000000,0x00000000,0x00000000,0x00000000,86.68,4,0x00000000,96.875,98.039,0.004,0.014,-0.019,-0.017,0.006,0.668,0.36,0.126,0.055,7.168,0x00000003,1.0,1.0,0.065,-0.002,0.189,-0.053,0.056,0.0,0.0,-1.75,1.797,0.0,0.0,0.033,-1.068,0.585,0.0,0.0,-1.068,34.991,34.991,0.0,0.0,0.0,97.266,96.875,0.0,0.0,26.313,26.125,0.0,0.0,0.0,0.2,90.0,76.742,0.109,27.188,0x00000000,0x00000000,0x00000000,0.0,1246,1279,1.385,4.82,0.0,0.0,0.099,0.112,0.0,0.0,1.0,0.981,0.981,0.981,0.196,1.0,1.0,0.462,0.584,0.57,24.267,0x00000101,192.168.0.40,8080,255.255.255.0,192.168.0.1,0xFFFFFFFF,0xFFFFFFFF,0xFFFFFFFF,0x00000000,
4.04670596123,0x00000000,0x00000000,0x00000000,0x00000000,0x00000000,0x00000000,0x00000000,0x00000000,86.73,4,0x00000000,96.875,98.039,0.004,0.014,-0.008,-0.021,-0.024,0.662,-1.021,0.13,0.097,6.124,0x00000003,1.0,1.0,-0.029,-0.001,0.197,-0.061,0.056,0.0,0.0,-1.753,1.799,0.0,0.0,0.033,-0.661,0.521,0.0,0.0,-0.661,34.991,34.991,0.0,0.0,0.0,97.266,96.875,0.0,0.0,26.25,26.125,0.0,0.0,0.0,0.2,90.0,76.742,0.109,27.188,0x00000000,0x00000000,0x00000000,0.0,1246,1279,2.801,4.781,0.0,0.0,0.099,0.112,0.0,0.0,1.0,0.981,0.981,0.981,0.196,1.0,1.0,0.462,0.584,0.57,24.267,0x00000101,192.168.0.40,8080,255.255.255.0,192.168.0.1,0xFFFFFFFF,0xFFFFFFFF,0xFFFFFFFF,0x00000000,
4.09677696228,0x00000000,0x00000000,0x00000000,0x00000000,0x00000000,0x00000000,0x00000000,0x00000000,86.78,4,0x00000000,96.875,98.039,0.004,0.015,-0.01,-0.004,-0.012,0.674,0.171,0.137,0.073,6.5,0x00000003,1.0,1.0,-0.058,-0.002,0.193,-0.06,0.05,0.0,0.0,-1.755,1.802,0.0,0.0,0.033,-0.954,0.776,0.0,0.0,-0.954,34.991,34.991,0.0,0.0,0.0,97.266,96.875,0.0,0.0,26.313,26.125,0.0,0.0,0.0,0.2,90.0,76.742,0.109,27.188,0x00000000,0x00000000,0x00000000,0.0,1246,1279,4.687,4.781,0.0,0.0,0.099,0.112,0.0,0.0,1.0,0.981,0.981,0.981,0.196,1.0,1.0,0.462,0.584,0.57,24.267,0x00000101,192.168.0.40,8080,255.255.255.0,192.168.0.1,0xFFFFFFFF,0xFFFFFFFF,0xFFFFFFFF,0x00000000,
4.14684295654,0x00000000,0x00000000,0x00000000,0x00000000,0x00000000,0x00000000,0x00000000,0x00000000,86.83,4,0x00000000,96.875,98.039,0.004,0.015,-0.007,-0.013,-0.0,0.672,-0.178,0.113,-1.147,5.822,0x00000003,1.0,1.0,0.035,-0.002,0.204,-0.061,0.06,0.0,0.0,-1.758,1.804,0.0,0.0,0.033,-0.966,0.941,0.0,0.0,-0.966,34.991,34.991,0.0,0.0,0.0,97.266,96.875,0.0,0.0,26.313,26.125,0.0,0.0,0.0,0.2,90.0,76.742,0.109,27.188,0x00000000,0x00000000,0x00000000,0.0,1246,1279,2.54,5.143,0.0,0.0,0.099,0.112,0.0,0.0,1.0,0.981,0.981,0.981,0.196,1.0,1.0,0.462,0.584,0.57,24.267,0x00000101,192.168.0.40,8080,255.255.255.0,192.168.0.1,0xFFFFFFFF,0xFFFFFFFF,0xFFFFFFFF,0x00000000,
4.19693207741,0x00000000,0x00000000,0x00000000,0x00000000,0x00000000,0x00000000,0x00000000,0x00000000,86.88,4,0x00000000,96.875,98.039,0.005,0.013,-0.002,-0.021,-0.018,0.674,-0.183,0.106,-0.382,4.802,0x00000003,1.0,1.0,-0.014,-0.001,0.221,-0.069,0.066,0.0,0.0,-1.761,1.807,0.0,0.0,0.033,-0.661,0.521,0.0,0.0,-0.661,34.991,34.991,0.0,0.0,0.0,97.266,96.875,0.0,0.0,26.313,26.125,0.0,0.0,0.0,0.2,90.0,76.742,0.109,27.188,0x00000000,0x00000000,0x00000000,0.0,1246,1279,3.486,4.797,0.0,0.0,0.099,0.112,0.0,0.0,1.0,0.981,0.981,0.981,0.196,1.0,1.0,0.462,0.584,0.57,24.267,0x00000101,192.168.0.40,8080,255.255.255.0,192.168.0.1,0xFFFFFFFF,0xFFFFFFFF,0xFFFFFFFF,0x00000000,
4.24701595306,0x00000000,0x00000000,0x00000000,0x00000000,0x00000000,0x00000000,0x00000000,0x00000000,86.93,4,0x00000000,96.875,98.039,0.004,0.011,-0.01,-0.012,-0.043,0.699,0.736,0.108,0.087,5.522,0x00000003,1.0,1.0,0.072,0.0,0.218,-0.056,0.063,0.0,0.0,-1.764,1.81,0.0,0.0,0.033,-0.674,0.852,0.0,0.0,0.852,34.991,34.991,0.0,0.0,0.0,97.266,96.875,0.0,0.0,26.25,26.125,0.0,0.0,0.0,0.2,90.0,76.742,0.109,27.188,0x00000000,0x00000000,0x00000000,0.0,1246,1279,2.489,2.37,0.0,0.0,0.099,0.113,0.0,0.0,1.0,0.981,0.981,0.981,0.196,1.0,1.0,0.462,0.584,0.57,24.267,0x00000101,192.168.0.40,8080,255.255.255.0,192.168.0.1,0xFFFFFFFF,0xFFFFFFFF,0xFFFFFFFF,0x00000000,
4.29709506035,0x00000000,0x00000000,0x00000000,0x00000000,0x00000000,0x00000000,0x00000000,0x00000000,86.98,4,0x00000000,96.875,98.039,0.005,0.012,-0.014,-0.021,-0.013,0.705,-0.295,0.093,0.088,6.22,0x00000003,1.0,1.0,0.003,0.002,0.211,-0.056,0.06,0.0,0.0,-1.766,1.813,0.0,0.0,0.033,-0.585,0.623,0.0,0.0,0.623,34.991,34.991,0.0,0.0,0.0,97.266,96.875,0.0,0.0,26.313,26.125,0.0,0.0,0.0,0.2,90.0,76.742,0.109,27.188,0x00000000,0x00000000,0x00000000,0.0,1246,1279,4.15,3.123,0.0,0.0,0.099,0.113,0.0,0.0,1.0,0.981,0.981,0.981,0.196,1.0,1.0,0.462,0.584,0.57,24.267,0x00000101,192.168.0.40,8080,255.255.255.0,192.168.0.1,0xFFFFFFFF,0xFFFFFFFF,0xFFFFFFFF,0x00000000,
4.34714698792,0x00000000,0x00000000,0x00000000,0x00000000,0x00000000,0x00000000,0x00000000,0x00000000,87.03,4,0x00000000,96.875,98.039,0.005,0.013,-0.02,-0.025,-0.013,0.713,-0.092,0.102,-0.381,4.856,0x00000003,1.0,1.0,0.085,0.003,0.203,-0.05,0.064,0.0,0.0,-1.769,1.816,0.0,0.0,0.033,-0.801,0.381,0.0,0.0,-0.801,34.991,34.991,0.0,0.0,0.0,97.266,96.875,0.0,0.0,26.313,26.125,0.0,0.0,0.0,0.2,90.0,76.742,0.109,27.188,0x00000000,0x00000000,0x00000000,0.0,1246,1279,4.223,3.514,0.0,0.0,0.099,0.113,0.0,0.0,1.0,0.981,0.981,0.981,0.196,1.0,1.0,0.462,0.584,0.57,24.267,0x00000101,192.168.0.40,8080,255.255.255.0,192.168.0.1,0xFFFFFFFF,0xFFFFFFFF,0xFFFFFFFF,0x00000000,
4.39724302292,0x00000000,0x00000000,0x00000000,0x00000000,0x00000000,0x00000000,0x00000000,0x00000000,87.08,4,0x00000000,96.875,98.039,0.004,0.014,-0.016,-0.025,-0.037,0.738,-0.318,0.095,-0.186,7.299,0x00000003,1.0,1.0,-0.011,0.006,0.186,-0.044,0.054,0.0,0.0,-1.771,1.818,0.0,0.0,0.033,-1.043,0.737,0.0,0.0,-1.043,34.991,34.991,0.0,0.0,0.0,97.266,96.875,0.0,0.0,26.313,26.125,0.0,0.0,0.0,0.2,90.0,76.742,0.109,27.188,0x00000000,0x00000000,0x00000000,0.0,1246,1279,4.749,5.397,0.0,0.0,0.099,0.113,0.0,0.0,1.0,0.981,0.981,0.981,0.196,1.0,1.0,0.462,0.584,0.57,24.267,0x00000101,192.168.0.40,8080,255.255.255.0,192.168.0.1,0xFFFFFFFF,0xFFFFFFFF,0xFFFFFFFF,0x00000000,
