Time_stamp,fault_status_word_1,fault_status_word_2,fault_status_word_3,fault_status_word_4,mcu_0_fault_status,mcu_1_fault_status,mcu_2_fault_status,mcu_3_fault_status,operational_time,operational_state,dynamic_response,min_propulsion_batt_soc,aux_batt_soc,inertial_x_acc_g,inertial_y_acc_g,inertial_x_rate_rps,inertial_y_rate_rps,inertial_z_rate_rps,pse_pitch_deg,pse_pitch_rate_dps,pse_roll_deg,pse_roll_rate_dps,pse_yaw_rate_dps,pse_data_is_valid,yaw_rate_limit_rps,vel_limit_mps,linear_accel_mps2,linear_vel_mps,differential_wheel_vel_rps,right_front_vel_mps,left_front_vel_mps,right_rear_vel_mps,left_rear_vel_mps,right_front_pos_m,left_front_pos_m,right_rear_pos_m,left_rear_pos_m,linear_pos_m,right_front_current_A0pk,left_front_current_A0pk,right_rear_current_A0pk,left_rear_current_A0pk,max_motor_current_A0pk,right_front_current_limit_A0pk,left_front_current_limit_A0pk,right_rear_current_limit_A0pk,left_rear_current_limit_A0pk,min_motor_current_limit_A0pk,front_base_batt_1_soc,front_base_batt_2_soc,rear_base_batt_1_soc,rear_base_batt_2_soc,front_base_batt_1_temp_degC,front_base_batt_2_temp_degC,rear_base_batt_1_temp_degC,rear_base_batt_2_temp_degC,vel_target_mps,yaw_rate_target_rps,angle_target_deg,aux_batt_voltage_V,aux_batt_current_A,aux_batt_temp_degC,abb_system_status,aux_batt_status,aux_batt_faults,7p2V_battery_voltage,ccu_sp_sw_build_id,ccu_uip_sw_build_id,mcu_0_inst_power_W,mcu_1_inst_power_W,mcu_2_inst_power_W,mcu_3_inst_power_W,mcu_0_total_energy_Wh,mcu_1_total_energy_Wh,mcu_2_total_energy_Wh,mcu_3_total_energy_Wh,fram_vel_limit_mps,fram_accel_limit_mps2,fram_decel_limit_mps2,fram_dtz_decel_limit_mps2,fram_coastdown_decel_mps2,fram_yaw_rate_limit_rps,fram_yaw_accel_limit_rps2,fram_tire_diameter_m,fram_wheelbase_length_m,fram_wheel_track_width_m,fram_transmission_ratio,fram_config_bitmap,fram_eth_ip_address,fram_eth_port_number,fram_eth_subnet_mask,fram_eth_gateway,user_feedback_bitmap_1,user_feedback_bitmap_2,user_feedback_bitmap_3,user_feedback_bitmap_4,
0.0753891468048,0x00000000,0x00000000,0x00000000,0x00000000,0x00000000,0x00000000,0x00000000,0x00000000,21.6,3,0x00000000,97.266,98.431,0.005,0.013,-0.019,-0.008,-0.006,0.856,0.087,-0.237,-0.156,-1.454,0x00000003,0.0,0.0,0.007,-0.0,0.003,-0.001,0.002,0.0,0.0,0.013,0.026,0.0,0.0,0.019,0.852,0.623,0.0,0.0,0.852,34.991,34.991,0.0,0.0,0.0,97.266,97.266,0.0,0.0,26.25,26.125,0.0,0.0,0.0,0.0,90.0,76.789,0.109,27.125,0x00000000,0x00000000,0x00000000,0.0,1246,1279,8.915,2.463,0.0,0.0,0.025,0.015,0.0,0.0,1.0,0.981,0.981,0.981,0.196,1.0,1.0,0.462,0.584,0.57,24.267,0x00000101,192.168.0.40,8080,255.255.255.0,192.168.0.1,0xFFFFFFFF,0xFFFFFFFF,0xFFFFFFFF,0x00000000,
0.125522136688,0x00000000,0x00000000,0x00000000,0x00000000,0x00000000,0x00000000,0x00000000,0x00000000,21.65,3,0x00000000,97.266,98.431,0.003,0.012,-0.026,-0.004,-0.013,0.844,0.054,-0.237,-1.405,-0.768,0x00000003,0.0,0.0,-0.001,-0.0,0.002,-0.0,0.0,0.0,0.0,0.013,0.026,0.0,0.0,0.019,0.75,0.623,0.0,0.0,0.75,34.991,34.991,0.0,0.0,0.0,97.266,97.266,0.0,0.0,26.25,26.063,0.0,0.0,0.0,0.0,90.0,76.789,0.109,27.125,0x00000000,0x00000000,0x00000000,0.0,1246,1279,5.141,4.666,0.0,0.0,0.025,0.015,0.0,0.0,1.0,0.981,0.981,0.981,0.196,1.0,1.0,0.462,0.584,0.57,24.267,0x00000101,192.168.0.40,8080,255.255.255.0,192.168.0.1,0xFFFFFFFF,0xFFFFFFFF,0xFFFFFFFF,0x00000000,
0.175458192825,0x00000000,0x00000000,0x00000000,0x00000000,0x00000000,0x00000000,0x00000000,0x00000000,21.7,3,0x00000000,97.266,98.431,0.004,0.013,-0.011,-0.004,-0.012,0.853,0.527,-0.212,-0.431,-0.409,0x00000003,0.0,0.0,-0.006,-0.0,0.001,-0.0,-0.001,0.0,0.0,0.013,0.026,0.0,0.0,0.019,0.75,0.623,0.0,0.0,0.75,34.991,34.991,0.0,0.0,0.0,97.266,97.266,0.0,0.0,26.25,26.125,0.0,0.0,0.0,0.0,90.0,76.789,0.109,27.125,0x00000000,0x00000000,0x00000000,0.0,1246,1279,7.026,4.765,0.0,0.0,0.025,0.015,0.0,0.0,1.0,0.981,0.981,0.981,0.196,1.0,1.0,0.462,0.584,0.57,24.267,0x00000101,192.168.0.40,8080,255.255.255.0,192.168.0.1,0xFFFFFFFF,0xFFFFFFFF,0xFFFFFFFF,0x00000000,
0.225567102432,0x00000000,0x00000000,0x00000000,0x00000000,0x00000000,0x00000000,0x00000000,0x00000000,21.75,3,0x00000000,97.266,98.431,0.004,0.013,-0.015,0.0,-0.006,0.852,0.033,-0.193,0.595,-1.453,0x00000003,0.0,0.0,0.001,-0.0,0.001,-0.0,-0.0,0.0,0.0,0.013,0.026,0.0,0.0,0.019,0.75,0.725,0.0,0.0,0.75,34.991,34.991,0.0,0.0,0.0,97.266,97.266,0.0,0.0,26.25,26.125,0.0,0.0,0.0,0.0,90.0,76.789,0.109,27.125,0x00000000,0x00000000,0x00000000,0.0,1246,1279,7.628,4.781,0.0,0.0,0.025,0.015,0.0,0.0,1.0,0.981,0.981,0.981,0.196,1.0,1.0,0.462,0.584,0.57,24.267,0x00000101,192.168.0.40,8080,255.255.255.0,192.168.0.1,0xFFFFFFFF,0xFFFFFFFF,0xFFFFFFFF,0x00000000,
0.275561094284,0x00000000,0x00000000,0x00000000,0x00000000,0x00000000,0x00000000,0x00000000,0x00000000,21.8,3,0x00000000,97.266,98.431,0.004,0.013,-0.013,-0.004,-0.018,0.852,0.34,-0.176,0.087,-1.102,0x00000003,0.0,0.0,-0.005,-0.0,0.001,-0.001,-0.0,0.0,0.0,0.013,0.026,0.0,0.0,0.019,0.839,0.648,0.0,0.0,0.839,34.991,34.991,0.0,0.0,0.0,97.266,97.266,0.0,0.0,26.25,26.063,0.0,0.0,0.0,0.0,90.0,76.789,0.109,27.125,0x00000000,0x00000000,0x00000000,0.0,1246,1279,5.72,2.551,0.0,0.0,0.025,0.015,0.0,0.0,1.0,0.981,0.981,0.981,0.196,1.0,1.0,0.462,0.584,0.57,24.267,0x00000101,192.168.0.40,8080,255.255.255.0,192.168.0.1,0xFFFFFFFF,0xFFFFFFFF,0xFFFFFFFF,0x00000000,
0.325684070587,0x00000000,0x00000000,0x00000000,0x00000000,0x00000000,0x00000000,0x00000000,0x00000000,21.85,3,0x00000000,97.266,98.431,0.003,0.013,-0.014,0.005,-0.031,0.84,-0.037,-0.165,-0.428,-0.058,0x00000003,0.0,0.0,0.005,-0.0,0.002,-0.0,0.001,0.0,0.0,0.013,0.026,0.0,0.0,0.019,0.776,0.648,0.0,0.0,0.776,34.991,34.991,0.0,0.0,0.0,97.266,97.266,0.0,0.0,26.25,26.125,0.0,0.0,0.0,0.0,90.0,76.789,0.109,27.125,0x00000000,0x00000000,0x00000000,0.0,1246,1279,7.687,4.685,0.0,0.0,0.025,0.015,0.0,0.0,1.0,0.981,0.981,0.981,0.196,1.0,1.0,0.462,0.584,0.57,24.267,0x00000101,192.168.0.40,8080,255.255.255.0,192.168.0.1,0xFFFFFFFF,0xFFFFFFFF,0xFFFFFFFF,0x00000000,
0.375714063644,0x00000000,0x00000000,0x00000000,0x00000000,0x00000000,0x00000000,0x00000000,0x00000000,21.9,3,0x00000000,97.266,98.431,0.005,0.012,-0.013,-0.021,-0.031,0.83,-0.419,-0.151,-0.386,-1.449,0x00000003,0.0,0.0,-0.001,0.0,0.001,-0.0,0.0,0.0,0.0,0.013,0.026,0.0,0.0,0.019,0.852,0.648,0.0,0.0,0.852,34.991,34.991,0.0,0.0,0.0,97.266,97.266,0.0,0.0,26.25,26.125,0.0,0.0,0.0,0.0,90.0,76.789,0.109,27.125,0x00000000,0x00000000,0x00000000,0.0,1246,1279,7.772,4.777,0.0,0.0,0.025,0.015,0.0,0.0,1.0,0.981,0.981,0.981,0.196,1.0,1.0,0.462,0.584,0.57,24.267,0x00000101,192.168.0.40,8080,255.255.255.0,192.168.0.1,0xFFFFFFFF,0xFFFFFFFF,0xFFFFFFFF,0x00000000,
0.425858020782,0x00000000,0x00000000,0x00000000,0x00000000,0x00000000,0x00000000,0x00000000,0x00000000,21.95,3,0x00000000,97.266,98.431,0.005,0.012,-0.022,-0.025,-0.031,0.829,-0.725,-0.157,-0.643,-0.757,0x00000003,0.0,0.0,-0.003,-0.0,0.001,-0.0,0.0,0.0,0.0,0.013,0.026,0.0,0.0,0.019,0.648,0.623,0.0,0.0,0.648,34.991,34.991,0.0,0.0,0.0,97.266,97.266,0.0,0.0,26.25,26.125,0.0,0.0,0.0,0.0,90.0,76.781,0.109,27.125,0x00000000,0x00000000,0x00000000,0.0,1246,1279,8.966,4.587,0.0,0.0,0.025,0.015,0.0,0.0,1.0,0.981,0.981,0.981,0.196,1.0,1.0,0.462,0.584,0.57,24.267,0x00000101,192.168.0.40,8080,255.255.255.0,192.168.0.1,0xFFFFFFFF,0xFFFFFFFF,0xFFFFFFFF,0x00000000,
0.475891113281,0x00000000,0x00000000,0x00000000,0x00000000,0x00000000,0x00000000,0x00000000,0x00000000,22.0,3,0x00000000,97.266,98.431,0.003,0.013,-0.005,-0.017,-0.037,0.835,-0.004,-0.172,-0.631,-1.785,0x00000003,0.0,0.0,0.001,0.0,0.001,-0.0,0.0,0.0,0.0,0.013,0.026,0.0,0.0,0.019,0.75,0.648,0.0,0.0,0.75,34.991,34.991,0.0,0.0,0.0,97.266,97.266,0.0,0.0,26.25,26.063,0.0,0.0,0.0,0.0,90.0,76.781,0.109,27.125,0x00000000,0x00000000,0x00000000,0.0,1246,1279,8.383,4.758,0.0,0.0,0.025,0.015,0.0,0.0,1.0,0.981,0.981,0.981,0.196,1.0,1.0,0.462,0.584,0.57,24.267,0x00000101,192.168.0.40,8080,255.255.255.0,192.168.0.1,0xFFFFFFFF,0xFFFFFFFF,0xFFFFFFFF,0x00000000,
0.526004076004,0x00000000,0x00000000,0x00000000,0x00000000,0x00000000,0x00000000,0x00000000,0x00000000,22.05,3,0x00000000,97.266,98.431,0.003,0.013,-0.005,0.009,-0.0,0.833,-0.023,-0.166,0.105,-1.433,0x00000003,0.0,0.0,-0.006,-0.0,0.001,-0.001,0.0,0.0,0.0,0.013,0.026,0.0,0.0,0.019,0.75,0.623,0.0,0.0,0.75,34.991,34.991,0.0,0.0,0.0,97.266,97.266,0.0,0.0,26.25,26.125,0.0,0.0,0.0,0.0,90.0,76.781,0.109,27.125,0x00000000,0x00000000,0x00000000,0.0,1246,1279,7.348,3.952,0.0,0.0,0.025,0.015,0.0,0.0,1.0,0.981,0.981,0.981,0.196,1.0,1.0,0.462,0.584,0.57,24.267,0x00000101,192.168.0.40,8080,255.255.255.0,192.168.0.1,0xFFFFFFFF,0xFFFFFFFF,0xFFFFFFFF,0x00000000,
0.576043128967,0x00000000,0x00000000,0x00000000,0x00000000,0x00000000,0x00000000,0x00000000,0x00000000,22.1,3,0x00000000,97.266,98.431,0.005,0.013,-0.021,-0.008,-0.012,0.832,-0.337,-0.159,1.093,-1.089,0x00000003,0.0,0.0,0.0,-0.0,0.0,0.0,0.0,0.0,0.0,0.013,0.026,0.0,0.0,0.019,0.75,0.648,0.0,0.0,0.75,34.991,34.991,0.0,0.0,0.0,97.266,97.266,0.0,0.0,26.25,26.125,0.0,0.0,0.0,0.0,90.0,76.781,0.109,27.125,0x00000000,0x00000000,0x00000000,0.0,1246,1279,7.461,4.73,0.0,0.0,0.026,0.015,0.0,0.0,1.0,0.981,0.981,0.981,0.196,1.0,1.0,0.462,0.584,0.57,24.267,0x00000101,192.168.0.40,8080,255.255.255.0,192.168.0.1,0xFFFFFFFF,0xFFFFFFFF,0xFFFFFFFF,0x00000000,
0.626167058945,0x00000000,0x00000000,0x00000000,0x00000000,0x00000000,0x00000000,0x00000000,0x00000000,22.15,3,0x00000000,97.266,98.431,0.004,0.013,-0.015,-0.012,-0.025,0.828,0.059,-0.138,0.608,-1.772,0x00000003,0.0,0.0,-0.003,-0.0,0.001,-0.0,0.0,0.0,0.0,0.013,0.026,0.0,0.0,0.019,0.776,0.623,0.0,0.0,0.776,34.991,34.991,0.0,0.0,0.0,97.266,97.266,0.0,0.0,26.25,26.063,0.0,0.0,0.0,0.0,90.0,76.781,0.109,27.125,0x00000000,0x00000000,0x00000000,0.0,1246,1279,6.051,4.764,0.0,0.0,0.026,0.015,0.0,0.0,1.0,0.981,0.981,0.981,0.196,1.0,1.0,0.462,0.584,0.57,24.267,0x00000101,192.168.0.40,8080,255.255.255.0,192.168.0.1,0xFFFFFFFF,0xFFFFFFFF,0xFFFFFFFF,0x00000000,
0.676201105118,0x00000000,0x00000000,0x00000000,0x00000000,0x00000000,0x00000000,0x00000000,0x00000000,22.2,3,0x00000000,97.266,98.431,0.004,0.012,-0.017,-0.012,-0.019,0.811,-0.306,-0.129,-1.157,-0.05,0x00000003,0.0,0.0,-0.002,-0.0,0.001,-0.0,0.0,0.0,0.0,0.013,0.026,0.0,0.0,0.019,0.763,0.839,0.0,0.0,0.839,34.991,34.991,0.0,0.0,0.0,97.266,97.266,0.0,0.0,26.25,26.125,0.0,0.0,0.0,0.0,90.0,76.781,0.109,27.125,0x00000000,0x00000000,0x00000000,0.0,1246,1279,5.652,4.138,0.0,0.0,0.026,0.015,0.0,0.0,1.0,0.981,0.981,0.981,0.196,1.0,1.0,0.462,0.584,0.57,24.267,0x00000101,192.168.0.40,8080,255.255.255.0,192.168.0.1,0xFFFFFFFF,0xFFFFFFFF,0xFFFFFFFF,0x00000000,
0.726320981979,0x00000000,0x00000000,0x00000000,0x00000000,0x00000000,0x00000000,0x00000000,0x00000000,22.25,3,0x00000000,97.266,98.431,0.004,0.012,-0.002,-0.017,-0.024,0.822,0.013,-0.124,0.111,-1.432,0x00000003,0.0,0.0,0.0,-0.0,0.001,-0.001,0.001,0.0,0.0,0.013,0.026,0.0,0.0,0.019,0.674,0.648,0.0,0.0,0.674,34.991,34.991,0.0,0.0,0.0,97.266,97.266,0.0,0.0,26.25,26.063,0.0,0.0,0.0,0.0,90.0,76.781,0.109,27.125,0x00000000,0x00000000,0x00000000,0.0,1246,1279,9.212,2.521,0.0,0.0,0.026,0.015,0.0,0.0,1.0,0.981,0.981,0.981,0.196,1.0,1.0,0.462,0.584,0.57,24.267,0x00000101,192.168.0.40,8080,255.255.255.0,192.168.0.1,0xFFFFFFFF,0xFFFFFFFF,0xFFFFFFFF,0x00000000,
0.776359081268,0x00000000,0x00000000,0x00000000,0x00000000,0x00000000,0x00000000,0x00000000,0x00000000,22.3,3,0x00000000,97.266,98.431,0.004,0.013,-0.024,-0.017,-0.0,0.829,0.44,-0.118,-0.695,0.996,0x00000003,0.0,0.0,0.003,0.0,0.003,-0.001,0.001,0.0,0.0,0.013,0.026,0.0,0.0,0.019,0.737,0.648,0.0,0.0,0.737,34.991,34.991,0.0,0.0,0.0,97.266,97.266,0.0,0.0,26.25,26.063,0.0,0.0,0.0,0.0,90.0,76.781,0.109,27.125,0x00000000,0x00000000,0x00000000,0.0,1246,1279,9.367,4.669,0.0,0.0,0.026,0.015,0.0,0.0,1.0,0.981,0.981,0.981,0.196,1.0,1.0,0.462,0.584,0.57,24.267,0x00000101,192.168.0.40,8080,255.255.255.0,192.168.0.1,0xFFFFFFFF,0xFFFFFFFF,0xFFFFFFFF,0x00000000,
0.826469182968,0x00000000,0x00000000,0x00000000,0x00000000,0x00000000,0x00000000,0x00000000,0x00000000,22.35,3,0x00000000,97.266,98.431,0.004,0.013,-0.013,-0.017,-0.025,0.82,-0.24,-0.122,-0.397,-0.736,0x00000003,0.0,0.0,0.004,0.0,0.002,-0.0,0.001,0.0,0.0,0.013,0.026,0.0,0.0,0.019,0.852,0.737,0.0,0.0,0.852,34.991,34.991,0.0,0.0,0.0,97.266,97.266,0.0,0.0,26.25,26.063,0.0,0.0,0.0,0.0,90.0,76.781,0.109,27.125,0x00000000,0x00000000,0x00000000,0.0,1246,1279,8.4,4.775,0.0,0.0,0.026,0.015,0.0,0.0,1.0,0.981,0.981,0.981,0.196,1.0,1.0,0.462,0.584,0.57,24.267,0x00000101,192.168.0.40,8080,255.255.255.0,192.168.0.1,0xFFFFFFFF,0xFFFFFFFF,0xFFFFFFFF,0x00000000,
0.876512050629,0x00000000,0x00000000,0x00000000,0x00000000,0x00000000,0x00000000,0x00000000,0x00000000,22.4,3,0x00000000,97.266,98.431,0.004,0.012,-0.009,-0.004,-0.006,0.816,-0.463,-0.108,0.326,0.303,0x00000003,0.0,0.0,-0.003,0.0,0.001,-0.0,0.0,0.0,0.0,0.013,0.026,0.0,0.0,0.019,0.776,0.623,0.0,0.0,0.776,34.991,34.991,0.0,0.0,0.0,97.266,97.266,0.0,0.0,26.25,26.125,0.0,0.0,0.0,0.0,90.0,76.781,0.109,27.125,0x00000000,0x00000000,0x00000000,0.0,1246,1279,9.332,0.725,0.0,0.0,0.026,0.016,0.0,0.0,1.0,0.981,0.981,0.981,0.196,1.0,1.0,0.462,0.584,0.57,24.267,0x00000101,192.168.0.40,8080,255.255.255.0,192.168.0.1,0xFFFFFFFF,0xFFFFFFFF,0xFFFFFFFF,0x00000000,
0.926642179489,0x00000000,0x00000000,0x00000000,0x00000000,0x00000000,0x00000000,0x00000000,0x00000000,22.45,3,0x00000000,97.266,98.431,0.004,0.012,-0.024,-0.008,-0.025,0.819,0.053,-0.089,0.326,-0.038,0x00000003,0.0,0.0,-0.005,0.0,0.001,-0.0,0.0,0.0,0.0,0.013,0.026,0.0,0.0,0.019,0.852,0.623,0.0,0.0,0.852,34.991,34.991,0.0,0.0,0.0,97.266,97.266,0.0,0.0,26.25,26.125,0.0,0.0,0.0,0.0,90.0,76.789,0.109,27.125,0x00000000,0x00000000,0x00000000,0.0,1246,1279,7.208,4.601,0.0,0.0,0.026,0.016,0.0,0.0,1.0,0.981,0.981,0.981,0.196,1.0,1.0,0.462,0.584,0.57,24.267,0x00000101,192.168.0.40,8080,255.255.255.0,192.168.0.1,0xFFFFFFFF,0xFFFFFFFF,0xFFFFFFFF,0x00000000,
0.976675033569,0x00000000,0x00000000,0x00000000,0x00000000,0x00000000,0x00000000,0x00000000,0x00000000,22.5,3,0x00000000,97.266,98.431,0.004,0.012,-0.011,-0.021,-0.03,0.817,0.421,-0.071,0.348,-1.077,0x00000003,0.0,0.0,-0.004,0.0,0.001,-0.0,0.0,0.0,0.0,0.013,0.026,0.0,0.0,0.019,0.852,0.623,0.0,0.0,0.852,34.991,34.991,0.0,0.0,0.0,97.266,97.266,0.0,0.0,26.25,26.125,0.0,0.0,0.0,0.0,90.0,76.789,0.109,27.125,0x00000000,0x00000000,0x00000000,0.0,1246,1279,7.751,4.139,0.0,0.0,0.026,0.016,0.0,0.0,1.0,0.981,0.981,0.981,0.196,1.0,1.0,0.462,0.584,0.57,24.267,0x00000101,192.168.0.40,8080,255.255.255.0,192.168.0.1,0xFFFFFFFF,0xFFFFFFFF,0xFFFFFFFF,0x00000000,
1.02678918839,0x00000000,0x00000000,0x00000000,0x00000000,0x00000000,0x00000000,0x00000000,0x00000000,22.55,3,0x00000000,97.266,98.431,0.004,0.012,-0.011,-0.025,-0.043,0.808,-0.054,-0.086,-0.892,-0.727,0x00000003,0.0,0.0,-0.0,0.0,0.001,-0.0,0.0,0.0,0.0,0.013,0.026,0.0,0.0,0.019,0.674,0.674,0.0,0.0,0.674,34.991,34.991,0.0,0.0,0.0,97.266,97.266,0.0,0.0,26.25,26.063,0.0,0.0,0.0,0.0,90.0,76.789,0.109,27.125,0x00000000,0x00000000,0x00000000,0.0,1246,1279,5.429,3.564,0.0,0.0,0.026,0.016,0.0,0.0,1.0,0.981,0.981,0.981,0.196,1.0,1.0,0.462,0.584,0.57,24.267,0x00000101,192.168.0.40,8080,255.255.255.0,192.168.0.1,0xFFFFFFFF,0xFFFFFFFF,0xFFFFFFFF,0x00000000,
1.07683110237,0x00000000,0x00000000,0x00000000,0x00000000,0x00000000,0x00000000,0x00000000,0x00000000,22.6,3,0x00000000,97.266,98.431,0.004,0.013,-0.005,-0.017,-0.012,0.805,-0.714,-0.095,-0.163,0.311,0x00000003,0.0,0.0,0.005,0.0,0.001,-0.0,0.001,0.0,0.0,0.013,0.026,0.0,0.0,0.019,0.75,0.737,0.0,0.0,0.75,34.991,34.991,0.0,0.0,0.0,97.266,97.266,0.0,0.0,26.25,26.063,0.0,0.0,0.0,0.0,90.0,76.789,0.109,27.125,0x00000000,0x00000000,0x00000000,0.0,1246,1279,5.625,2.159,0.0,0.0,0.027,0.016,0.0,0.0,1.0,0.981,0.981,0.981,0.196,1.0,1.0,0.462,0.584,0.57,24.267,0x00000101,192.168.0.40,8080,255.255.255.0,192.168.0.1,0xFFFFFFFF,0xFFFFFFFF,0xFFFFFFFF,0x00000000,
1.12695407867,0x00000000,0x00000000,0x00000000,0x00000000,0x00000000,0x00000000,0x00000000,0x00000000,22.65,3,0x00000000,97.266,98.431,0.004,0.013,-0.011,-0.012,-0.025,0.8,0.039,-0.078,0.601,-1.068,0x00000003,0.0,0.0,-0.007,0.0,0.001,-0.001,0.0,0.0,0.0,0.013,0.026,0.0,0.0,0.019,0.776,0.737,0.0,0.0,0.776,34.991,34.991,0.0,0.0,0.0,97.266,97.266,0.0,0.0,26.25,26.125,0.0,0.0,0.0,0.0,90.0,76.789,0.109,27.125,0x00000000,0x00000000,0x00000000,0.0,1246,1279,5.156,1.464,0.0,0.0,0.027,0.016,0.0,0.0,1.0,0.981,0.981,0.981,0.196,1.0,1.0,0.462,0.584,0.57,24.267,0x00000101,192.168.0.40,8080,255.255.255.0,192.168.0.1,0xFFFFFFFF,0xFFFFFFFF,0xFFFFFFFF,0x00000000,
1.17699098587,0x00000000,0x00000000,0x00000000,0x00000000,0x00000000,0x00000000,0x00000000,0x00000000,22.7,3,0x00000000,97.266,98.431,0.004,0.013,-0.017,-0.004,-0.006,0.791,-0.039,-0.056,-0.17,0.314,0x00000003,0.0,0.0,-0.018,-0.001,0.003,-0.003,0.0,0.0,0.0,0.013,0.026,0.0,0.0,0.019,0.661,1.246,0.0,0.0,1.246,34.991,34.991,0.0,0.0,0.0,97.266,97.266,0.0,0.0,26.25,26.125,0.0,0.0,0.0,0.0,90.0,76.789,0.109,27.125,0x00000000,0x00000000,0x00000000,0.0,1246,1279,6.612,5.95,0.0,0.0,0.027,0.016,0.0,0.0,1.0,0.981,0.981,0.981,0.196,1.0,1.0,0.462,0.584,0.57,24.267,0x00000101,192.168.0.40,8080,255.255.255.0,192.168.0.1,0xFFFFFFFF,0xFFFFFFFF,0xFFFFFFFF,0x00000000,
1.22711801529,0x00000000,0x00000000,0x00000000,0x00000000,0x00000000,0x00000000,0x00000000,0x00000000,22.75,3,0x00000000,97.266,98.431,0.005,0.013,-0.017,0.005,-0.006,0.795,-0.067,-0.041,0.836,-0.373,0x00000003,0.0,0.0,0.007,-0.0,0.003,-0.0,0.001,0.0,0.0,0.013,0.026,0.0,0.0,0.019,1.577,-0.203,0.0,0.0,1.577,34.991,34.991,0.0,0.0,0.0,97.266,97.266,0.0,0.0,26.25,26.125,0.0,0.0,0.0,0.0,90.0,76.789,0.109,27.125,0x00000000,0x00000000,0x00000000,0.0,1246,1279,7.894,4.651,0.0,0.0,0.027,0.016,0.0,0.0,1.0,0.981,0.981,0.981,0.196,1.0,1.0,0.462,0.584,0.57,24.267,0x00000101,192.168.0.40,8080,255.255.255.0,192.168.0.1,0xFFFFFFFF,0xFFFFFFFF,0xFFFFFFFF,0x00000000,
1.27715110779,0x00000000,0x00000000,0x00000000,0x00000000,0x00000000,0x00000000,0x00000000,0x00000000,22.8,3,0x00000000,97.266,98.431,0.005,0.012,-0.014,-0.017,-0.043,0.791,-0.112,-0.041,-0.637,-0.726,0x00000003,0.0,0.0,-0.005,-0.0,0.002,-0.001,0.0,0.0,0.0,0.013,0.026,0.0,0.0,0.019,0.75,0.648,0.0,0.0,0.75,34.991,34.991,0.0,0.0,0.0,97.266,97.266,0.0,0.0,26.25,26.125,0.0,0.0,0.0,0.0,90.0,76.789,0.109,27.125,0x00000000,0x00000000,0x00000000,0.0,1246,1279,7.322,2.545,0.0,0.0,0.027,0.016,0.0,0.0,1.0,0.981,0.981,0.981,0.196,1.0,1.0,0.462,0.584,0.57,24.267,0x00000101,192.168.0.40,8080,255.255.255.0,192.168.0.1,0xFFFFFFFF,0xFFFFFFFF,0xFFFFFFFF,0x00000000,
1.32726812363,0x00000000,0x00000000,0x00000000,0x00000000,0x00000000,0x00000000,0x00000000,0x00000000,22.85,3,0x00000000,97.266,98.431,0.004,0.013,-0.016,-0.008,-0.013,0.793,0.243,-0.041,0.33,-0.016,0x00000003,0.0,0.0,0.005,0.0,0.002,-0.0,0.001,0.0,0.0,0.013,0.026,0.0,0.0,0.019,0.941,0.623,0.0,0.0,0.941,34.991,34.991,0.0,0.0,0.0,97.266,97.266,0.0,0.0,26.25,26.125,0.0,0.0,0.0,0.0,90.0,76.789,0.109,27.125,0x00000000,0x00000000,0x00000000,0.0,1246,1279,7.122,2.454,0.0,0.0,0.027,0.016,0.0,0.0,1.0,0.981,0.981,0.981,0.196,1.0,1.0,0.462,0.584,0.57,24.267,0x00000101,192.168.0.40,8080,255.255.255.0,192.168.0.1,0xFFFFFFFF,0xFFFFFFFF,0xFFFFFFFF,0x00000000,
1.37731003761,0x00000000,0x00000000,0x00000000,0x00000000,0x00000000,0x00000000,0x00000000,0x00000000,22.9,3,0x00000000,97.266,98.431,0.003,0.012,-0.014,-0.021,-0.025,0.784,-0.13,-0.04,0.099,-0.373,0x00000003,0.0,0.0,-0.002,0.0,0.002,-0.0,0.0,0.0,0.0,0.013,0.026,0.0,0.0,0.019,0.75,0.776,0.0,0.0,0.776,34.991,34.991,0.0,0.0,0.0,97.266,97.266,0.0,0.0,26.25,26.125,0.0,0.0,0.0,0.0,90.0,76.789,0.109,27.125,0x00000000,0x00000000,0x00000000,0.0,1246,1279,6.037,3.707,0.0,0.0,0.027,0.016,0.0,0.0,1.0,0.981,0.981,0.981,0.196,1.0,1.0,0.462,0.584,0.57,24.267,0x00000101,192.168.0.40,8080,255.255.255.0,192.168.0.1,0xFFFFFFFF,0xFFFFFFFF,0xFFFFFFFF,0x00000000,
1.42743396759,0x00000000,0x00000000,0x00000000,0x00000000,0x00000000,0x00000000,0x00000000,0x00000000,22.95,3,0x00000000,97.266,98.431,0.004,0.012,-0.021,-0.004,-0.019,0.766,-0.362,-0.026,1.093,-0.372,0x00000003,0.0,0.0,-0.008,0.0,0.001,-0.001,0.0,0.0,0.0,0.013,0.026,0.0,0.0,0.019,0.852,0.648,0.0,0.0,0.852,34.991,34.991,0.0,0.0,0.0,97.266,97.266,0.0,0.0,26.25,26.125,0.0,0.0,0.0,0.0,90.0,76.789,0.109,27.125,0x00000000,0x00000000,0x00000000,0.0,1246,1279,5.651,4.735,0.0,0.0,0.027,0.016,0.0,0.0,1.0,0.981,0.981,0.981,0.196,1.0,1.0,0.462,0.584,0.57,24.267,0x00000101,192.168.0.40,8080,255.255.255.0,192.168.0.1,0xFFFFFFFF,0xFFFFFFFF,0xFFFFFFFF,0x00000000,
1.47746706009,0x00000000,0x00000000,0x00000000,0x00000000,0x00000000,0x00000000,0x00000000,0x00000000,23.0,3,0x00000000,97.266,98.431,0.004,0.012,-0.006,-0.021,-0.03,0.761,-0.117,-0.017,-0.154,-0.026,0x00000003,0.0,0.0,-0.012,-0.0,0.002,-0.001,-0.001,0.0,0.0,0.013,0.026,0.0,0.0,0.019,0.839,0.648,0.0,0.0,0.839,34.991,34.991,0.0,0.0,0.0,97.266,97.266,0.0,0.0,26.25,26.125,0.0,0.0,0.0,0.0,90.0,76.789,0.109,27.125,0x00000000,0x00000000,0x00000000,0.0,1246,1279,4.819,2.774,0.0,0.0,0.027,0.016,0.0,0.0,1.0,0.981,0.981,0.981,0.196,1.0,1.0,0.462,0.584,0.57,24.267,0x00000101,192.168.0.40,8080,255.255.255.0,192.168.0.1,0xFFFFFFFF,0xFFFFFFFF,0xFFFFFFFF,0x00000000,
1.52759408951,0x00000000,0x00000000,0x00000000,0x00000000,0x00000000,0x00000000,0x00000000,0x00000000,23.05,3,0x00000000,97.266,98.431,0.004,0.013,-0.018,-0.004,-0.0,0.767,-0.268,0.002,0.366,-1.061,0x00000003,0.0,0.0,-0.0,-0.0,0.0,-0.0,-0.001,0.0,0.0,0.013,0.026,0.0,0.0,0.019,0.865,0.75,0.0,0.0,0.865,34.991,34.991,0.0,0.0,0.0,97.266,97.266,0.0,0.0,26.25,26.125,0.0,0.0,0.0,0.0,90.0,76.789,0.109,27.125,0x00000000,0x00000000,0x00000000,0.0,1246,1279,5.964,4.694,0.0,0.0,0.027,0.016,0.0,0.0,1.0,0.981,0.981,0.981,0.196,1.0,1.0,0.462,0.584,0.57,24.267,0x00000101,192.168.0.40,8080,255.255.255.0,192.168.0.1,0xFFFFFFFF,0xFFFFFFFF,0xFFFFFFFF,0x00000000,
1.5776309967,0x00000000,0x00000000,0x00000000,0x00000000,0x00000000,0x00000000,0x00000000,0x00000000,23.1,3,0x00000000,97.266,98.431,0.004,0.014,-0.015,-0.015,-0.009,0.773,-0.062,0.018,-0.156,-0.016,0x00000003,0.0,0.0,0.016,-0.0,0.0,-0.0,0.001,0.0,0.0,0.013,0.026,0.0,0.0,0.019,0.954,0.737,0.0,0.0,0.954,34.991,34.991,0.0,0.0,0.0,97.266,97.266,0.0,0.0,26.25,26.063,0.0,0.0,0.0,0.0,90.0,76.789,0.109,27.125,0x00000000,0x00000000,0x00000000,0.0,1246,1279,9.226,4.439,0.0,0.0,0.027,0.016,0.0,0.0,1.0,0.981,0.981,0.981,0.196,1.0,1.0,0.462,0.584,0.57,24.267,0x00000101,192.168.0.40,8080,255.255.255.0,192.168.0.1,0xFFFFFFFF,0xFFFFFFFF,0xFFFFFFFF,0x00000000,
1.62774801254,0x00000000,0x00000000,0x00000000,0x00000000,0x00000000,0x00000000,0x00000000,0x00000000,23.15,3,0x00000000,97.266,98.431,0.004,0.013,-0.024,-0.012,-0.013,0.769,0.077,0.018,-0.012,-0.884,0x00000003,0.0,0.0,0.0,0.0,0.001,-0.0,0.0,0.0,0.0,0.013,0.026,0.0,0.0,0.019,-0.381,1.806,0.0,0.0,1.806,34.991,34.991,0.0,0.0,0.0,97.266,97.266,0.0,0.0,26.25,26.125,0.0,0.0,0.0,0.0,90.0,76.789,0.109,27.125,0x00000000,0x00000000,0x00000000,0.0,1246,1279,5.146,2.536,0.0,0.0,0.028,0.016,0.0,0.0,1.0,0.981,0.981,0.981,0.196,1.0,1.0,0.462,0.584,0.57,24.267,0x00000101,192.168.0.40,8080,255.255.255.0,192.168.0.1,0xFFFFFFFF,0xFFFFFFFF,0xFFFFFFFF,0x00000000,
1.67778897285,0x00000000,0x00000000,0x00000000,0x00000000,0x00000000,0x00000000,0x00000000,0x00000000,23.2,3,0x00000000,97.266,98.431,0.003,0.012,-0.017,-0.012,-0.034,0.754,-0.357,0.009,-0.869,-1.061,0x00000003,0.0,0.0,0.002,0.0,0.001,-0.0,0.001,0.0,0.0,0.013,0.026,0.0,0.0,0.019,1.271,-0.076,0.0,0.0,1.271,34.991,34.991,0.0,0.0,0.0,97.266,97.266,0.0,0.0,26.25,26.125,0.0,0.0,0.0,0.0,90.0,76.789,0.109,27.125,0x00000000,0x00000000,0x00000000,0.0,1246,1279,6.802,4.049,0.0,0.0,0.028,0.016,0.0,0.0,1.0,0.981,0.981,0.981,0.196,1.0,1.0,0.462,0.584,0.57,24.267,0x00000101,192.168.0.40,8080,255.255.255.0,192.168.0.1,0xFFFFFFFF,0xFFFFFFFF,0xFFFFFFFF,0x00000000,
1.72790598869,0x00000000,0x00000000,0x00000000,0x00000000,0x00000000,0x00000000,0x00000000,0x00000000,23.25,3,0x00000000,97.266,98.431,0.004,0.012,-0.015,-0.006,-0.037,0.764,-0.027,0.013,-0.114,-1.747,0x00000003,0.0,0.0,-0.003,0.0,0.002,-0.0,0.0,0.0,0.0,0.013,0.026,0.0,0.0,0.019,0.648,0.343,0.0,0.0,0.648,34.991,34.991,0.0,0.0,0.0,97.266,97.266,0.0,0.0,26.25,26.125,0.0,0.0,0.0,0.0,90.0,76.789,0.109,27.125,0x00000000,0x00000000,0x00000000,0.0,1246,1279,5.502,2.338,0.0,0.0,0.028,0.016,0.0,0.0,1.0,0.981,0.981,0.981,0.196,1.0,1.0,0.462,0.584,0.57,24.267,0x00000101,192.168.0.40,8080,255.255.255.0,192.168.0.1,0xFFFFFFFF,0xFFFFFFFF,0xFFFFFFFF,0x00000000,
1.77794504166,0x00000000,0x00000000,0x00000000,0x00000000,0x00000000,0x00000000,0x00000000,0x00000000,23.3,3,0x00000000,97.266,98.431,0.004,0.012,-0.016,-0.019,-0.019,0.769,-0.159,0.025,-0.144,-0.357,0x00000003,0.0,0.0,0.001,-0.0,0.002,-0.0,0.0,0.0,0.0,0.013,0.026,0.0,0.0,0.019,0.127,0.852,0.0,0.0,0.852,34.991,34.991,0.0,0.0,0.0,97.266,97.266,0.0,0.0,26.25,26.125,0.0,0.0,0.0,0.0,90.0,76.789,0.109,27.125,0x00000000,0x00000000,0x00000000,0.0,1246,1279,7.562,4.676,0.0,0.0,0.028,0.016,0.0,0.0,1.0,0.981,0.981,0.981,0.196,1.0,1.0,0.462,0.584,0.57,24.267,0x00000101,192.168.0.40,8080,255.255.255.0,192.168.0.1,0xFFFFFFFF,0xFFFFFFFF,0xFFFFFFFF,0x00000000,
1.82806801796,0x00000000,0x00000000,0x00000000,0x00000000,0x00000000,0x00000000,0x00000000,0x00000000,23.35,3,0x00000000,97.266,98.431,0.004,0.013,-0.013,-0.01,-0.037,0.767,0.222,0.034,-0.137,-0.872,0x00000003,0.0,0.0,0.005,-0.0,0.002,-0.001,0.001,0.0,0.0,0.013,0.026,0.0,0.0,0.019,0.343,0.75,0.0,0.0,0.75,34.991,34.991,0.0,0.0,0.0,97.266,97.266,0.0,0.0,26.25,26.125,0.0,0.0,0.0,0.0,90.0,76.789,0.109,27.125,0x00000000,0x00000000,0x00000000,0.0,1246,1279,5.874,4.438,0.0,0.0,0.028,0.017,0.0,0.0,1.0,0.981,0.981,0.981,0.196,1.0,1.0,0.462,0.584,0.57,24.267,0x00000101,192.168.0.40,8080,255.255.255.0,192.168.0.1,0xFFFFFFFF,0xFFFFFFFF,0xFFFFFFFF,0x00000000,
1.87810301781,0x00000000,0x00000000,0x00000000,0x00000000,0x00000000,0x00000000,0x00000000,0x00000000,23.4,3,0x00000000,97.266,98.431,0.005,0.013,-0.016,-0.013,-0.015,0.753,-0.375,0.031,-0.522,0.164,0x00000003,0.0,0.0,-0.001,-0.0,0.002,-0.0,0.0,0.0,0.0,0.013,0.026,0.0,0.0,0.019,-0.28,1.907,0.0,0.0,1.907,34.991,34.991,0.0,0.0,0.0,97.266,97.266,0.0,0.0,26.25,26.063,0.0,0.0,0.0,0.0,90.0,76.789,0.109,27.125,0x00000000,0x00000000,0x00000000,0.0,1246,1279,5.463,4.763,0.0,0.0,0.028,0.017,0.0,0.0,1.0,0.981,0.981,0.981,0.196,1.0,1.0,0.462,0.584,0.57,24.267,0x00000101,192.168.0.40,8080,255.255.255.0,192.168.0.1,0xFFFFFFFF,0xFFFFFFFF,0xFFFFFFFF,0x00000000,
1.92822599411,0x00000000,0x00000000,0x00000000,0x00000000,0x00000000,0x00000000,0x00000000,0x00000000,23.45,3,0x00000000,97.266,98.431,0.005,0.013,-0.016,-0.019,-0.025,0.759,0.072,0.046,0.223,-0.179,0x00000003,0.0,0.0,-0.002,-0.0,0.003,-0.001,0.001,0.0,0.0,0.013,0.026,0.0,0.0,0.019,1.577,-0.305,0.0,0.0,1.577,34.991,34.991,0.0,0.0,0.0,97.266,97.266,0.0,0.0,26.25,26.063,0.0,0.0,0.0,0.0,90.0,76.789,0.109,27.125,0x00000000,0x00000000,0x00000000,0.0,1246,1279,6.0,4.146,0.0,0.0,0.028,0.017,0.0,0.0,1.0,0.981,0.981,0.981,0.196,1.0,1.0,0.462,0.584,0.57,24.267,0x00000101,192.168.0.40,8080,255.255.255.0,192.168.0.1,0xFFFFFFFF,0xFFFFFFFF,0xFFFFFFFF,0x00000000,
1.97826600075,0x00000000,0x00000000,0x00000000,0x00000000,0x00000000,0x00000000,0x00000000,0x00000000,23.5,3,0x00000000,97.266,98.431,0.004,0.013,-0.008,-0.021,-0.046,0.746,0.188,0.043,-0.115,-1.735,0x00000003,0.0,0.0,-0.001,0.0,0.002,-0.0,0.0,0.0,0.0,0.013,0.026,0.0,0.0,0.019,-0.356,1.5,0.0,0.0,1.5,34.991,34.991,0.0,0.0,0.0,97.266,97.266,0.0,0.0,26.25,26.125,0.0,0.0,0.0,0.0,90.0,76.789,0.109,27.125,0x00000000,0x00000000,0x00000000,0.0,1246,1279,8.246,4.415,0.0,0.0,0.028,0.017,0.0,0.0,1.0,0.981,0.981,0.981,0.196,1.0,1.0,0.462,0.584,0.57,24.267,0x00000101,192.168.0.40,8080,255.255.255.0,192.168.0.1,0xFFFFFFFF,0xFFFFFFFF,0xFFFFFFFF,0x00000000,
2.02838397026,0x00000000,0x00000000,0x00000000,0x00000000,0x00000000,0x00000000,0x00000000,0x00000000,23.55,3,0x00000000,97.266,98.431,0.004,0.012,-0.015,-0.006,-0.009,0.756,0.175,0.062,1.099,-0.523,0x00000003,0.0,0.0,-0.002,0.0,0.002,-0.001,0.0,0.0,0.0,0.013,0.026,0.0,0.0,0.019,1.984,-0.496,0.0,0.0,1.984,34.991,34.991,0.0,0.0,0.0,97.266,97.266,0.0,0.0,26.25,26.125,0.0,0.0,0.0,0.0,90.0,76.789,0.109,27.125,0x00000000,0x00000000,0x00000000,0.0,1246,1279,6.292,4.765,0.0,0.0,0.028,0.017,0.0,0.0,1.0,0.981,0.981,0.981,0.196,1.0,1.0,0.462,0.584,0.57,24.267,0x00000101,192.168.0.40,8080,255.255.255.0,192.168.0.1,0xFFFFFFFF,0xFFFFFFFF,0xFFFFFFFF,0x00000000,
2.07842612267,0x00000000,0x00000000,0x00000000,0x00000000,0x00000000,0x00000000,0x00000000,0x00000000,23.6,3,0x00000000,97.266,98.431,0.004,0.013,-0.004,-0.008,-0.018,0.752,0.252,0.062,0.369,-1.044,0x00000003,0.0,0.0,0.002,0.0,0.003,-0.001,0.001,0.0,0.0,0.013,0.026,0.0,0.0,0.019,0.75,0.674,0.0,0.0,0.75,34.991,34.991,0.0,0.0,0.0,97.266,97.266,0.0,0.0,26.25,26.063,0.0,0.0,0.0,0.0,90.0,76.789,0.109,27.125,0x00000000,0x00000000,0x00000000,0.0,1246,1279,4.847,4.146,0.0,0.0,0.028,0.017,0.0,0.0,1.0,0.981,0.981,0.981,0.196,1.0,1.0,0.462,0.584,0.57,24.267,0x00000101,192.168.0.40,8080,255.255.255.0,192.168.0.1,0xFFFFFFFF,0xFFFFFFFF,0xFFFFFFFF,0x00000000,
2.12854409218,0x00000000,0x00000000,0x00000000,0x00000000,0x00000000,0x00000000,0x00000000,0x00000000,23.65,3,0x00000000,97.266,98.431,0.004,0.013,-0.008,-0.017,-0.018,0.755,0.058,0.072,-0.888,-0.006,0x00000003,0.0,0.0,0.001,0.0,0.003,-0.0,0.001,0.0,0.0,0.013,0.026,0.0,0.0,0.019,0.648,0.229,0.0,0.0,0.648,34.991,34.991,0.0,0.0,0.0,97.266,97.266,0.0,0.0,26.25,26.125,0.0,0.0,0.0,0.0,90.0,76.789,0.109,27.125,0x00000000,0x00000000,0x00000000,0.0,1246,1279,4.778,4.754,0.0,0.0,0.028,0.017,0.0,0.0,1.0,0.981,0.981,0.981,0.196,1.0,1.0,0.462,0.584,0.57,24.267,0x00000101,192.168.0.40,8080,255.255.255.0,192.168.0.1,0xFFFFFFFF,0xFFFFFFFF,0xFFFFFFFF,0x00000000,
2.17858219147,0x00000000,0x00000000,0x00000000,0x00000000,0x00000000,0x00000000,0x00000000,0x00000000,23.7,3,0x00000000,97.266,98.431,0.004,0.014,-0.01,-0.017,-0.012,0.762,0.251,0.062,-0.394,-0.334,0x00000003,0.0,0.0,0.012,0.0,0.003,-0.0,0.002,0.0,0.0,0.013,0.026,0.0,0.0,0.019,1.462,-0.254,0.0,0.0,1.462,34.991,34.991,0.0,0.0,0.0,97.266,97.266,0.0,0.0,26.25,26.125,0.0,0.0,0.0,0.0,90.0,76.789,0.109,27.125,0x00000000,0x00000000,0x00000000,0.0,1246,1279,8.721,4.507,0.0,0.0,0.029,0.017,0.0,0.0,1.0,0.981,0.981,0.981,0.196,1.0,1.0,0.462,0.584,0.57,24.267,0x00000101,192.168.0.40,8080,255.255.255.0,192.168.0.1,0xFFFFFFFF,0xFFFFFFFF,0xFFFFFFFF,0x00000000,
2.22870612144,0x00000000,0x00000000,0x00000000,0x00000000,0x00000000,0x00000000,0x00000000,0x00000000,23.75,3,0x00000000,97.266,98.431,0.004,0.013,-0.011,-0.021,-0.025,0.767,0.343,0.043,-1.138,-0.328,0x00000003,0.0,0.0,-0.004,-0.0,0.003,-0.001,0.0,0.0,0.0,0.013,0.026,0.0,0.0,0.019,-0.483,1.882,0.0,0.0,1.882,34.991,34.991,0.0,0.0,0.0,97.266,97.266,0.0,0.0,26.25,26.125,0.0,0.0,0.0,0.0,90.0,76.789,0.109,27.125,0x00000000,0x00000000,0x00000000,0.0,1246,1279,9.345,4.769,0.0,0.0,0.029,0.017,0.0,0.0,1.0,0.981,0.981,0.981,0.196,1.0,1.0,0.462,0.584,0.57,24.267,0x00000101,192.168.0.40,8080,255.255.255.0,192.168.0.1,0xFFFFFFFF,0xFFFFFFFF,0xFFFFFFFF,0x00000000,
2.27874016762,0x00000000,0x00000000,0x00000000,0x00000000,0x00000000,0x00000000,0x00000000,0x00000000,23.8,3,0x00000000,97.266,98.431,0.004,0.012,-0.008,-0.021,-0.024,0.757,-0.011,0.039,-0.347,-2.072,0x00000003,0.0,0.0,0.0,-0.0,0.002,-0.001,0.001,0.0,0.0,0.013,0.026,0.0,0.0,0.019,0.534,0.89,0.0,0.0,0.89,34.991,34.991,0.0,0.0,0.0,97.266,97.266,0.0,0.0,26.25,26.125,0.0,0.0,0.0,0.0,90.0,76.789,0.109,27.125,0x00000000,0x00000000,0x00000000,0.0,1246,1279,7.14,4.781,0.0,0.0,0.029,0.017,0.0,0.0,1.0,0.981,0.981,0.981,0.196,1.0,1.0,0.462,0.584,0.57,24.267,0x00000101,192.168.0.40,8080,255.255.255.0,192.168.0.1,0xFFFFFFFF,0xFFFFFFFF,0xFFFFFFFF,0x00000000,
2.32886099815,0x00000000,0x00000000,0x00000000,0x00000000,0x00000000,0x00000000,0x00000000,0x00000000,23.85,3,0x00000000,97.266,98.431,0.004,0.013,-0.025,-0.025,-0.025,0.75,-0.6,0.035,-0.157,1.035,0x00000003,0.0,0.0,-0.0,-0.0,0.003,-0.001,0.001,0.0,0.0,0.013,0.026,0.0,0.0,0.019,0.559,0.763,0.0,0.0,0.763,34.991,34.991,0.0,0.0,0.0,97.266,97.266,0.0,0.0,26.25,26.125,0.0,0.0,0.0,0.0,90.0,76.789,0.109,27.125,0x00000000,0x00000000,0x00000000,0.0,1246,1279,8.938,3.411,0.0,0.0,0.029,0.017,0.0,0.0,1.0,0.981,0.981,0.981,0.196,1.0,1.0,0.462,0.584,0.57,24.267,0x00000101,192.168.0.40,8080,255.255.255.0,192.168.0.1,0xFFFFFFFF,0xFFFFFFFF,0xFFFFFFFF,0x00000000,
2.37889909744,0x00000000,0x00000000,0x00000000,0x00000000,0x00000000,0x00000000,0x00000000,0x00000000,23.9,3,0x00000000,97.266,98.431,0.003,0.013,-0.006,-0.013,-0.006,0.737,-0.279,0.023,0.36,-0.333,0x00000003,0.0,0.0,0.011,0.0,0.003,-0.001,0.002,0.0,0.0,0.013,0.026,0.0,0.0,0.019,1.78,-0.42,0.0,0.0,1.78,34.991,34.991,0.0,0.0,0.0,97.266,97.266,0.0,0.0,26.25,26.063,0.0,0.0,0.0,0.0,90.0,76.789,0.109,27.125,0x00000000,0x00000000,0x00000000,0.0,1246,1279,6.489,4.722,0.0,0.0,0.029,0.017,0.0,0.0,1.0,0.981,0.981,0.981,0.196,1.0,1.0,0.462,0.584,0.57,24.267,0x00000101,192.168.0.40,8080,255.255.255.0,192.168.0.1,0xFFFFFFFF,0xFFFFFFFF,0xFFFFFFFF,0x00000000,
2.42902302742,0x00000000,0x00000000,0x00000000,0x00000000,0x00000000,0x00000000,0x00000000,0x00000000,23.95,3,0x00000000,97.266,98.431,0.003,0.013,-0.007,0.0,-0.031,0.747,0.153,0.041,1.119,-1.366,0x00000003,0.0,0.0,-0.004,0.0,0.002,-0.0,-0.0,0.0,0.0,0.013,0.026,0.0,0.0,0.019,-0.267,1.666,0.0,0.0,1.666,34.991,34.991,0.0,0.0,0.0,97.266,97.266,0.0,0.0,26.25,26.063,0.0,0.0,0.0,0.0,90.0,76.781,0.109,27.125,0x00000000,0x00000000,0x00000000,0.0,1246,1279,7.605,4.779,0.0,0.0,0.029,0.017,0.0,0.0,1.0,0.981,0.981,0.981,0.196,1.0,1.0,0.462,0.584,0.57,24.267,0x00000101,192.168.0.40,8080,255.255.255.0,192.168.0.1,0xFFFFFFFF,0xFFFFFFFF,0xFFFFFFFF,0x00000000,
2.47906303406,0x00000000,0x00000000,0x00000000,0x00000000,0x00000000,0x00000000,0x00000000,0x00000000,24.0,3,0x00000000,97.266,98.431,0.004,0.013,-0.01,-0.025,-0.019,0.752,-0.022,0.063,0.104,0.015,0x00000003,0.0,0.0,0.008,0.0,0.002,-0.0,0.001,0.0,0.0,0.013,0.026,0.0,0.0,0.019,1.767,-0.305,0.0,0.0,1.767,34.991,34.991,0.0,0.0,0.0,97.266,97.266,0.0,0.0,26.25,26.125,0.0,0.0,0.0,0.0,90.0,76.781,0.109,27.125,0x00000000,0x00000000,0x00000000,0.0,1246,1279,7.653,3.591,0.0,0.0,0.029,0.017,0.0,0.0,1.0,0.981,0.981,0.981,0.196,1.0,1.0,0.462,0.584,0.57,24.267,0x00000101,192.168.0.40,8080,255.255.255.0,192.168.0.1,0xFFFFFFFF,0xFFFFFFFF,0xFFFFFFFF,0x00000000,
2.52918314934,0x00000000,0x00000000,0x00000000,0x00000000,0x00000000,0x00000000,0x00000000,0x00000000,24.05,3,0x00000000,97.266,98.431,0.004,0.012,-0.029,-0.043,-0.025,0.75,-0.209,0.053,0.619,-0.683,0x00000003,0.0,0.0,0.001,0.0,0.002,-0.0,0.0,0.0,0.0,0.013,0.026,0.0,0.0,0.019,-0.064,1.882,0.0,0.0,1.882,34.991,34.991,0.0,0.0,0.0,97.266,97.266,0.0,0.0,26.25,26.063,0.0,0.0,0.0,0.0,90.0,76.781,0.109,27.125,0x00000000,0x00000000,0x00000000,0.0,1246,1279,7.069,3.54,0.0,0.0,0.029,0.017,0.0,0.0,1.0,0.981,0.981,0.981,0.196,1.0,1.0,0.462,0.584,0.57,24.267,0x00000101,192.168.0.40,8080,255.255.255.0,192.168.0.1,0xFFFFFFFF,0xFFFFFFFF,0xFFFFFFFF,0x00000000,
2.57921910286,0x00000000,0x00000000,0x00000000,0x00000000,0x00000000,0x00000000,0x00000000,0x00000000,24.1,3,0x00000000,97.266,98.431,0.004,0.013,-0.019,-0.017,-0.043,0.739,0.096,0.022,0.096,0.363,0x00000003,0.0,0.0,-0.004,-0.0,0.001,-0.0,-0.0,0.0,0.0,0.013,0.026,0.0,0.0,0.019,0.445,0.623,0.0,0.0,0.623,34.991,34.991,0.0,0.0,0.0,97.266,97.266,0.0,0.0,26.25,26.063,0.0,0.0,0.0,0.0,90.0,76.781,0.109,27.125,0x00000000,0x00000000,0x00000000,0.0,1246,1279,5.399,2.497,0.0,0.0,0.029,0.017,0.0,0.0,1.0,0.981,0.981,0.981,0.196,1.0,1.0,0.462,0.584,0.57,24.267,0x00000101,192.168.0.40,8080,255.255.255.0,192.168.0.1,0xFFFFFFFF,0xFFFFFFFF,0xFFFFFFFF,0x00000000,
2.62934017181,0x00000000,0x00000000,0x00000000,0x00000000,0x00000000,0x00000000,0x00000000,0x00000000,24.15,3,0x00000000,97.266,98.431,0.004,0.012,-0.015,-0.008,-0.049,0.74,0.341,0.025,-0.173,1.069,0x00000003,0.0,0.0,-0.006,-0.0,0.001,-0.0,-0.001,0.0,0.0,0.013,0.026,0.0,0.0,0.019,0.763,0.458,0.0,0.0,0.763,34.991,34.991,0.0,0.0,0.0,97.266,97.266,0.0,0.0,26.25,26.125,0.0,0.0,0.0,0.0,90.0,76.781,0.109,27.125,0x00000000,0x00000000,0x00000000,0.0,1246,1279,5.147,4.683,0.0,0.0,0.029,0.018,0.0,0.0,1.0,0.981,0.981,0.981,0.196,1.0,1.0,0.462,0.584,0.57,24.267,0x00000101,192.168.0.40,8080,255.255.255.0,192.168.0.1,0xFFFFFFFF,0xFFFFFFFF,0xFFFFFFFF,0x00000000,
2.67940115929,0x00000000,0x00000000,0x00000000,0x00000000,0x00000000,0x00000000,0x00000000,0x00000000,24.2,3,0x00000000,97.266,98.431,0.004,0.013,-0.023,-0.021,-0.037,0.734,-0.67,0.044,-0.093,-1.72,0x00000003,0.0,0.0,-0.003,-0.0,0.002,-0.001,0.0,0.0,0.0,0.013,0.026,0.0,0.0,0.019,-0.28,1.691,0.0,0.0,1.691,34.991,34.991,0.0,0.0,0.0,97.266,97.266,0.0,0.0,26.25,26.125,0.0,0.0,0.0,0.0,90.0,76.781,0.109,27.125,0x00000000,0x00000000,0x00000000,0.0,1246,1279,5.768,5.116,0.0,0.0,0.03,0.018,0.0,0.0,1.0,0.981,0.981,0.981,0.196,1.0,1.0,0.462,0.584,0.57,24.267,0x00000101,192.168.0.40,8080,255.255.255.0,192.168.0.1,0xFFFFFFFF,0xFFFFFFFF,0xFFFFFFFF,0x00000000,
2.72950005531,0x00000000,0x00000000,0x00000000,0x00000000,0x00000000,0x00000000,0x00000000,0x00000000,24.25,3,0x00000000,97.266,98.431,0.004,0.013,-0.008,-0.026,0.006,0.734,-0.397,0.052,0.373,-0.669,0x00000003,0.0,0.0,0.017,0.0,0.001,0.0,0.002,0.0,0.0,0.013,0.026,0.0,0.0,0.019,1.577,-0.305,0.0,0.0,1.577,34.991,34.991,0.0,0.0,0.0,97.266,97.266,0.0,0.0,26.25,26.125,0.0,0.0,0.0,0.0,90.0,76.781,0.109,27.125,0x00000000,0x00000000,0x00000000,0.0,1246,1279,5.455,4.796,0.0,0.0,0.03,0.018,0.0,0.0,1.0,0.981,0.981,0.981,0.196,1.0,1.0,0.462,0.584,0.57,24.267,0x00000101,192.168.0.40,8080,255.255.255.0,192.168.0.1,0xFFFFFFFF,0xFFFFFFFF,0xFFFFFFFF,0x00000000,
2.77953004837,0x00000000,0x00000000,0x00000000,0x00000000,0x00000000,0x00000000,0x00000000,0x00000000,24.3,3,0x00000000,97.266,98.431,0.004,0.013,-0.012,-0.008,-0.031,0.734,-0.664,0.024,-0.36,-1.01,0x00000003,0.0,0.0,-0.004,0.0,0.001,-0.0,0.0,0.0,0.0,0.013,0.026,0.0,0.0,0.019,1.971,-0.585,0.0,0.0,1.971,34.991,34.991,0.0,0.0,0.0,97.266,97.266,0.0,0.0,26.25,26.063,0.0,0.0,0.0,0.0,90.0,76.781,0.109,27.125,0x00000000,0x00000000,0x00000000,0.0,1246,1279,5.996,4.443,0.0,0.0,0.03,0.018,0.0,0.0,1.0,0.981,0.981,0.981,0.196,1.0,1.0,0.462,0.584,0.57,24.267,0x00000101,192.168.0.40,8080,255.255.255.0,192.168.0.1,0xFFFFFFFF,0xFFFFFFFF,0xFFFFFFFF,0x00000000,
2.82966208458,0x00000000,0x00000000,0x00000000,0x00000000,0x00000000,0x00000000,0x00000000,0x00000000,24.35,3,0x00000000,97.266,98.431,0.005,0.013,-0.015,-0.013,-0.012,0.725,-0.486,0.058,1.101,0.36,0x00000003,0.0,0.0,0.0,0.0,0.001,-0.0,0.0,0.0,0.0,0.013,0.026,0.0,0.0,0.019,1.271,-0.076,0.0,0.0,1.271,34.991,34.991,0.0,0.0,0.0,97.266,97.266,0.0,0.0,26.25,26.063,0.0,0.0,0.0,0.0,90.0,76.781,0.109,27.125,0x00000000,0x00000000,0x00000000,0.0,1246,1279,5.172,4.073,0.0,0.0,0.03,0.018,0.0,0.0,1.0,0.981,0.981,0.981,0.196,1.0,1.0,0.462,0.584,0.57,24.267,0x00000101,192.168.0.40,8080,255.255.255.0,192.168.0.1,0xFFFFFFFF,0xFFFFFFFF,0xFFFFFFFF,0x00000000,
2.87972807884,0x00000000,0x00000000,0x00000000,0x00000000,0x00000000,0x00000000,0x00000000,0x00000000,24.4,3,0x00000000,97.266,98.431,0.004,0.013,-0.022,-0.017,-0.031,0.725,-0.129,0.053,-0.633,0.027,0x00000003,0.0,0.0,-0.006,-0.0,0.001,-0.0,-0.0,0.0,0.0,0.013,0.026,0.0,0.0,0.019,-0.064,1.157,0.0,0.0,1.157,34.991,34.991,0.0,0.0,0.0,97.266,97.266,0.0,0.0,26.25,26.063,0.0,0.0,0.0,0.0,90.0,76.781,0.109,27.125,0x00000000,0x00000000,0x00000000,0.0,1246,1279,4.967,2.52,0.0,0.0,0.03,0.018,0.0,0.0,1.0,0.981,0.981,0.981,0.196,1.0,1.0,0.462,0.584,0.57,24.267,0x00000101,192.168.0.40,8080,255.255.255.0,192.168.0.1,0xFFFFFFFF,0xFFFFFFFF,0xFFFFFFFF,0x00000000,
2.92982006073,0x00000000,0x00000000,0x00000000,0x00000000,0x00000000,0x00000000,0x00000000,0x00000000,24.45,3,0x00000000,97.266,98.431,0.004,0.013,-0.009,-0.03,-0.006,0.729,0.255,0.046,0.11,-0.308,0x00000003,0.0,0.0,0.001,-0.0,0.001,-0.0,-0.0,0.0,0.0,0.013,0.026,0.0,0.0,0.019,0.852,0.343,0.0,0.0,0.852,34.991,34.991,0.0,0.0,0.0,97.266,97.266,0.0,0.0,26.25,26.063,0.0,0.0,0.0,0.0,90.0,76.781,0.109,27.125,0x00000000,0x00000000,0x00000000,0.0,1246,1279,6.478,4.684,0.0,0.0,0.03,0.018,0.0,0.0,1.0,0.981,0.981,0.981,0.196,1.0,1.0,0.462,0.584,0.57,24.267,0x00000101,192.168.0.40,8080,255.255.255.0,192.168.0.1,0xFFFFFFFF,0xFFFFFFFF,0xFFFFFFFF,0x00000000,
2.97985601425,0x00000000,0x00000000,0x00000000,0x00000000,0x00000000,0x00000000,0x00000000,0x00000000,24.5,3,0x00000000,97.266,98.431,0.004,0.014,-0.017,-0.025,-0.025,0.725,-0.075,0.02,-0.882,0.038,0x00000003,0.0,0.0,0.002,-0.0,0.0,-0.0,0.0,0.0,0.0,0.013,0.026,0.0,0.0,0.019,-0.381,2.174,0.0,0.0,2.174,34.991,34.991,0.0,0.0,0.0,97.266,97.266,0.0,0.0,26.25,26.125,0.0,0.0,0.0,0.0,90.0,76.781,0.109,27.125,0x00000000,0x00000000,0x00000000,0.0,1246,1279,8.213,4.777,0.0,0.0,0.03,0.018,0.0,0.0,1.0,0.981,0.981,0.981,0.196,1.0,1.0,0.462,0.584,0.57,24.267,0x00000101,192.168.0.40,8080,255.255.255.0,192.168.0.1,0xFFFFFFFF,0xFFFFFFFF,0xFFFFFFFF,0x00000000,
3.02998018265,0x00000000,0x00000000,0x00000000,0x00000000,0x00000000,0x00000000,0x00000000,0x00000000,24.55,3,0x00000000,97.266,98.431,0.003,0.012,-0.013,-0.004,-0.018,0.719,-0.29,0.02,0.157,-2.041,0x00000003,0.0,0.0,0.013,0.0,0.001,-0.0,0.001,0.0,0.0,0.013,0.026,0.0,0.0,0.019,0.127,1.233,0.0,0.0,1.233,34.991,34.991,0.0,0.0,0.0,97.266,97.266,0.0,0.0,26.25,26.125,0.0,0.0,0.0,0.0,90.0,76.781,0.109,27.125,0x00000000,0x00000000,0x00000000,0.0,1246,1279,6.101,4.442,0.0,0.0,0.03,0.018,0.0,0.0,1.0,0.981,0.981,0.981,0.196,1.0,1.0,0.462,0.584,0.57,24.267,0x00000101,192.168.0.40,8080,255.255.255.0,192.168.0.1,0xFFFFFFFF,0xFFFFFFFF,0xFFFFFFFF,0x00000000,
3.08001708984,0x00000000,0x00000000,0x00000000,0x00000000,0x00000000,0x00000000,0x00000000,0x00000000,24.6,3,0x00000000,97.266,98.431,0.004,0.012,-0.013,-0.021,-0.019,0.717,-0.705,0.014,-0.376,0.033,0x00000003,0.0,0.0,0.002,0.0,0.001,-0.0,0.0,0.0,0.0,0.013,0.026,0.0,0.0,0.019,0.14,1.271,0.0,0.0,1.271,34.991,34.991,0.0,0.0,0.0,97.266,97.266,0.0,0.0,26.25,26.063,0.0,0.0,0.0,0.0,90.0,76.781,0.109,27.125,0x00000000,0x00000000,0x00000000,0.0,1246,1279,7.859,4.247,0.0,0.0,0.03,0.018,0.0,0.0,1.0,0.981,0.981,0.981,0.196,1.0,1.0,0.462,0.584,0.57,24.267,0x00000101,192.168.0.40,8080,255.255.255.0,192.168.0.1,0xFFFFFFFF,0xFFFFFFFF,0xFFFFFFFF,0x00000000,
3.13013601303,0x00000000,0x00000000,0x00000000,0x00000000,0x00000000,0x00000000,0x00000000,0x00000000,24.65,3,0x00000000,97.266,98.431,0.004,0.012,-0.012,-0.025,-0.043,0.717,0.175,0.008,0.589,0.735,0x00000003,0.0,0.0,0.011,0.0,0.001,-0.0,0.001,0.0,0.0,0.013,0.026,0.0,0.0,0.019,0.852,0.648,0.0,0.0,0.852,34.991,34.991,0.0,0.0,0.0,97.266,97.266,0.0,0.0,26.25,26.063,0.0,0.0,0.0,0.0,90.0,76.781,0.109,27.125,0x00000000,0x00000000,0x00000000,0.0,1246,1279,6.718,2.182,0.0,0.0,0.03,0.018,0.0,0.0,1.0,0.981,0.981,0.981,0.196,1.0,1.0,0.462,0.584,0.57,24.267,0x00000101,192.168.0.40,8080,255.255.255.0,192.168.0.1,0xFFFFFFFF,0xFFFFFFFF,0xFFFFFFFF,0x00000000,
3.18022298813,0x00000000,0x00000000,0x00000000,0x00000000,0x00000000,0x00000000,0x00000000,0x00000000,24.7,3,0x00000000,97.266,98.431,0.004,0.013,-0.013,-0.012,-0.043,0.706,-0.918,0.004,-0.116,-0.311,0x00000003,0.0,0.0,-0.003,0.0,0.002,-0.0,0.0,0.0,0.0,0.013,0.026,0.0,0.0,0.019,0.839,0.75,0.0,0.0,0.839,34.991,34.991,0.0,0.0,0.0,97.266,97.266,0.0,0.0,26.25,26.063,0.0,0.0,0.0,0.0,90.0,76.781,0.109,27.125,0x00000000,0x00000000,0x00000000,0.0,1246,1279,6.216,4.654,0.0,0.0,0.03,0.018,0.0,0.0,1.0,0.981,0.981,0.981,0.196,1.0,1.0,0.462,0.584,0.57,24.267,0x00000101,192.168.0.40,8080,255.255.255.0,192.168.0.1,0xFFFFFFFF,0xFFFFFFFF,0xFFFFFFFF,0x00000000,
3.23029303551,0x00000000,0x00000000,0x00000000,0x00000000,0x00000000,0x00000000,0x00000000,0x00000000,24.75,3,0x00000000,97.266,98.431,0.004,0.012,-0.028,-0.012,-0.055,0.714,-0.142,0.003,-0.854,-0.996,0x00000003,0.0,0.0,0.006,0.0,0.001,-0.0,0.001,0.0,0.0,0.013,0.026,0.0,0.0,0.019,0.75,0.648,0.0,0.0,0.75,34.991,34.991,0.0,0.0,0.0,97.266,97.266,0.0,0.0,26.25,26.125,0.0,0.0,0.0,0.0,90.0,76.781,0.109,27.125,0x00000000,0x00000000,0x00000000,0.0,1246,1279,7.232,4.761,0.0,0.0,0.031,0.018,0.0,0.0,1.0,0.981,0.981,0.981,0.196,1.0,1.0,0.462,0.584,0.57,24.267,0x00000101,192.168.0.40,8080,255.255.255.0,192.168.0.1,0xFFFFFFFF,0xFFFFFFFF,0xFFFFFFFF,0x00000000,
3.28037619591,0x00000000,0x00000000,0x00000000,0x00000000,0x00000000,0x00000000,0x00000000,0x00000000,24.8,3,0x00000000,97.266,98.431,0.003,0.013,-0.02,-0.012,-0.007,0.704,0.251,0.011,-0.381,-0.291,0x00000003,0.0,0.0,0.004,0.0,0.002,-0.0,0.001,0.0,0.0,0.013,0.026,0.0,0.0,0.019,0.127,1.895,0.0,0.0,1.895,34.991,34.991,0.0,0.0,0.0,97.266,97.266,0.0,0.0,26.25,26.125,0.0,0.0,0.0,0.0,90.0,76.781,0.109,27.125,0x00000000,0x00000000,0x00000000,0.0,1246,1279,7.613,4.428,0.0,0.0,0.031,0.018,0.0,0.0,1.0,0.981,0.981,0.981,0.196,1.0,1.0,0.462,0.584,0.57,24.267,0x00000101,192.168.0.40,8080,255.255.255.0,192.168.0.1,0xFFFFFFFF,0xFFFFFFFF,0xFFFFFFFF,0x00000000,
3.33046197891,0x00000000,0x00000000,0x00000000,0x00000000,0x00000000,0x00000000,0x00000000,0x00000000,24.85,3,0x00000000,97.266,98.431,0.004,0.013,-0.013,-0.012,-0.031,0.711,0.296,0.002,-0.379,-0.295,0x00000003,0.0,0.0,-0.001,0.0,0.001,-0.0,0.0,0.0,0.0,0.013,0.026,0.0,0.0,0.019,-0.483,1.806,0.0,0.0,1.806,34.991,34.991,0.0,0.0,0.0,97.266,97.266,0.0,0.0,26.25,26.063,0.0,0.0,0.0,0.0,90.0,76.781,0.109,27.125,0x00000000,0x00000000,0x00000000,0.0,1246,1279,6.592,4.751,0.0,0.0,0.031,0.018,0.0,0.0,1.0,0.981,0.981,0.981,0.196,1.0,1.0,0.462,0.584,0.57,24.267,0x00000101,192.168.0.40,8080,255.255.255.0,192.168.0.1,0xFFFFFFFF,0xFFFFFFFF,0xFFFFFFFF,0x00000000,
3.38054203987,0x00000000,0x00000000,0x00000000,0x00000000,0x00000000,0x00000000,0x00000000,0x00000000,24.9,3,0x00000000,97.266,98.431,0.004,0.013,-0.016,-0.017,-0.031,0.71,0.263,-0.015,-1.13,0.056,0x00000003,0.0,0.0,-0.003,-0.0,0.001,-0.001,0.0,0.0,0.0,0.013,0.026,0.0,0.0,0.019,0.737,0.636,0.0,0.0,0.737,34.991,34.991,0.0,0.0,0.0,97.266,97.266,0.0,0.0,26.25,26.063,0.0,0.0,0.0,0.0,90.0,76.781,0.109,27.125,0x00000000,0x00000000,0x00000000,0.0,1246,1279,5.815,4.765,0.0,0.0,0.031,0.018,0.0,0.0,1.0,0.981,0.981,0.981,0.196,1.0,1.0,0.462,0.584,0.57,24.267,0x00000101,192.168.0.40,8080,255.255.255.0,192.168.0.1,0xFFFFFFFF,0xFFFFFFFF,0xFFFFFFFF,0x00000000,
3.43063402176,0x00000000,0x00000000,0x00000000,0x00000000,0x00000000,0x00000000,0x00000000,0x00000000,24.95,3,0x00000000,97.266,98.431,0.004,0.013,-0.012,-0.017,-0.043,0.712,0.065,-0.018,0.136,-0.986,0x00000003,0.0,0.0,0.008,0.0,0.001,0.001,0.0,0.0,0.0,0.013,0.026,0.0,0.0,0.019,0.941,0.623,0.0,0.0,0.941,34.991,34.991,0.0,0.0,0.0,97.266,97.266,0.0,0.0,26.25,26.063,0.0,0.0,0.0,0.0,90.0,76.781,0.109,27.125,0x00000000,0x00000000,0x00000000,0.0,1246,1279,6.967,4.586,0.0,0.0,0.031,0.018,0.0,0.0,1.0,0.981,0.981,0.981,0.196,1.0,1.0,0.462,0.584,0.57,24.267,0x00000101,192.168.0.40,8080,255.255.255.0,192.168.0.1,0xFFFFFFFF,0xFFFFFFFF,0xFFFFFFFF,0x00000000,
3.48069620132,0x00000000,0x00000000,0x00000000,0x00000000,0x00000000,0x00000000,0x00000000,0x00000000,25.0,3,0x00000000,97.266,98.431,0.005,0.013,-0.013,-0.017,-0.025,0.711,0.056,-0.019,-0.855,-0.983,0x00000003,0.0,0.0,-0.002,0.0,0.001,-0.0,0.0,0.0,0.0,0.013,0.026,0.0,0.0,0.019,0.75,0.763,0.0,0.0,0.763,34.991,34.991,0.0,0.0,0.0,97.266,97.266,0.0,0.0,26.25,26.063,0.0,0.0,0.0,0.0,90.0,76.773,0.109,27.125,0x00000000,0x00000000,0x00000000,0.0,1246,1279,6.227,4.42,0.0,0.0,0.031,0.019,0.0,0.0,1.0,0.981,0.981,0.981,0.196,1.0,1.0,0.462,0.584,0.57,24.267,0x00000101,192.168.0.40,8080,255.255.255.0,192.168.0.1,0xFFFFFFFF,0xFFFFFFFF,0xFFFFFFFF,0x00000000,
3.53077507019,0x00000000,0x00000000,0x00000000,0x00000000,0x00000000,0x00000000,0x00000000,0x00000000,25.05,3,0x00000000,97.266,98.431,0.005,0.012,-0.012,-0.004,-0.024,0.715,-0.218,-0.016,0.139,-0.976,0x00000003,0.0,0.0,0.0,0.0,0.001,0.0,0.0,0.0,0.0,0.013,0.026,0.0,0.0,0.019,0.75,0.737,0.0,0.0,0.75,34.991,34.991,0.0,0.0,0.0,97.266,97.266,0.0,0.0,26.25,26.125,0.0,0.0,0.0,0.0,90.0,76.773,0.109,27.125,0x00000000,0x00000000,0x00000000,0.0,1246,1279,8.576,4.233,0.0,0.0,0.031,0.019,0.0,0.0,1.0,0.981,0.981,0.981,0.196,1.0,1.0,0.462,0.584,0.57,24.267,0x00000101,192.168.0.40,8080,255.255.255.0,192.168.0.1,0xFFFFFFFF,0xFFFFFFFF,0xFFFFFFFF,0x00000000,
3.58085799217,0x00000000,0x00000000,0x00000000,0x00000000,0x00000000,0x00000000,0x00000000,0x00000000,25.1,3,0x00000000,97.266,98.431,0.003,0.012,-0.018,-0.026,0.006,0.707,0.108,0.017,0.62,-0.291,0x00000003,0.0,0.0,-0.004,-0.0,0.001,-0.001,0.0,0.0,0.0,0.013,0.026,0.0,0.0,0.019,0.737,0.648,0.0,0.0,0.737,34.991,34.991,0.0,0.0,0.0,97.266,97.266,0.0,0.0,26.25,26.125,0.0,0.0,0.0,0.0,90.0,76.773,0.109,27.125,0x00000000,0x00000000,0x00000000,0.0,1246,1279,7.334,3.557,0.0,0.0,0.031,0.019,0.0,0.0,1.0,0.981,0.981,0.981,0.196,1.0,1.0,0.462,0.584,0.57,24.267,0x00000101,192.168.0.40,8080,255.255.255.0,192.168.0.1,0xFFFFFFFF,0xFFFFFFFF,0xFFFFFFFF,0x00000000,
3.63093018532,0x00000000,0x00000000,0x00000000,0x00000000,0x00000000,0x00000000,0x00000000,0x00000000,25.15,3,0x00000000,97.266,98.431,0.004,0.012,-0.025,-0.025,-0.025,0.697,-0.344,0.002,-0.379,0.403,0x00000003,0.0,0.0,-0.003,-0.0,0.002,-0.001,0.001,0.0,0.0,0.013,0.026,0.0,0.0,0.019,0.75,0.75,0.0,0.0,0.75,34.991,34.991,0.0,0.0,0.0,97.266,97.266,0.0,0.0,26.25,26.063,0.0,0.0,0.0,0.0,90.0,76.773,0.109,27.125,0x00000000,0x00000000,0x00000000,0.0,1246,1279,4.877,4.713,0.0,0.0,0.031,0.019,0.0,0.0,1.0,0.981,0.981,0.981,0.196,1.0,1.0,0.462,0.584,0.57,24.267,0x00000101,192.168.0.40,8080,255.255.255.0,192.168.0.1,0xFFFFFFFF,0xFFFFFFFF,0xFFFFFFFF,0x00000000,
3.68101906776,0x00000000,0x00000000,0x00000000,0x00000000,0x00000000,0x00000000,0x00000000,0x00000000,25.2,3,0x00000000,97.266,98.431,0.004,0.013,-0.011,-0.017,-0.018,0.694,0.202,0.026,1.332,1.1,0x00000003,0.0,0.0,0.002,-0.0,0.002,-0.0,0.0,0.0,0.0,0.013,0.026,0.0,0.0,0.019,0.737,0.75,0.0,0.0,0.75,34.991,34.991,0.0,0.0,0.0,97.266,97.266,0.0,0.0,26.25,26.063,0.0,0.0,0.0,0.0,90.0,76.773,0.109,27.125,0x00000000,0x00000000,0x00000000,0.0,1246,1279,6.994,1.174,0.0,0.0,0.031,0.019,0.0,0.0,1.0,0.981,0.981,0.981,0.196,1.0,1.0,0.462,0.584,0.57,24.267,0x00000101,192.168.0.40,8080,255.255.255.0,192.168.0.1,0xFFFFFFFF,0xFFFFFFFF,0xFFFFFFFF,0x00000000,
3.73109197617,0x00000000,0x00000000,0x00000000,0x00000000,0x00000000,0x00000000,0x00000000,0x00000000,25.25,3,0x00000000,97.266,98.431,0.005,0.013,-0.018,-0.008,-0.012,0.688,-0.126,0.031,0.639,-0.979,0x00000003,0.0,0.0,0.004,-0.0,0.001,0.0,0.0,0.0,0.0,0.013,0.026,0.0,0.0,0.019,0.737,0.75,0.0,0.0,0.75,34.991,34.991,0.0,0.0,0.0,97.266,97.266,0.0,0.0,26.25,26.125,0.0,0.0,0.0,0.0,90.0,76.773,0.109,27.125,0x00000000,0x00000000,0x00000000,0.0,1246,1279,5.38,4.273,0.0,0.0,0.032,0.019,0.0,0.0,1.0,0.981,0.981,0.981,0.196,1.0,1.0,0.462,0.584,0.57,24.267,0x00000101,192.168.0.40,8080,255.255.255.0,192.168.0.1,0xFFFFFFFF,0xFFFFFFFF,0xFFFFFFFF,0x00000000,
3.78112602234,0x00000000,0x00000000,0x00000000,0x00000000,0x00000000,0x00000000,0x00000000,0x00000000,25.3,3,0x00000000,97.266,98.431,0.004,0.013,-0.024,-0.008,-0.0,0.688,0.188,0.042,0.146,-1.319,0x00000003,0.0,0.0,-0.005,-0.0,0.002,-0.002,0.0,0.0,0.0,0.013,0.026,0.0,0.0,0.019,0.737,0.674,0.0,0.0,0.737,34.991,34.991,0.0,0.0,0.0,97.266,97.266,0.0,0.0,26.25,26.125,0.0,0.0,0.0,0.0,90.0,76.773,0.109,27.125,0x00000000,0x00000000,0x00000000,0.0,1246,1279,6.611,2.184,0.0,0.0,0.032,0.019,0.0,0.0,1.0,0.981,0.981,0.981,0.196,1.0,1.0,0.462,0.584,0.57,24.267,0x00000101,192.168.0.40,8080,255.255.255.0,192.168.0.1,0xFFFFFFFF,0xFFFFFFFF,0xFFFFFFFF,0x00000000,
3.83125019073,0x00000000,0x00000000,0x00000000,0x00000000,0x00000000,0x00000000,0x00000000,0x00000000,25.35,3,0x00000000,97.266,98.431,0.004,0.012,-0.009,-0.008,-0.025,0.688,-0.15,0.05,-0.395,1.105,0x00000003,0.0,0.0,0.011,-0.0,0.001,-0.0,0.001,0.0,0.0,0.013,0.026,0.0,0.0,0.019,-0.356,0.42,0.0,0.0,0.42,34.991,34.991,0.0,0.0,0.0,97.266,97.266,0.0,0.0,26.25,26.063,0.0,0.0,0.0,0.0,90.0,76.773,0.109,27.125,0x00000000,0x00000000,0x00000000,0.0,1246,1279,6.369,2.791,0.0,0.0,0.032,0.019,0.0,0.0,1.0,0.981,0.981,0.981,0.196,1.0,1.0,0.462,0.584,0.57,24.267,0x00000101,192.168.0.40,8080,255.255.255.0,192.168.0.1,0xFFFFFFFF,0xFFFFFFFF,0xFFFFFFFF,0x00000000,
3.88134217262,0x00000000,0x00000000,0x00000000,0x00000000,0x00000000,0x00000000,0x00000000,0x00000000,25.4,3,0x00000000,97.266,98.431,0.004,0.013,-0.013,-0.013,-0.006,0.68,-0.065,0.054,-0.856,-0.623,0x00000003,0.0,0.0,0.003,0.0,0.002,-0.0,0.001,0.0,0.0,0.013,0.026,0.0,0.0,0.019,-0.369,-0.305,0.0,0.0,-0.369,34.991,34.991,0.0,0.0,0.0,97.266,97.266,0.0,0.0,26.25,26.063,0.0,0.0,0.0,0.0,90.0,76.773,0.109,27.125,0x00000000,0x00000000,0x00000000,0.0,1246,1279,5.985,2.457,0.0,0.0,0.032,0.019,0.0,0.0,1.0,0.981,0.981,0.981,0.196,1.0,1.0,0.462,0.584,0.57,24.267,0x00000101,192.168.0.40,8080,255.255.255.0,192.168.0.1,0xFFFFFFFF,0xFFFFFFFF,0xFFFFFFFF,0x00000000,
3.93141317368,0x00000000,0x00000000,0x00000000,0x00000000,0x00000000,0x00000000,0x00000000,0x00000000,25.45,3,0x00000000,97.266,98.431,0.004,0.012,-0.015,-0.021,-0.024,0.693,-0.041,0.077,-0.133,0.416,0x00000003,0.0,0.0,0.003,0.0,0.001,-0.0,0.001,0.0,0.0,0.013,0.026,0.0,0.0,0.019,0.737,0.648,0.0,0.0,0.737,34.991,34.991,0.0,0.0,0.0,97.266,97.266,0.0,0.0,26.25,26.125,0.0,0.0,0.0,0.0,90.0,76.773,0.109,27.125,0x00000000,0x00000000,0x00000000,0.0,1246,1279,7.222,4.666,0.0,0.0,0.032,0.019,0.0,0.0,1.0,0.981,0.981,0.981,0.196,1.0,1.0,0.462,0.584,0.57,24.267,0x00000101,192.168.0.40,8080,255.255.255.0,192.168.0.1,0xFFFFFFFF,0xFFFFFFFF,0xFFFFFFFF,0x00000000,
3.98149609566,0x00000000,0x00000000,0x00000000,0x00000000,0x00000000,0x00000000,0x00000000,0x00000000,25.5,3,0x00000000,97.266,98.431,0.003,0.013,-0.015,-0.008,-0.018,0.686,-0.112,0.071,-0.108,-0.627,0x00000003,0.0,0.0,0.0,0.0,0.001,-0.0,0.001,0.0,0.0,0.013,0.026,0.0,0.0,0.019,0.737,0.725,0.0,0.0,0.737,34.991,34.991,0.0,0.0,0.0,97.266,97.266,0.0,0.0,26.25,26.125,0.0,0.0,0.0,0.0,90.0,76.797,0.109,27.125,0x00000000,0x00000000,0x00000000,0.0,1246,1279,7.908,4.761,0.0,0.0,0.032,0.019,0.0,0.0,1.0,0.981,0.981,0.981,0.196,1.0,1.0,0.462,0.584,0.57,24.267,0x00000101,192.168.0.40,8080,255.255.255.0,192.168.0.1,0xFFFFFFFF,0xFFFFFFFF,0xFFFFFFFF,0x00000000,
4.03157114983,0x00000000,0x00000000,0x00000000,0x00000000,0x00000000,0x00000000,0x00000000,0x00000000,25.55,3,0x00000000,97.266,98.431,0.004,0.013,-0.008,-0.017,-0.013,0.685,0.314,0.08,-0.639,0.765,0x00000003,0.0,0.0,-0.004,0.0,0.001,-0.0,0.0,0.0,0.0,0.013,0.026,0.0,0.0,0.019,0.852,0.674,0.0,0.0,0.852,34.991,34.991,0.0,0.0,0.0,97.266,97.266,0.0,0.0,26.25,26.125,0.0,0.0,0.0,0.0,90.0,76.797,0.109,27.125,0x00000000,0x00000000,0x00000000,0.0,1246,1279,7.462,4.428,0.0,0.0,0.032,0.019,0.0,0.0,1.0,0.981,0.981,0.981,0.196,1.0,1.0,0.462,0.584,0.57,24.267,0x00000101,192.168.0.40,8080,255.255.255.0,192.168.0.1,0xFFFFFFFF,0xFFFFFFFF,0xFFFFFFFF,0x00000000,
4.08165597916,0x00000000,0x00000000,0x00000000,0x00000000,0x00000000,0x00000000,0x00000000,0x00000000,25.6,3,0x00000000,97.266,98.431,0.004,0.013,-0.017,-0.021,0.006,0.686,-0.36,0.088,-0.134,0.76,0x00000003,0.0,0.0,0.004,0.0,0.001,-0.0,0.001,0.0,0.0,0.013,0.026,0.0,0.0,0.019,0.75,0.648,0.0,0.0,0.75,34.991,34.991,0.0,0.0,0.0,97.266,97.266,0.0,0.0,26.25,26.063,0.0,0.0,0.0,0.0,90.0,76.797,0.109,27.125,0x00000000,0x00000000,0x00000000,0.0,1246,1279,6.068,4.751,0.0,0.0,0.032,0.019,0.0,0.0,1.0,0.981,0.981,0.981,0.196,1.0,1.0,0.462,0.584,0.57,24.267,0x00000101,192.168.0.40,8080,255.255.255.0,192.168.0.1,0xFFFFFFFF,0xFFFFFFFF,0xFFFFFFFF,0x00000000,
4.1317281723,0x00000000,0x00000000,0x00000000,0x00000000,0x00000000,0x00000000,0x00000000,0x00000000,25.65,3,0x00000000,97.266,98.431,0.004,0.013,-0.004,0.0,-0.006,0.693,0.019,0.079,0.114,0.424,0x00000003,0.0,0.0,-0.003,0.0,0.001,-0.0,0.0,0.0,0.0,0.013,0.026,0.0,0.0,0.019,0.865,0.648,0.0,0.0,0.865,34.991,34.991,0.0,0.0,0.0,97.266,97.266,0.0,0.0,26.25,26.063,0.0,0.0,0.0,0.0,90.0,76.797,0.109,27.125,0x00000000,0x00000000,0x00000000,0.0,1246,1279,6.75,2.542,0.0,0.0,0.032,0.019,0.0,0.0,1.0,0.981,0.981,0.981,0.196,1.0,1.0,0.462,0.584,0.57,24.267,0x00000101,192.168.0.40,8080,255.255.255.0,192.168.0.1,0xFFFFFFFF,0xFFFFFFFF,0xFFFFFFFF,0x00000000,
4.18181610107,0x00000000,0x00000000,0x00000000,0x00000000,0x00000000,0x00000000,0x00000000,0x00000000,25.7,3,0x00000000,97.266,98.431,0.003,0.012,-0.014,-0.008,0.012,0.702,-0.079,0.1,-0.117,-0.271,0x00000003,0.0,0.0,0.001,0.0,0.001,-0.0,0.0,0.0,0.0,0.013,0.026,0.0,0.0,0.019,0.648,0.648,0.0,0.0,0.648,34.991,34.991,0.0,0.0,0.0,97.266,97.266,0.0,0.0,26.25,26.063,0.0,0.0,0.0,0.0,90.0,76.797,0.109,27.125,0x00000000,0x00000000,0x00000000,0.0,1246,1279,7.188,4.489,0.0,0.0,0.032,0.019,0.0,0.0,1.0,0.981,0.981,0.981,0.196,1.0,1.0,0.462,0.584,0.57,24.267,0x00000101,192.168.0.40,8080,255.255.255.0,192.168.0.1,0xFFFFFFFF,0xFFFFFFFF,0xFFFFFFFF,0x00000000,
4.23188614845,0x00000000,0x00000000,0x00000000,0x00000000,0x00000000,0x00000000,0x00000000,0x00000000,25.75,3,0x00000000,97.266,98.431,0.003,0.013,-0.014,0.005,-0.025,0.705,0.373,0.089,-0.873,0.079,0x00000003,0.0,0.0,0.005,0.0,0.001,-0.0,0.001,0.0,0.0,0.013,0.026,0.0,0.0,0.019,0.852,0.75,0.0,0.0,0.852,34.991,34.991,0.0,0.0,0.0,97.266,97.266,0.0,0.0,26.25,26.125,0.0,0.0,0.0,0.0,90.0,76.797,0.109,27.125,0x00000000,0x00000000,0x00000000,0.0,1246,1279,8.912,4.574,0.0,0.0,0.032,0.019,0.0,0.0,1.0,0.981,0.981,0.981,0.196,1.0,1.0,0.462,0.584,0.57,24.267,0x00000101,192.168.0.40,8080,255.255.255.0,192.168.0.1,0xFFFFFFFF,0xFFFFFFFF,0xFFFFFFFF,0x00000000,
4.28197407722,0x00000000,0x00000000,0x00000000,0x00000000,0x00000000,0x00000000,0x00000000,0x00000000,25.8,3,0x00000000,97.266,98.431,0.004,0.013,-0.011,-0.013,-0.012,0.709,-0.135,0.1,-0.361,-0.275,0x00000003,0.0,0.0,-0.006,0.0,0.001,-0.001,0.0,0.0,0.0,0.013,0.026,0.0,0.0,0.019,0.839,0.623,0.0,0.0,0.839,34.991,34.991,0.0,0.0,0.0,97.266,97.266,0.0,0.0,26.25,26.125,0.0,0.0,0.0,0.0,90.0,76.797,0.109,27.125,0x00000000,0x00000000,0x00000000,0.0,1246,1279,6.131,3.944,0.0,0.0,0.033,0.019,0.0,0.0,1.0,0.981,0.981,0.981,0.196,1.0,1.0,0.462,0.584,0.57,24.267,0x00000101,192.168.0.40,8080,255.255.255.0,192.168.0.1,0xFFFFFFFF,0xFFFFFFFF,0xFFFFFFFF,0x00000000,
4.33204603195,0x00000000,0x00000000,0x00000000,0x00000000,0x00000000,0x00000000,0x00000000,0x00000000,25.85,3,0x00000000,97.266,98.431,0.004,0.012,-0.011,-0.021,-0.025,0.71,-0.177,0.096,-0.362,-0.267,0x00000003,0.0,0.0,0.0,0.0,0.002,-0.001,0.001,0.0,0.0,0.013,0.026,0.0,0.0,0.019,0.547,-0.407,0.0,0.0,0.547,34.991,34.991,0.0,0.0,0.0,97.266,97.266,0.0,0.0,26.25,26.125,0.0,0.0,0.0,0.0,90.0,76.797,0.109,27.125,0x00000000,0x00000000,0x00000000,0.0,1246,1279,6.348,4.393,0.0,0.0,0.033,0.019,0.0,0.0,1.0,0.981,0.981,0.981,0.196,1.0,1.0,0.462,0.584,0.57,24.267,0x00000101,192.168.0.40,8080,255.255.255.0,192.168.0.1,0xFFFFFFFF,0xFFFFFFFF,0xFFFFFFFF,0x00000000,
4.38213419914,0x00000000,0x00000000,0x00000000,0x00000000,0x00000000,0x00000000,0x00000000,0x00000000,25.9,3,0x00000000,97.266,98.431,0.004,0.013,-0.013,-0.004,-0.006,0.708,-0.222,0.096,0.879,-0.272,0x00000003,0.0,0.0,0.009,0.0,0.003,-0.001,0.001,0.0,0.0,0.013,0.026,0.0,0.0,0.019,0.127,-0.191,0.0,0.0,-0.191,34.991,34.991,0.0,0.0,0.0,97.266,97.266,0.0,0.0,26.25,26.063,0.0,0.0,0.0,0.0,90.0,76.797,0.109,27.125,0x00000000,0x00000000,0x00000000,0.0,1246,1279,4.834,4.75,0.0,0.0,0.033,0.019,0.0,0.0,1.0,0.981,0.981,0.981,0.196,1.0,1.0,0.462,0.584,0.57,24.267,0x00000101,192.168.0.40,8080,255.255.255.0,192.168.0.1,0xFFFFFFFF,0xFFFFFFFF,0xFFFFFFFF,0x00000000,
4.43220710754,0x00000000,0x00000000,0x00000000,0x00000000,0x00000000,0x00000000,0x00000000,0x00000000,25.95,3,0x00000000,97.266,98.431,0.004,0.013,-0.013,-0.013,-0.006,0.701,0.422,0.114,-0.375,0.085,0x00000003,0.0,0.0,-0.001,0.0,0.001,-0.0,0.0,0.0,0.0,0.013,0.026,0.0,0.0,0.019,0.534,0.547,0.0,0.0,0.547,34.991,34.991,0.0,0.0,0.0,97.266,97.266,0.0,0.0,26.25,26.063,0.0,0.0,0.0,0.0,90.0,76.797,0.109,27.125,0x00000000,0x00000000,0x00000000,0.0,1246,1279,5.106,4.281,0.0,0.0,0.033,0.02,0.0,0.0,1.0,0.981,0.981,0.981,0.196,1.0,1.0,0.462,0.584,0.57,24.267,0x00000101,192.168.0.40,8080,255.255.255.0,192.168.0.1,0xFFFFFFFF,0xFFFFFFFF,0xFFFFFFFF,0x00000000,
