Time_stamp,fault_status_word_1,fault_status_word_2,fault_status_word_3,fault_status_word_4,mcu_0_fault_status,mcu_1_fault_status,mcu_2_fault_status,mcu_3_fault_status,operational_time,operational_state,dynamic_response,min_propulsion_batt_soc,aux_batt_soc,inertial_x_acc_g,inertial_y_acc_g,inertial_x_rate_rps,inertial_y_rate_rps,inertial_z_rate_rps,pse_pitch_deg,pse_pitch_rate_dps,pse_roll_deg,pse_roll_rate_dps,pse_yaw_rate_dps,pse_data_is_valid,yaw_rate_limit_rps,vel_limit_mps,linear_accel_mps2,linear_vel_mps,differential_wheel_vel_rps,right_front_vel_mps,left_front_vel_mps,right_rear_vel_mps,left_rear_vel_mps,right_front_pos_m,left_front_pos_m,right_rear_pos_m,left_rear_pos_m,linear_pos_m,right_front_current_A0pk,left_front_current_A0pk,right_rear_current_A0pk,left_rear_current_A0pk,max_motor_current_A0pk,right_front_current_limit_A0pk,left_front_current_limit_A0pk,right_rear_current_limit_A0pk,left_rear_current_limit_A0pk,min_motor_current_limit_A0pk,front_base_batt_1_soc,front_base_batt_2_soc,rear_base_batt_1_soc,rear_base_batt_2_soc,front_base_batt_1_temp_degC,front_base_batt_2_temp_degC,rear_base_batt_1_temp_degC,rear_base_batt_2_temp_degC,vel_target_mps,yaw_rate_target_rps,angle_target_deg,aux_batt_voltage_V,aux_batt_current_A,aux_batt_temp_degC,abb_system_status,aux_batt_status,aux_batt_faults,7p2V_battery_voltage,ccu_sp_sw_build_id,ccu_uip_sw_build_id,mcu_0_inst_power_W,mcu_1_inst_power_W,mcu_2_inst_power_W,mcu_3_inst_power_W,mcu_0_total_energy_Wh,mcu_1_total_energy_Wh,mcu_2_total_energy_Wh,mcu_3_total_energy_Wh,fram_vel_limit_mps,fram_accel_limit_mps2,fram_decel_limit_mps2,fram_dtz_decel_limit_mps2,fram_coastdown_decel_mps2,fram_yaw_rate_limit_rps,fram_yaw_accel_limit_rps2,fram_tire_diameter_m,fram_wheelbase_length_m,fram_wheel_track_width_m,fram_transmission_ratio,fram_config_bitmap,fram_eth_ip_address,fram_eth_port_number,fram_eth_subnet_mask,fram_eth_gateway,user_feedback_bitmap_1,user_feedback_bitmap_2,user_feedback_bitmap_3,user_feedback_bitmap_4,
0.072459936142,0x00000000,0x00000000,0x00000000,0x00000000,0x00000000,0x00000000,0x00000000,0x00000000,22.47,3,0x00000000,96.094,97.255,0.0,-0.023,-0.02,-0.013,-0.009,-1.178,-0.402,-0.49,-0.215,-0.874,0x00000003,0.0,0.0,0.007,-0.0,0.002,0.0,0.0,0.0,0.0,0.0,0.0,0.0,0.0,0.0,0.75,0.928,0.0,0.0,0.928,34.991,34.991,0.0,0.0,0.0,96.484,96.094,0.0,0.0,26.375,26.25,0.0,0.0,0.0,0.0,90.0,76.703,0.109,27.5,0x00000000,0x00000000,0x00000000,0.0,1246,1279,4.878,9.296,0.0,0.0,0.022,0.034,0.0,0.0,1.0,0.981,0.981,0.981,0.196,1.0,1.0,0.462,0.584,0.57,24.267,0x00000101,192.168.0.40,8080,255.255.255.0,192.168.0.1,0xFFFFFFFF,0xFFFFFFFF,0xFFFFFFFF,0x00000000,
0.122526884079,0x00000000,0x00000000,0x00000000,0x00000000,0x00000000,0x00000000,0x00000000,0x00000000,22.52,3,0x00000000,96.094,97.255,-0.0,-0.023,-0.02,-0.03,-0.024,-1.188,0.017,-0.473,0.895,-0.878,0x00000003,0.0,0.0,0.002,-0.0,0.001,-0.0,0.0,0.0,0.0,0.0,0.0,0.0,0.0,0.0,0.852,0.928,0.0,0.0,0.928,34.991,34.991,0.0,0.0,0.0,96.484,96.094,0.0,0.0,26.375,26.25,0.0,0.0,0.0,0.0,90.0,76.703,0.109,27.5,0x00000000,0x00000000,0x00000000,0.0,1246,1279,4.785,9.89,0.0,0.0,0.022,0.034,0.0,0.0,1.0,0.981,0.981,0.981,0.196,1.0,1.0,0.462,0.584,0.57,24.267,0x00000101,192.168.0.40,8080,255.255.255.0,192.168.0.1,0xFFFFFFFF,0xFFFFFFFF,0xFFFFFFFF,0x00000000,
0.172494888306,0x00000000,0x00000000,0x00000000,0x00000000,0x00000000,0x00000000,0x00000000,0x00000000,22.57,3,0x00000000,96.094,97.255,-0.002,-0.022,-0.007,-0.008,-0.006,-1.204,-0.454,-0.467,0.893,-1.565,0x00000003,0.0,0.0,-0.015,-0.0,0.002,-0.002,0.0,0.0,0.0,0.0,0.0,0.0,0.0,0.0,0.75,0.712,0.0,0.0,0.75,34.991,34.991,0.0,0.0,0.0,96.484,96.094,0.0,0.0,26.375,26.25,0.0,0.0,0.0,0.0,90.0,76.703,0.109,27.5,0x00000000,0x00000000,0x00000000,0.0,1246,1279,5.301,11.957,0.0,0.0,0.022,0.034,0.0,0.0,1.0,0.981,0.981,0.981,0.196,1.0,1.0,0.462,0.584,0.57,24.267,0x00000101,192.168.0.40,8080,255.255.255.0,192.168.0.1,0xFFFFFFFF,0xFFFFFFFF,0xFFFFFFFF,0x00000000,
0.22255897522,0x00000000,0x00000000,0x00000000,0x00000000,0x00000000,0x00000000,0x00000000,0x00000000,22.62,3,0x00000000,96.094,97.255,0.0,-0.024,-0.011,-0.021,-0.012,-1.204,0.149,-0.474,-0.324,0.865,0x00000003,0.0,0.0,0.007,-0.001,0.003,-0.001,0.001,0.0,0.0,0.0,0.0,0.0,0.0,0.0,0.725,1.043,0.0,0.0,1.043,34.991,34.991,0.0,0.0,0.0,96.484,96.094,0.0,0.0,26.375,26.25,0.0,0.0,0.0,0.0,90.0,76.703,0.109,27.5,0x00000000,0x00000000,0x00000000,0.0,1246,1279,4.804,9.666,0.0,0.0,0.022,0.034,0.0,0.0,1.0,0.981,0.981,0.981,0.196,1.0,1.0,0.462,0.584,0.57,24.267,0x00000101,192.168.0.40,8080,255.255.255.0,192.168.0.1,0xFFFFFFFF,0xFFFFFFFF,0xFFFFFFFF,0x00000000,
0.272613048553,0x00000000,0x00000000,0x00000000,0x00000000,0x00000000,0x00000000,0x00000000,0x00000000,22.67,3,0x00000000,96.094,97.255,-0.001,-0.022,-0.014,-0.008,-0.007,-1.197,0.759,-0.463,0.163,0.512,0x00000003,0.0,0.0,0.004,-0.0,0.003,-0.001,0.001,0.0,0.0,0.0,0.0,0.0,0.0,0.0,0.75,0.915,0.0,0.0,0.915,34.991,34.991,0.0,0.0,0.0,96.484,96.094,0.0,0.0,26.375,26.25,0.0,0.0,0.0,0.0,90.0,76.703,0.109,27.5,0x00000000,0x00000000,0x00000000,0.0,1246,1279,5.121,9.567,0.0,0.0,0.022,0.034,0.0,0.0,1.0,0.981,0.981,0.981,0.196,1.0,1.0,0.462,0.584,0.57,24.267,0x00000101,192.168.0.40,8080,255.255.255.0,192.168.0.1,0xFFFFFFFF,0xFFFFFFFF,0xFFFFFFFF,0x00000000,
0.322695970535,0x00000000,0x00000000,0x00000000,0x00000000,0x00000000,0x00000000,0x00000000,0x00000000,22.72,3,0x00000000,96.094,97.255,0.001,-0.024,-0.021,-0.021,-0.006,-1.211,-0.407,-0.45,0.161,-1.221,0x00000003,0.0,0.0,0.002,-0.0,0.002,-0.0,0.0,0.0,0.0,0.0,0.0,0.0,0.0,0.0,0.75,1.043,0.0,0.0,1.043,34.991,34.991,0.0,0.0,0.0,96.484,96.094,0.0,0.0,26.375,26.25,0.0,0.0,0.0,0.0,90.0,76.703,0.109,27.5,0x00000000,0x00000000,0x00000000,0.0,1246,1279,4.796,5.804,0.0,0.0,0.022,0.034,0.0,0.0,1.0,0.981,0.981,0.981,0.196,1.0,1.0,0.462,0.584,0.57,24.267,0x00000101,192.168.0.40,8080,255.255.255.0,192.168.0.1,0xFFFFFFFF,0xFFFFFFFF,0xFFFFFFFF,0x00000000,
1.12398099899,0x00000000,0x00000000,0x00000000,0x00000000,0x00000000,0x00000000,0x00000000,0x00000000,23.52,3,0x00000000,96.094,97.255,-0.0,-0.024,-0.014,-0.021,-0.006,-1.274,0.61,-0.371,0.153,-1.884,0x00000003,0.0,0.0,-0.005,-0.0,0.001,-0.001,0.0,0.0,0.0,0.0,0.0,0.0,0.0,0.0,0.75,0.826,0.0,0.0,0.826,34.991,34.991,0.0,0.0,0.0,96.484,96.094,0.0,0.0,26.375,26.25,0.0,0.0,0.0,0.0,90.0,76.711,0.109,27.5,0x00000000,0x00000000,0x00000000,0.0,1246,1279,6.024,7.329,0.0,0.0,0.023,0.036,0.0,0.0,1.0,0.981,0.981,0.981,0.196,1.0,1.0,0.462,0.584,0.57,24.267,0x00000101,192.168.0.40,8080,255.255.255.0,192.168.0.1,0xFFFFFFFF,0xFFFFFFFF,0xFFFFFFFF,0x00000000,
1.17405295372,0x00000000,0x00000000,0x00000000,0x00000000,0x00000000,0x00000000,0x00000000,0x00000000,23.57,3,0x00000000,96.094,97.255,-0.001,-0.024,-0.013,-0.012,-0.019,-1.267,0.619,-0.372,-0.313,0.196,0x00000003,0.0,0.0,0.012,0.0,0.002,-0.0,0.002,0.0,0.0,0.0,0.0,0.0,0.0,0.0,0.75,0.61,0.0,0.0,0.75,34.991,34.991,0.0,0.0,0.0,96.484,96.094,0.0,0.0,26.375,26.25,0.0,0.0,0.0,0.0,90.0,76.711,0.109,27.5,0x00000000,0x00000000,0x00000000,0.0,1246,1279,5.39,8.831,0.0,0.0,0.023,0.036,0.0,0.0,1.0,0.981,0.981,0.981,0.196,1.0,1.0,0.462,0.584,0.57,24.267,0x00000101,192.168.0.40,8080,255.255.255.0,192.168.0.1,0xFFFFFFFF,0xFFFFFFFF,0xFFFFFFFF,0x00000000,
1.22413301468,0x00000000,0x00000000,0x00000000,0x00000000,0x00000000,0x00000000,0x00000000,0x00000000,23.62,3,0x00000000,96.094,97.255,-0.001,-0.023,-0.012,-0.017,-0.031,-1.263,-0.2,-0.372,0.187,-0.504,0x00000003,0.0,0.0,-0.007,-0.0,0.002,-0.001,0.0,0.0,0.0,0.0,0.0,0.0,0.0,0.0,1.691,0.102,0.0,0.0,1.691,34.991,34.991,0.0,0.0,0.0,96.484,96.094,0.0,0.0,26.375,26.25,0.0,0.0,0.0,0.0,90.0,76.711,0.109,27.5,0x00000000,0x00000000,0x00000000,0.0,1246,1279,7.673,8.896,0.0,0.0,0.023,0.037,0.0,0.0,1.0,0.981,0.981,0.981,0.196,1.0,1.0,0.462,0.584,0.57,24.267,0x00000101,192.168.0.40,8080,255.255.255.0,192.168.0.1,0xFFFFFFFF,0xFFFFFFFF,0xFFFFFFFF,0x00000000,
1.27420592308,0x00000000,0x00000000,0x00000000,0x00000000,0x00000000,0x00000000,0x00000000,0x00000000,23.67,3,0x00000000,96.094,97.255,0.0,-0.022,-0.015,-0.013,-0.0,-1.268,-0.084,-0.369,-0.052,0.548,0x00000003,0.0,0.0,0.0,0.0,0.002,-0.0,0.001,0.0,0.0,0.0,0.0,0.0,0.0,0.0,0.75,0.737,0.0,0.0,0.75,34.991,34.991,0.0,0.0,0.0,96.484,96.094,0.0,0.0,26.375,26.25,0.0,0.0,0.0,0.0,90.0,76.711,0.109,27.5,0x00000000,0x00000000,0x00000000,0.0,1246,1279,7.317,8.344,0.0,0.0,0.023,0.037,0.0,0.0,1.0,0.981,0.981,0.981,0.196,1.0,1.0,0.462,0.584,0.57,24.267,0x00000101,192.168.0.40,8080,255.255.255.0,192.168.0.1,0xFFFFFFFF,0xFFFFFFFF,0xFFFFFFFF,0x00000000,
1.32431483269,0x00000000,0x00000000,0x00000000,0x00000000,0x00000000,0x00000000,0x00000000,0x00000000,23.72,3,0x00000000,96.094,97.255,0.0,-0.023,-0.007,-0.013,-0.025,-1.268,0.29,-0.358,0.662,-1.533,0x00000003,0.0,0.0,-0.013,-0.0,0.002,-0.002,0.0,0.0,0.0,0.0,0.0,0.0,0.0,0.0,0.865,1.03,0.0,0.0,1.03,34.991,34.991,0.0,0.0,0.0,96.484,96.094,0.0,0.0,26.375,26.25,0.0,0.0,0.0,0.0,90.0,76.711,0.109,27.5,0x00000000,0x00000000,0x00000000,0.0,1246,1279,5.23,12.146,0.0,0.0,0.024,0.037,0.0,0.0,1.0,0.981,0.981,0.981,0.196,1.0,1.0,0.462,0.584,0.57,24.267,0x00000101,192.168.0.40,8080,255.255.255.0,192.168.0.1,0xFFFFFFFF,0xFFFFFFFF,0xFFFFFFFF,0x00000000,
2.12557792664,0x00000000,0x00000000,0x00000000,0x00000000,0x00000000,0x00000000,0x00000000,0x00000000,24.52,3,0x00000000,96.094,97.255,-0.001,-0.023,-0.01,0.0,-0.019,-1.316,0.468,-0.29,0.176,-1.504,0x00000003,0.0,0.0,0.005,0.0,0.001,-0.0,0.001,0.0,0.0,0.0,0.0,0.0,0.0,0.0,0.661,0.928,0.0,0.0,0.928,34.991,34.991,0.0,0.0,0.0,96.484,96.094,0.0,0.0,26.375,26.25,0.0,0.0,0.0,0.0,90.0,76.719,0.109,27.5,0x00000000,0x00000000,0x00000000,0.0,1246,1279,4.772,7.254,0.0,0.0,0.025,0.039,0.0,0.0,1.0,0.981,0.981,0.981,0.196,1.0,1.0,0.462,0.584,0.57,24.267,0x00000101,192.168.0.40,8080,255.255.255.0,192.168.0.1,0xFFFFFFFF,0xFFFFFFFF,0xFFFFFFFF,0x00000000,
2.17565393448,0x00000000,0x00000000,0x00000000,0x00000000,0x00000000,0x00000000,0x00000000,0x00000000,24.57,3,0x00000000,96.094,97.255,-0.0,-0.022,-0.01,-0.026,-0.012,-1.315,0.398,-0.274,-0.553,-0.816,0x00000003,0.0,0.0,-0.001,0.0,0.001,-0.0,0.0,0.0,0.0,0.0,0.0,0.0,0.0,0.0,0.648,0.839,0.0,0.0,0.839,34.991,34.991,0.0,0.0,0.0,96.484,96.094,0.0,0.0,26.375,26.25,0.0,0.0,0.0,0.0,90.0,76.719,0.109,27.5,0x00000000,0x00000000,0x00000000,0.0,1246,1279,4.946,7.052,0.0,0.0,0.025,0.039,0.0,0.0,1.0,0.981,0.981,0.981,0.196,1.0,1.0,0.462,0.584,0.57,24.267,0x00000101,192.168.0.40,8080,255.255.255.0,192.168.0.1,0xFFFFFFFF,0xFFFFFFFF,0xFFFFFFFF,0x00000000,
2.22572302818,0x00000000,0x00000000,0x00000000,0x00000000,0x00000000,0x00000000,0x00000000,0x00000000,24.62,3,0x00000000,96.094,97.255,-0.001,-0.024,-0.017,0.005,-0.006,-1.324,-0.213,-0.289,-1.038,-0.464,0x00000003,0.0,0.0,-0.001,0.0,0.001,-0.0,0.0,0.0,0.0,0.0,0.0,0.0,0.0,0.0,0.75,0.928,0.0,0.0,0.928,34.991,34.991,0.0,0.0,0.0,96.484,96.094,0.0,0.0,26.375,26.25,0.0,0.0,0.0,0.0,90.0,76.719,0.109,27.5,0x00000000,0x00000000,0x00000000,0.0,1246,1279,4.773,8.083,0.0,0.0,0.025,0.039,0.0,0.0,1.0,0.981,0.981,0.981,0.196,1.0,1.0,0.462,0.584,0.57,24.267,0x00000101,192.168.0.40,8080,255.255.255.0,192.168.0.1,0xFFFFFFFF,0xFFFFFFFF,0xFFFFFFFF,0x00000000,
2.27580285072,0x00000000,0x00000000,0x00000000,0x00000000,0x00000000,0x00000000,0x00000000,0x00000000,24.67,3,0x00000000,96.094,97.255,0.0,-0.022,-0.006,-0.026,-0.0,-1.33,-0.353,-0.288,-0.789,-0.461,0x00000003,0.0,0.0,0.001,0.0,0.001,-0.0,0.0,0.0,0.0,0.0,0.0,0.0,0.0,0.0,2.009,1.132,0.0,0.0,2.009,34.991,34.991,0.0,0.0,0.0,96.484,96.094,0.0,0.0,26.375,26.25,0.0,0.0,0.0,0.0,90.0,76.719,0.109,27.5,0x00000000,0x00000000,0x00000000,0.0,1246,1279,6.585,9.318,0.0,0.0,0.025,0.039,0.0,0.0,1.0,0.981,0.981,0.981,0.196,1.0,1.0,0.462,0.584,0.57,24.267,0x00000101,192.168.0.40,8080,255.255.255.0,192.168.0.1,0xFFFFFFFF,0xFFFFFFFF,0xFFFFFFFF,0x00000000,
2.32589888573,0x00000000,0x00000000,0x00000000,0x00000000,0x00000000,0x00000000,0x00000000,0x00000000,24.72,3,0x00000000,96.094,97.255,-0.001,-0.024,-0.024,-0.013,0.006,-1.327,0.021,-0.275,0.195,-0.811,0x00000003,0.0,0.0,0.004,0.0,0.001,-0.0,0.001,0.0,0.0,0.0,0.0,0.0,0.0,0.0,1.284,1.844,0.0,0.0,1.844,34.991,34.991,0.0,0.0,0.0,96.484,96.094,0.0,0.0,26.375,26.25,0.0,0.0,0.0,0.0,90.0,76.719,0.109,27.5,0x00000000,0x00000000,0x00000000,0.0,1246,1279,4.844,8.718,0.0,0.0,0.025,0.039,0.0,0.0,1.0,0.981,0.981,0.981,0.196,1.0,1.0,0.462,0.584,0.57,24.267,0x00000101,192.168.0.40,8080,255.255.255.0,192.168.0.1,0xFFFFFFFF,0xFFFFFFFF,0xFFFFFFFF,0x00000000,
3.12717986107,0x00000000,0x00000000,0x00000000,0x00000000,0x00000000,0x00000000,0x00000000,0x00000000,25.52,3,0x00000000,96.094,97.255,-0.001,-0.023,-0.017,-0.03,-0.006,-1.302,0.379,-0.224,-0.298,-1.136,0x00000003,0.0,0.0,-0.0,0.0,0.001,0.0,0.0,0.0,0.0,0.0,0.0,0.0,0.0,0.0,0.852,0.826,0.0,0.0,0.852,34.991,34.991,0.0,0.0,0.0,96.484,96.094,0.0,0.0,26.375,26.25,0.0,0.0,0.0,0.0,90.0,76.703,0.109,27.5,0x00000000,0x00000000,0x00000000,0.0,1246,1279,5.952,5.312,0.0,0.0,0.026,0.041,0.0,0.0,1.0,0.981,0.981,0.981,0.196,1.0,1.0,0.462,0.584,0.57,24.267,0x00000101,192.168.0.40,8080,255.255.255.0,192.168.0.1,0xFFFFFFFF,0xFFFFFFFF,0xFFFFFFFF,0x00000000,
3.1772339344,0x00000000,0x00000000,0x00000000,0x00000000,0x00000000,0x00000000,0x00000000,0x00000000,25.57,3,0x00000000,96.094,97.255,-0.001,-0.023,-0.018,-0.012,-0.018,-1.308,0.039,-0.223,0.46,-0.443,0x00000003,0.0,0.0,-0.004,0.0,0.001,-0.0,0.0,0.0,0.0,0.0,0.0,0.0,0.0,0.0,0.648,0.839,0.0,0.0,0.839,34.991,34.991,0.0,0.0,0.0,96.484,96.094,0.0,0.0,26.375,26.25,0.0,0.0,0.0,0.0,90.0,76.703,0.109,27.5,0x00000000,0x00000000,0x00000000,0.0,1246,1279,4.817,7.013,0.0,0.0,0.026,0.041,0.0,0.0,1.0,0.981,0.981,0.981,0.196,1.0,1.0,0.462,0.584,0.57,24.267,0x00000101,192.168.0.40,8080,255.255.255.0,192.168.0.1,0xFFFFFFFF,0xFFFFFFFF,0xFFFFFFFF,0x00000000,
3.22731590271,0x00000000,0x00000000,0x00000000,0x00000000,0x00000000,0x00000000,0x00000000,0x00000000,25.62,3,0x00000000,96.094,97.255,0.001,-0.024,-0.004,-0.021,-0.0,-1.31,-0.267,-0.208,0.227,0.248,0x00000003,0.0,0.0,0.002,0.0,0.001,0.0,0.0,0.0,0.0,0.0,0.0,0.0,0.0,0.0,0.648,0.928,0.0,0.0,0.928,34.991,34.991,0.0,0.0,0.0,96.484,96.094,0.0,0.0,26.375,26.25,0.0,0.0,0.0,0.0,90.0,76.703,0.109,27.5,0x00000000,0x00000000,0x00000000,0.0,1246,1279,4.948,9.424,0.0,0.0,0.026,0.041,0.0,0.0,1.0,0.981,0.981,0.981,0.196,1.0,1.0,0.462,0.584,0.57,24.267,0x00000101,192.168.0.40,8080,255.255.255.0,192.168.0.1,0xFFFFFFFF,0xFFFFFFFF,0xFFFFFFFF,0x00000000,
3.27739191055,0x00000000,0x00000000,0x00000000,0x00000000,0x00000000,0x00000000,0x00000000,0x00000000,25.67,3,0x00000000,96.094,97.255,-0.0,-0.024,-0.016,-0.017,-0.031,-1.319,0.101,-0.208,0.715,-0.101,0x00000003,0.0,0.0,-0.006,0.0,0.001,-0.001,0.0,0.0,0.0,0.0,0.0,0.0,0.0,0.0,0.75,1.043,0.0,0.0,1.043,34.991,34.991,0.0,0.0,0.0,96.484,96.094,0.0,0.0,26.375,26.25,0.0,0.0,0.0,0.0,90.0,76.703,0.109,27.5,0x00000000,0x00000000,0x00000000,0.0,1246,1279,5.111,9.347,0.0,0.0,0.027,0.041,0.0,0.0,1.0,0.981,0.981,0.981,0.196,1.0,1.0,0.462,0.584,0.57,24.267,0x00000101,192.168.0.40,8080,255.255.255.0,192.168.0.1,0xFFFFFFFF,0xFFFFFFFF,0xFFFFFFFF,0x00000000,
3.32747197151,0x00000000,0x00000000,0x00000000,0x00000000,0x00000000,0x00000000,0x00000000,0x00000000,25.72,3,0x00000000,96.094,97.255,-0.001,-0.021,-0.014,-0.008,-0.019,-1.328,-0.23,-0.198,-0.266,0.245,0x00000003,0.0,0.0,0.007,0.0,0.001,0.001,0.001,0.0,0.0,0.0,0.0,0.0,0.0,0.0,0.648,0.737,0.0,0.0,0.737,34.991,34.991,0.0,0.0,0.0,96.484,96.094,0.0,0.0,26.375,26.25,0.0,0.0,0.0,0.0,90.0,76.703,0.109,27.5,0x00000000,0x00000000,0x00000000,0.0,1246,1279,5.298,7.704,0.0,0.0,0.027,0.041,0.0,0.0,1.0,0.981,0.981,0.981,0.196,1.0,1.0,0.462,0.584,0.57,24.267,0x00000101,192.168.0.40,8080,255.255.255.0,192.168.0.1,0xFFFFFFFF,0xFFFFFFFF,0xFFFFFFFF,0x00000000,
4.12877583504,0x00000000,0x00000000,0x00000000,0x00000000,0x00000000,0x00000000,0x00000000,0x00000000,26.52,3,0x00000000,96.094,97.255,0.0,-0.024,-0.017,-0.025,-0.013,-1.34,0.035,-0.096,0.69,-2.147,0x00000003,0.0,0.0,-0.001,0.0,0.001,0.0,0.0,0.0,0.0,0.0,0.0,0.0,0.0,0.0,0.661,0.928,0.0,0.0,0.928,34.991,34.991,0.0,0.0,0.0,96.484,96.094,0.0,0.0,26.375,26.25,0.0,0.0,0.0,0.0,90.0,76.711,0.109,27.5,0x00000000,0x00000000,0x00000000,0.0,1246,1279,4.913,7.206,0.0,0.0,0.028,0.043,0.0,0.0,1.0,0.981,0.981,0.981,0.196,1.0,1.0,0.462,0.584,0.57,24.267,0x00000101,192.168.0.40,8080,255.255.255.0,192.168.0.1,0xFFFFFFFF,0xFFFFFFFF,0xFFFFFFFF,0x00000000,
4.17882800102,0x00000000,0x00000000,0x00000000,0x00000000,0x00000000,0x00000000,0x00000000,0x00000000,26.57,3,0x00000000,96.094,97.255,0.0,-0.024,-0.014,-0.017,-0.006,-1.339,0.152,-0.092,-0.024,-0.068,0x00000003,0.0,0.0,0.007,0.0,0.001,0.0,0.001,0.0,0.0,0.0,0.0,0.0,0.0,0.0,0.865,0.928,0.0,0.0,0.928,34.991,34.991,0.0,0.0,0.0,96.484,96.094,0.0,0.0,26.375,26.25,0.0,0.0,0.0,0.0,90.0,76.711,0.109,27.5,0x00000000,0x00000000,0x00000000,0.0,1246,1279,4.772,9.097,0.0,0.0,0.028,0.044,0.0,0.0,1.0,0.981,0.981,0.981,0.196,1.0,1.0,0.462,0.584,0.57,24.267,0x00000101,192.168.0.40,8080,255.255.255.0,192.168.0.1,0xFFFFFFFF,0xFFFFFFFF,0xFFFFFFFF,0x00000000,
4.22890591621,0x00000000,0x00000000,0x00000000,0x00000000,0x00000000,0x00000000,0x00000000,0x00000000,26.62,3,0x00000000,96.094,97.255,-0.001,-0.024,-0.01,-0.012,-0.03,-1.343,-0.335,-0.07,0.729,-0.076,0x00000003,0.0,0.0,-0.002,0.0,0.001,-0.0,0.0,0.0,0.0,0.0,0.0,0.0,0.0,0.0,0.661,1.017,0.0,0.0,1.017,34.991,34.991,0.0,0.0,0.0,96.484,96.094,0.0,0.0,26.375,26.25,0.0,0.0,0.0,0.0,90.0,76.711,0.109,27.5,0x00000000,0x00000000,0x00000000,0.0,1246,1279,6.29,8.903,0.0,0.0,0.028,0.044,0.0,0.0,1.0,0.981,0.981,0.981,0.196,1.0,1.0,0.462,0.584,0.57,24.267,0x00000101,192.168.0.40,8080,255.255.255.0,192.168.0.1,0xFFFFFFFF,0xFFFFFFFF,0xFFFFFFFF,0x00000000,
4.27898597717,0x00000000,0x00000000,0x00000000,0x00000000,0x00000000,0x00000000,0x00000000,0x00000000,26.67,3,0x00000000,96.094,97.255,0.0,-0.022,-0.019,-0.017,-0.019,-1.34,-0.002,-0.056,-0.018,-0.075,0x00000003,0.0,0.0,0.001,0.0,0.002,0.0,0.0,0.0,0.0,0.0,0.0,0.0,0.0,0.0,0.559,0.928,0.0,0.0,0.928,34.991,34.991,0.0,0.0,0.0,96.484,96.094,0.0,0.0,26.375,26.25,0.0,0.0,0.0,0.0,90.0,76.711,0.109,27.5,0x00000000,0x00000000,0x00000000,0.0,1246,1279,7.055,9.534,0.0,0.0,0.028,0.044,0.0,0.0,1.0,0.981,0.981,0.981,0.196,1.0,1.0,0.462,0.584,0.57,24.267,0x00000101,192.168.0.40,8080,255.255.255.0,192.168.0.1,0xFFFFFFFF,0xFFFFFFFF,0xFFFFFFFF,0x00000000,
4.32906484604,0x00000000,0x00000000,0x00000000,0x00000000,0x00000000,0x00000000,0x00000000,0x00000000,26.72,3,0x00000000,96.094,97.255,-0.001,-0.024,-0.011,-0.008,-0.043,-1.353,-0.5,-0.052,0.229,-0.418,0x00000003,0.0,0.0,-0.008,-0.0,0.001,-0.001,-0.0,0.0,0.0,0.0,0.0,0.0,0.0,0.0,0.547,1.017,0.0,0.0,1.017,34.991,34.991,0.0,0.0,0.0,96.484,96.094,0.0,0.0,26.375,26.25,0.0,0.0,0.0,0.0,90.0,76.711,0.109,27.5,0x00000000,0x00000000,0x00000000,0.0,1246,1279,4.865,6.971,0.0,0.0,0.028,0.044,0.0,0.0,1.0,0.981,0.981,0.981,0.196,1.0,1.0,0.462,0.584,0.57,24.267,0x00000101,192.168.0.40,8080,255.255.255.0,192.168.0.1,0xFFFFFFFF,0xFFFFFFFF,0xFFFFFFFF,0x00000000,
5.13035798073,0x00000000,0x00000000,0x00000000,0x00000000,0x00000000,0x00000000,0x00000000,0x00000000,27.52,3,0x00000000,96.094,97.255,-0.0,-0.025,-0.015,-0.021,-0.025,-1.315,0.163,-0.05,0.464,-0.732,0x00000003,0.0,0.0,0.003,0.0,0.002,-0.001,0.001,0.0,0.0,0.0,0.0,0.0,0.0,0.0,-0.496,2.352,0.0,0.0,2.352,34.991,34.991,0.0,0.0,0.0,96.484,96.094,0.0,0.0,26.375,26.25,0.0,0.0,0.0,0.0,90.0,76.719,0.109,27.5,0x00000000,0x00000000,0x00000000,0.0,1246,1279,7.16,9.201,0.0,0.0,0.029,0.046,0.0,0.0,1.0,0.981,0.981,0.981,0.196,1.0,1.0,0.462,0.584,0.57,24.267,0x00000101,192.168.0.40,8080,255.255.255.0,192.168.0.1,0xFFFFFFFF,0xFFFFFFFF,0xFFFFFFFF,0x00000000,
5.18042182922,0x00000000,0x00000000,0x00000000,0x00000000,0x00000000,0x00000000,0x00000000,0x00000000,27.57,3,0x00000000,96.094,97.255,-0.001,-0.022,-0.008,-0.004,-0.024,-1.31,0.346,-0.045,-0.521,-0.031,0x00000003,0.0,0.0,0.007,0.0,0.002,-0.0,0.002,0.0,0.0,0.0,0.0,0.0,0.0,0.0,0.458,0.928,0.0,0.0,0.928,34.991,34.991,0.0,0.0,0.0,96.484,96.094,0.0,0.0,26.375,26.25,0.0,0.0,0.0,0.0,90.0,76.719,0.109,27.5,0x00000000,0x00000000,0x00000000,0.0,1246,1279,5.065,6.958,0.0,0.0,0.029,0.046,0.0,0.0,1.0,0.981,0.981,0.981,0.196,1.0,1.0,0.462,0.584,0.57,24.267,0x00000101,192.168.0.40,8080,255.255.255.0,192.168.0.1,0xFFFFFFFF,0xFFFFFFFF,0xFFFFFFFF,0x00000000,
5.23049783707,0x00000000,0x00000000,0x00000000,0x00000000,0x00000000,0x00000000,0x00000000,0x00000000,27.62,3,0x00000000,96.094,97.255,0.001,-0.023,-0.009,-0.017,-0.012,-1.309,-0.104,-0.034,0.009,2.048,0x00000003,0.0,0.0,0.004,0.0,0.002,-0.0,0.001,0.0,0.0,0.0,0.0,0.0,0.0,0.0,0.648,1.017,0.0,0.0,1.017,34.991,34.991,0.0,0.0,0.0,96.484,96.094,0.0,0.0,26.375,26.25,0.0,0.0,0.0,0.0,90.0,76.719,0.109,27.5,0x00000000,0x00000000,0x00000000,0.0,1246,1279,4.792,6.011,0.0,0.0,0.03,0.046,0.0,0.0,1.0,0.981,0.981,0.981,0.196,1.0,1.0,0.462,0.584,0.57,24.267,0x00000101,192.168.0.40,8080,255.255.255.0,192.168.0.1,0xFFFFFFFF,0xFFFFFFFF,0xFFFFFFFF,0x00000000,
5.280575037,0x00000000,0x00000000,0x00000000,0x00000000,0x00000000,0x00000000,0x00000000,0x00000000,27.67,3,0x00000000,96.094,97.255,0.001,-0.021,-0.025,-0.017,-0.025,-1.31,0.036,-0.031,-0.53,-1.073,0x00000003,0.0,0.0,-0.005,0.0,0.002,-0.001,0.001,0.0,0.0,0.0,0.0,0.0,0.0,0.0,0.852,0.928,0.0,0.0,0.928,34.991,34.991,0.0,0.0,0.0,96.484,96.094,0.0,0.0,26.375,26.25,0.0,0.0,0.0,0.0,90.0,76.719,0.109,27.5,0x00000000,0x00000000,0x00000000,0.0,1246,1279,4.962,9.228,0.0,0.0,0.03,0.046,0.0,0.0,1.0,0.981,0.981,0.981,0.196,1.0,1.0,0.462,0.584,0.57,24.267,0x00000101,192.168.0.40,8080,255.255.255.0,192.168.0.1,0xFFFFFFFF,0xFFFFFFFF,0xFFFFFFFF,0x00000000,
5.33066701889,0x00000000,0x00000000,0x00000000,0x00000000,0x00000000,0x00000000,0x00000000,0x00000000,27.72,3,0x00000000,96.094,97.255,-0.001,-0.025,-0.017,-0.026,-0.0,-1.325,-0.38,-0.035,-0.271,-0.73,0x00000003,0.0,0.0,0.006,0.0,0.002,-0.0,0.001,0.0,0.0,0.0,0.0,0.0,0.0,0.0,0.865,0.826,0.0,0.0,0.865,34.991,34.991,0.0,0.0,0.0,96.484,96.094,0.0,0.0,26.375,26.25,0.0,0.0,0.0,0.0,90.0,76.719,0.109,27.5,0x00000000,0x00000000,0x00000000,0.0,1246,1279,5.424,9.548,0.0,0.0,0.03,0.046,0.0,0.0,1.0,0.981,0.981,0.981,0.196,1.0,1.0,0.462,0.584,0.57,24.267,0x00000101,192.168.0.40,8080,255.255.255.0,192.168.0.1,0xFFFFFFFF,0xFFFFFFFF,0xFFFFFFFF,0x00000000,
6.13195800781,0x00000000,0x00000000,0x00000000,0x00000000,0x00000000,0x00000000,0x00000000,0x00000000,28.52,5,0x00000000,96.094,97.255,-0.002,-0.008,0.024,-0.013,-0.024,-0.169,2.693,-0.03,-0.297,-1.047,0x00000003,0.11,0.108,0.003,0.0,0.001,-0.0,0.0,0.0,0.0,0.0,0.0,0.0,0.0,0.0,1.984,2.263,0.0,0.0,2.263,34.991,34.991,0.0,0.0,0.0,96.484,96.094,0.0,0.0,26.375,26.25,0.0,0.0,0.0,0.0,90.0,76.703,0.109,27.5,0x00000000,0x00000000,0x00000000,0.0,1246,1279,5.448,14.01,0.0,0.0,0.031,0.048,0.0,0.0,1.0,0.981,0.981,0.981,0.196,1.0,1.0,0.462,0.584,0.57,24.267,0x00000101,192.168.0.40,8080,255.255.255.0,192.168.0.1,0xFFFFFFFF,0xFFFFFFFF,0xFFFFFFFF,0x00000000,
6.18201088905,0x00000000,0x00000000,0x00000000,0x00000000,0x00000000,0x00000000,0x00000000,0x00000000,28.57,5,0x00000000,96.094,97.255,0.0,-0.015,-0.001,-0.009,0.024,-0.103,0.137,-0.035,-1.002,-1.407,0x00000003,0.16,0.157,0.042,0.001,0.004,-0.0,0.006,0.0,0.0,0.0,0.0,0.0,0.0,0.0,1.666,2.111,0.0,0.0,2.111,34.991,34.991,0.0,0.0,0.0,96.484,96.094,0.0,0.0,26.375,26.25,0.0,0.0,0.0,0.01,90.0,76.703,0.109,27.5,0x00000000,0x00000000,0x00000000,0.0,1246,1279,4.81,8.565,0.0,0.0,0.031,0.048,0.0,0.0,1.0,0.981,0.981,0.981,0.196,1.0,1.0,0.462,0.584,0.57,24.267,0x00000101,192.168.0.40,8080,255.255.255.0,192.168.0.1,0xFFFFFFFF,0xFFFFFFFF,0xFFFFFFFF,0x00000000,
6.23209691048,0x00000000,0x00000000,0x00000000,0x00000000,0x00000000,0x00000000,0x00000000,0x00000000,28.62,5,0x00000000,96.094,97.255,0.002,-0.015,-0.025,-0.004,-0.019,-0.08,0.047,-0.043,0.234,-0.717,0x00000003,0.21,0.206,0.163,0.009,0.021,0.005,0.028,0.0,0.0,0.0,0.001,0.0,0.0,0.0,0.102,1.373,0.0,0.0,1.373,34.991,34.991,0.0,0.0,0.0,96.484,96.094,0.0,0.0,26.375,26.25,0.0,0.0,0.0,0.06,90.0,76.703,0.109,27.5,0x00000000,0x00000000,0x00000000,0.0,1246,1279,4.782,9.519,0.0,0.0,0.031,0.048,0.0,0.0,1.0,0.981,0.981,0.981,0.196,1.0,1.0,0.462,0.584,0.57,24.267,0x00000101,192.168.0.40,8080,255.255.255.0,192.168.0.1,0xFFFFFFFF,0xFFFFFFFF,0xFFFFFFFF,0x00000000,
6.28216791153,0x00000000,0x00000000,0x00000000,0x00000000,0x00000000,0x00000000,0x00000000,0x00000000,28.67,5,0x00000000,96.094,97.255,0.0,-0.003,0.005,-0.026,0.024,-0.083,0.38,-0.006,0.21,1.382,0x00000003,0.26,0.255,0.002,0.012,0.033,0.0,0.023,0.0,0.0,0.0,0.002,0.0,0.0,0.001,-0.788,2.403,0.0,0.0,2.403,34.991,34.991,0.0,0.0,0.0,96.484,96.094,0.0,0.0,26.375,26.25,0.0,0.0,0.0,0.11,90.0,76.703,0.109,27.5,0x00000000,0x00000000,0x00000000,0.0,1246,1279,4.781,9.222,0.0,0.0,0.031,0.049,0.0,0.0,1.0,0.981,0.981,0.981,0.196,1.0,1.0,0.462,0.584,0.57,24.267,0x00000101,192.168.0.40,8080,255.255.255.0,192.168.0.1,0xFFFFFFFF,0xFFFFFFFF,0xFFFFFFFF,0x00000000,
6.33227586746,0x00000000,0x00000000,0x00000000,0x00000000,0x00000000,0x00000000,0x00000000,0x00000000,28.72,5,0x00000000,96.094,97.255,-0.002,0.003,-0.002,-0.026,0.072,-0.041,0.31,-0.003,-0.063,5.174,0x00000003,0.31,0.304,0.139,0.017,0.058,-0.002,0.049,0.0,0.0,0.0,0.004,0.0,0.0,0.002,-1.36,3.319,0.0,0.0,3.319,34.991,34.991,0.0,0.0,0.0,96.484,96.094,0.0,0.0,26.375,26.25,0.0,0.0,0.0,0.16,90.0,76.703,0.109,27.5,0x00000000,0x00000000,0x00000000,0.0,1246,1279,4.962,10.225,0.0,0.0,0.031,0.049,0.0,0.0,1.0,0.981,0.981,0.981,0.196,1.0,1.0,0.462,0.584,0.57,24.267,0x00000101,192.168.0.40,8080,255.255.255.0,192.168.0.1,0xFFFFFFFF,0xFFFFFFFF,0xFFFFFFFF,0x00000000,
7.12351989746,0x00000000,0x00000000,0x00000000,0x00000000,0x00000000,0x00000000,0x00000000,0x00000000,29.51,5,0x00000000,96.094,97.255,-0.0,-0.031,-0.072,-0.001,0.205,-0.064,-3.942,-0.021,0.657,13.443,0x00000003,1.0,1.0,0.247,0.048,0.279,-0.001,0.12,0.0,0.0,-0.065,0.094,0.0,0.0,0.014,-3.458,2.492,0.0,0.0,-3.458,34.991,34.991,0.0,0.0,0.0,96.484,96.094,0.0,0.0,26.375,26.25,0.0,0.0,0.0,0.25,90.0,76.703,0.109,27.5,0x00000000,0x00000000,0x00000000,0.0,1246,1279,6.612,9.68,0.0,0.0,0.034,0.053,0.0,0.0,1.0,0.981,0.981,0.981,0.196,1.0,1.0,0.462,0.584,0.57,24.267,0x00000101,192.168.0.40,8080,255.255.255.0,192.168.0.1,0xFFFFFFFF,0xFFFFFFFF,0xFFFFFFFF,0x00000000,
7.17359900475,0x00000000,0x00000000,0x00000000,0x00000000,0x00000000,0x00000000,0x00000000,0x00000000,29.56,5,0x00000000,96.094,97.255,0.0,-0.007,-0.036,-0.01,0.163,-0.215,-1.882,0.0,1.447,7.568,0x00000003,1.0,1.0,-0.02,0.052,0.229,-0.001,0.104,0.0,0.0,-0.065,0.1,0.0,0.0,0.016,-2.848,3.903,0.0,0.0,3.903,34.991,34.991,0.0,0.0,0.0,96.484,96.094,0.0,0.0,26.375,26.25,0.0,0.0,0.0,0.2,90.0,76.703,0.102,27.5,0x00000000,0x00000000,0x00000000,0.0,1246,1279,4.86,16.409,0.0,0.0,0.034,0.053,0.0,0.0,1.0,0.981,0.981,0.981,0.196,1.0,1.0,0.462,0.584,0.57,24.267,0x00000101,192.168.0.40,8080,255.255.255.0,192.168.0.1,0xFFFFFFFF,0xFFFFFFFF,0xFFFFFFFF,0x00000000,
7.22367286682,0x00000000,0x00000000,0x00000000,0x00000000,0x00000000,0x00000000,0x00000000,0x00000000,29.61,5,0x00000000,96.094,97.255,-0.001,-0.002,-0.046,-0.018,0.151,-0.299,-1.761,0.018,0.713,8.269,0x00000003,1.0,1.0,-0.061,0.047,0.183,-0.0,0.088,0.0,0.0,-0.065,0.104,0.0,0.0,0.018,-1.488,4.895,0.0,0.0,4.895,34.991,34.991,0.0,0.0,0.0,96.484,96.094,0.0,0.0,26.438,26.25,0.0,0.0,0.0,0.15,90.0,76.703,0.102,27.5,0x00000000,0x00000000,0x00000000,0.0,1246,1279,4.785,18.33,0.0,0.0,0.034,0.053,0.0,0.0,1.0,0.981,0.981,0.981,0.196,1.0,1.0,0.462,0.584,0.57,24.267,0x00000101,192.168.0.40,8080,255.255.255.0,192.168.0.1,0xFFFFFFFF,0xFFFFFFFF,0xFFFFFFFF,0x00000000,
7.27374887466,0x00000000,0x00000000,0x00000000,0x00000000,0x00000000,0x00000000,0x00000000,0x00000000,29.66,5,0x00000000,96.094,97.255,0.001,-0.017,-0.077,-0.013,0.096,-0.42,-3.105,0.025,0.748,7.574,0x00000003,1.0,1.0,0.222,0.052,0.18,0.013,0.114,0.0,0.0,-0.064,0.109,0.0,0.0,0.021,-1.17,4.158,0.0,0.0,4.158,34.991,34.991,0.0,0.0,0.0,96.484,96.094,0.0,0.0,26.438,26.25,0.0,0.0,0.0,0.1,90.0,76.703,0.102,27.5,0x00000000,0x00000000,0x00000000,0.0,1246,1279,7.839,19.091,0.0,0.0,0.034,0.053,0.0,0.0,1.0,0.981,0.981,0.981,0.196,1.0,1.0,0.462,0.584,0.57,24.267,0x00000101,192.168.0.40,8080,255.255.255.0,192.168.0.1,0xFFFFFFFF,0xFFFFFFFF,0xFFFFFFFF,0x00000000,
7.32382798195,0x00000000,0x00000000,0x00000000,0x00000000,0x00000000,0x00000000,0x00000000,0x00000000,29.71,5,0x00000000,96.094,97.255,-0.001,-0.018,-0.07,0.005,0.084,-0.574,-3.857,0.03,0.531,6.191,0x00000003,1.0,1.0,0.163,0.065,0.155,0.039,0.107,0.0,0.0,-0.063,0.114,0.0,0.0,0.024,-1.03,2.162,0.0,0.0,2.162,34.991,34.991,0.0,0.0,0.0,96.484,96.094,0.0,0.0,26.438,26.25,0.0,0.0,0.0,0.05,90.0,76.703,0.102,27.5,0x00000000,0x00000000,0x00000000,0.0,1246,1279,5.275,13.054,0.0,0.0,0.035,0.054,0.0,0.0,1.0,0.981,0.981,0.981,0.196,1.0,1.0,0.462,0.584,0.57,24.267,0x00000101,192.168.0.40,8080,255.255.255.0,192.168.0.1,0xFFFFFFFF,0xFFFFFFFF,0xFFFFFFFF,0x00000000,
8.12512993813,0x00000000,0x00000000,0x00000000,0x00000000,0x00000000,0x00000000,0x00000000,0x00000000,30.51,5,0x00000000,96.094,97.255,0.001,-0.02,-0.11,-0.02,-0.019,-1.474,-6.56,0.038,0.1,1.686,0x00000003,1.0,1.0,-0.249,0.08,0.03,0.065,0.07,0.0,0.0,-0.037,0.14,0.0,0.0,0.05,-1.246,-0.725,0.0,0.0,-1.246,34.991,34.991,0.0,0.0,0.0,96.484,96.094,0.0,0.0,26.375,26.25,0.0,0.0,0.0,0.0,90.0,76.703,0.109,27.5,0x00000000,0x00000000,0x00000000,0.0,1246,1279,7.785,9.724,0.0,0.0,0.036,0.056,0.0,0.0,1.0,0.981,0.981,0.981,0.196,1.0,1.0,0.462,0.584,0.57,24.267,0x00000101,192.168.0.40,8080,255.255.255.0,192.168.0.1,0xFFFFFFFF,0xFFFFFFFF,0xFFFFFFFF,0x00000000,
8.17519402504,0x00000000,0x00000000,0x00000000,0x00000000,0x00000000,0x00000000,0x00000000,0x00000000,30.56,5,0x00000000,96.094,97.255,0.0,0.009,-0.018,-0.013,-0.006,-1.702,-1.661,0.063,0.991,-0.359,0x00000003,1.0,1.0,-0.76,0.056,0.015,0.02,0.019,0.0,0.0,-0.035,0.142,0.0,0.0,0.052,-1.704,-0.903,0.0,0.0,-1.704,34.991,34.991,0.0,0.0,0.0,96.484,96.094,0.0,0.0,26.375,26.25,0.0,0.0,0.01,0.0,90.0,76.703,0.109,27.5,0x00000000,0x00000000,0x00000000,0.0,1246,1279,8.512,9.569,0.0,0.0,0.036,0.056,0.0,0.0,1.0,0.981,0.981,0.981,0.196,1.0,1.0,0.462,0.584,0.57,24.267,0x00000101,192.168.0.40,8080,255.255.255.0,192.168.0.1,0xFFFFFFFF,0xFFFFFFFF,0xFFFFFFFF,0x00000000,
8.22526597977,0x00000000,0x00000000,0x00000000,0x00000000,0x00000000,0x00000000,0x00000000,0x00000000,30.61,5,0x00000000,96.094,97.255,0.0,0.032,0.059,-0.022,-0.048,-1.688,3.02,0.056,-0.326,-1.005,0x00000003,1.0,1.0,-0.942,0.017,0.005,-0.026,-0.03,0.0,0.0,-0.035,0.142,0.0,0.0,0.052,-7.896,-6.268,0.0,0.0,-7.896,34.991,34.991,0.0,0.0,0.0,96.484,96.094,0.0,0.0,26.375,26.25,0.0,0.0,0.059,0.0,90.0,76.703,0.102,27.5,0x00000000,0x00000000,0x00000000,0.0,1246,1279,11.634,16.074,0.0,0.0,0.036,0.056,0.0,0.0,1.0,0.981,0.981,0.981,0.196,1.0,1.0,0.462,0.584,0.57,24.267,0x00000101,192.168.0.40,8080,255.255.255.0,192.168.0.1,0xFFFFFFFF,0xFFFFFFFF,0xFFFFFFFF,0x00000000,
8.27534198761,0x00000000,0x00000000,0x00000000,0x00000000,0x00000000,0x00000000,0x00000000,0x00000000,30.66,5,0x00000000,96.094,97.255,-0.003,0.098,0.402,-0.014,-0.028,-1.314,18.081,0.052,0.227,-0.191,0x00000003,1.0,1.0,-2.743,-0.082,-0.005,-0.211,-0.217,0.0,0.0,-0.041,0.136,0.0,0.0,0.046,-12.105,-10.706,0.0,0.0,-12.105,34.991,34.991,0.0,0.0,0.0,96.484,96.094,0.0,0.0,26.375,26.25,0.0,0.0,0.094,0.0,90.0,76.703,0.102,27.5,0x00000000,0x00000000,0x00000000,0.0,1246,1279,31.275,42.743,0.0,0.0,0.036,0.057,0.0,0.0,1.0,0.981,0.981,0.981,0.196,1.0,1.0,0.462,0.584,0.57,24.267,0x00000101,192.168.0.40,8080,255.255.255.0,192.168.0.1,0xFFFFFFFF,0xFFFFFFFF,0xFFFFFFFF,0x00000000,
8.32543182373,0x00000000,0x00000000,0x00000000,0x00000000,0x00000000,0x00000000,0x00000000,0x00000000,30.71,5,0x00000000,96.094,97.255,-0.003,0.205,0.789,-0.019,-0.043,0.054,42.648,0.047,0.39,-1.388,0x00000003,1.0,1.0,-3.552,-0.254,-0.002,-0.426,-0.425,0.0,0.0,-0.058,0.118,0.0,0.0,0.028,-4.247,-3.242,0.0,0.0,-4.247,34.991,34.991,0.0,0.0,0.0,96.484,96.094,0.0,0.0,26.438,26.25,0.0,0.0,0.098,0.0,90.0,76.703,0.102,27.5,0x00000000,0x00000000,0x00000000,0.0,1246,1279,35.323,31.848,0.0,0.0,0.037,0.057,0.0,0.0,1.0,0.981,0.981,0.981,0.196,1.0,1.0,0.462,0.584,0.57,24.267,0x00000101,192.168.0.40,8080,255.255.255.0,192.168.0.1,0xFFFFFFFF,0xFFFFFFFF,0xFFFFFFFF,0x00000000,
9.12671303749,0x00000000,0x00000000,0x00000000,0x00000000,0x00000000,0x00000000,0x00000000,0x00000000,31.51,5,0x00000000,96.094,97.255,0.002,-0.04,-0.208,-0.019,-0.002,-4.759,-16.31,0.01,0.95,-0.086,0x00000003,1.0,1.0,-2.1,0.276,0.014,0.174,0.175,0.0,0.0,0.069,0.248,0.0,0.0,0.157,-7.12,-9.028,0.0,0.0,-9.028,34.991,34.991,0.0,0.0,0.0,96.484,96.094,0.0,0.0,26.438,26.25,0.0,0.0,0.0,0.0,90.0,76.703,0.102,27.5,0x00000000,0x00000000,0x00000000,0.0,1246,1279,0.494,5.832,0.0,0.0,0.04,0.061,0.0,0.0,1.0,0.981,0.981,0.981,0.196,1.0,1.0,0.462,0.584,0.57,24.267,0x00000101,192.168.0.40,8080,255.255.255.0,192.168.0.1,0xFFFFFFFF,0xFFFFFFFF,0xFFFFFFFF,0x00000000,
9.17678904533,0x00000000,0x00000000,0x00000000,0x00000000,0x00000000,0x00000000,0x00000000,0x00000000,31.56,5,0x00000000,96.094,97.255,-0.004,0.098,0.114,-0.04,-0.042,-5.194,4.323,0.014,0.239,0.748,0x00000003,1.0,1.0,-3.039,0.132,0.005,-0.013,-0.016,0.0,0.0,0.072,0.25,0.0,0.0,0.159,-5.099,-5.976,0.0,0.0,-5.976,34.991,34.991,0.0,0.0,0.0,96.484,96.094,0.0,0.0,26.438,26.25,0.0,0.0,0.0,0.01,90.0,76.703,0.102,27.5,0x00000000,0x00000000,0x00000000,0.0,1246,1279,13.745,16.604,0.0,0.0,0.04,0.061,0.0,0.0,1.0,0.981,0.981,0.981,0.196,1.0,1.0,0.462,0.584,0.57,24.267,0x00000101,192.168.0.40,8080,255.255.255.0,192.168.0.1,0xFFFFFFFF,0xFFFFFFFF,0xFFFFFFFF,0x00000000,
9.22686386108,0x00000000,0x00000000,0x00000000,0x00000000,0x00000000,0x00000000,0x00000000,0x00000000,31.61,5,0x00000000,96.094,97.255,-0.007,0.122,0.257,-0.012,-0.023,-4.754,14.773,-0.028,-0.781,-0.911,0x00000003,1.0,1.0,-2.422,-0.006,0.008,-0.128,-0.118,0.0,0.0,0.068,0.246,0.0,0.0,0.155,-3.433,-3.408,0.0,0.0,-3.433,34.991,34.991,0.0,0.0,0.0,96.484,96.094,0.0,0.0,26.375,26.25,0.0,0.0,0.0,0.06,90.0,76.703,0.102,27.5,0x00000000,0x00000000,0x00000000,0.0,1246,1279,16.149,15.926,0.0,0.0,0.04,0.061,0.0,0.0,1.0,0.981,0.981,0.981,0.196,1.0,1.0,0.462,0.584,0.57,24.267,0x00000101,192.168.0.40,8080,255.255.255.0,192.168.0.1,0xFFFFFFFF,0xFFFFFFFF,0xFFFFFFFF,0x00000000,
9.27693486214,0x00000000,0x00000000,0x00000000,0x00000000,0x00000000,0x00000000,0x00000000,0x00000000,31.66,5,0x00000000,96.094,97.255,-0.005,0.086,0.331,-0.013,0.02,-3.871,19.425,-0.023,0.289,1.201,0x00000003,1.0,1.0,-1.643,-0.099,0.007,-0.186,-0.17,0.0,0.0,0.06,0.239,0.0,0.0,0.148,-4.12,-1.526,0.0,0.0,-4.12,34.991,34.991,0.0,0.0,0.0,96.484,96.094,0.0,0.0,26.375,26.25,0.0,0.0,0.0,0.11,90.0,76.703,0.102,27.5,0x00000000,0x00000000,0x00000000,0.0,1246,1279,10.364,13.256,0.0,0.0,0.04,0.061,0.0,0.0,1.0,0.981,0.981,0.981,0.196,1.0,1.0,0.462,0.584,0.57,24.267,0x00000101,192.168.0.40,8080,255.255.255.0,192.168.0.1,0xFFFFFFFF,0xFFFFFFFF,0xFFFFFFFF,0x00000000,
9.3270149231,0x00000000,0x00000000,0x00000000,0x00000000,0x00000000,0x00000000,0x00000000,0x00000000,31.71,5,0x00000000,96.094,97.255,-0.001,0.048,0.355,-0.036,0.123,-2.795,21.386,-0.029,-0.045,6.069,0x00000003,1.0,1.0,-0.84,-0.158,0.07,-0.237,-0.16,0.0,0.0,0.049,0.231,0.0,0.0,0.138,-2.746,1.373,0.0,0.0,-2.746,34.991,34.991,0.0,0.0,0.0,96.484,96.094,0.0,0.0,26.375,26.25,0.0,0.0,0.0,0.16,90.0,76.703,0.102,27.5,0x00000000,0x00000000,0x00000000,0.0,1246,1279,9.597,9.722,0.0,0.0,0.04,0.061,0.0,0.0,1.0,0.981,0.981,0.981,0.196,1.0,1.0,0.462,0.584,0.57,24.267,0x00000101,192.168.0.40,8080,255.255.255.0,192.168.0.1,0xFFFFFFFF,0xFFFFFFFF,0xFFFFFFFF,0x00000000,
10.1283159256,0x00000000,0x00000000,0x00000000,0x00000000,0x00000000,0x00000000,0x00000000,0x00000000,32.51,5,0x00000000,96.094,97.255,0.004,-0.015,0.063,-0.02,0.182,-0.982,5.934,0.018,0.002,10.43,0x00000003,1.0,1.0,0.2,-0.071,0.288,-0.123,-0.0,0.0,0.0,-0.049,0.295,0.0,0.0,0.121,-2.823,2.619,0.0,0.0,-2.823,34.991,34.991,0.0,0.0,0.0,96.484,96.094,0.0,0.0,26.438,26.25,0.0,0.0,0.0,0.24,90.0,76.703,0.109,27.5,0x00000000,0x00000000,0x00000000,0.0,1246,1279,7.176,9.542,0.0,0.0,0.043,0.065,0.0,0.0,1.0,0.981,0.981,0.981,0.196,1.0,1.0,0.462,0.584,0.57,24.267,0x00000101,192.168.0.40,8080,255.255.255.0,192.168.0.1,0xFFFFFFFF,0xFFFFFFFF,0xFFFFFFFF,0x00000000,
10.1783800125,0x00000000,0x00000000,0x00000000,0x00000000,0x00000000,0x00000000,0x00000000,0x00000000,32.56,5,0x00000000,96.094,97.255,0.0,-0.038,0.026,-0.006,0.139,-0.785,2.547,0.023,-0.741,9.725,0x00000003,1.0,1.0,0.295,-0.059,0.223,-0.09,0.0,0.0,0.0,-0.054,0.295,0.0,0.0,0.118,-3.586,2.568,0.0,0.0,-3.586,34.991,34.991,0.0,0.0,0.0,96.484,96.094,0.0,0.0,26.375,26.25,0.0,0.0,0.0,0.19,90.0,76.703,0.109,27.5,0x00000000,0x00000000,0x00000000,0.0,1246,1279,9.171,8.904,0.0,0.0,0.043,0.065,0.0,0.0,1.0,0.981,0.981,0.981,0.196,1.0,1.0,0.462,0.584,0.57,24.267,0x00000101,192.168.0.40,8080,255.255.255.0,192.168.0.1,0xFFFFFFFF,0xFFFFFFFF,0xFFFFFFFF,0x00000000,
10.2284529209,0x00000000,0x00000000,0x00000000,0x00000000,0x00000000,0x00000000,0x00000000,0x00000000,32.61,5,0x00000000,96.094,97.255,0.005,-0.034,0.019,-0.019,0.127,-0.655,2.469,0.034,0.219,5.918,0x00000003,1.0,1.0,0.194,-0.046,0.167,-0.073,0.0,0.0,0.0,-0.057,0.295,0.0,0.0,0.117,-3.929,1.602,0.0,0.0,-3.929,34.991,34.991,0.0,0.0,0.0,96.484,96.094,0.0,0.0,26.375,26.25,0.0,0.0,0.0,0.14,90.0,76.703,0.109,27.5,0x00000000,0x00000000,0x00000000,0.0,1246,1279,6.106,9.504,0.0,0.0,0.043,0.065,0.0,0.0,1.0,0.981,0.981,0.981,0.196,1.0,1.0,0.462,0.584,0.57,24.267,0x00000101,192.168.0.40,8080,255.255.255.0,192.168.0.1,0xFFFFFFFF,0xFFFFFFFF,0xFFFFFFFF,0x00000000,
10.2785320282,0x00000000,0x00000000,0x00000000,0x00000000,0x00000000,0x00000000,0x00000000,0x00000000,32.66,5,0x00000000,96.094,97.255,0.001,-0.025,0.031,-0.027,0.079,-0.556,2.149,0.022,0.214,5.575,0x00000003,1.0,1.0,0.184,-0.038,0.136,-0.058,0.001,0.0,0.0,-0.06,0.295,0.0,0.0,0.115,-2.2,2.085,0.0,0.0,-2.2,34.991,34.991,0.0,0.0,0.0,96.484,96.094,0.0,0.0,26.375,26.25,0.0,0.0,0.0,0.09,90.0,76.703,0.102,27.5,0x00000000,0x00000000,0x00000000,0.0,1246,1279,5.341,9.531,0.0,0.0,0.043,0.065,0.0,0.0,1.0,0.981,0.981,0.981,0.196,1.0,1.0,0.462,0.584,0.57,24.267,0x00000101,192.168.0.40,8080,255.255.255.0,192.168.0.1,0xFFFFFFFF,0xFFFFFFFF,0xFFFFFFFF,0x00000000,
10.3286118507,0x00000000,0x00000000,0x00000000,0x00000000,0x00000000,0x00000000,0x00000000,0x00000000,32.71,5,0x00000000,96.094,97.255,0.001,-0.034,-0.021,-0.017,-0.013,-0.467,0.626,0.038,0.723,3.491,0x00000003,1.0,1.0,0.382,-0.023,0.084,-0.01,0.0,0.0,0.0,-0.062,0.295,0.0,0.0,0.115,-1.475,2.276,0.0,0.0,2.276,34.991,34.991,0.0,0.0,0.0,96.484,96.094,0.0,0.0,26.375,26.25,0.0,0.0,0.0,0.04,90.0,76.703,0.102,27.5,0x00000000,0x00000000,0x00000000,0.0,1246,1279,5.128,8.371,0.0,0.0,0.043,0.065,0.0,0.0,1.0,0.981,0.981,0.981,0.196,1.0,1.0,0.462,0.584,0.57,24.267,0x00000101,192.168.0.40,8080,255.255.255.0,192.168.0.1,0xFFFFFFFF,0xFFFFFFFF,0xFFFFFFFF,0x00000000,
11.1299338341,0x00000000,0x00000000,0x00000000,0x00000000,0x00000000,0x00000000,0x00000000,0x00000000,33.51,5,0x00000000,96.094,97.255,-0.001,-0.011,-0.009,-0.017,-0.049,-0.871,0.631,0.026,0.226,-0.62,0x00000003,1.0,1.0,-0.014,0.0,0.0,0.0,-0.001,0.0,0.0,-0.062,0.295,0.0,0.0,0.115,-0.979,0.712,0.0,0.0,-0.979,34.991,34.991,0.0,0.0,0.0,96.484,96.094,0.0,0.0,26.375,26.25,0.0,0.0,0.0,0.0,90.0,76.703,0.109,27.5,0x00000000,0x00000000,0x00000000,0.0,1246,1279,5.737,5.442,0.0,0.0,0.044,0.067,0.0,0.0,1.0,0.981,0.981,0.981,0.196,1.0,1.0,0.462,0.584,0.57,24.267,0x00000101,192.168.0.40,8080,255.255.255.0,192.168.0.1,0xFFFFFFFF,0xFFFFFFFF,0xFFFFFFFF,0x00000000,
11.1799750328,0x00000000,0x00000000,0x00000000,0x00000000,0x00000000,0x00000000,0x00000000,0x00000000,33.56,5,0x00000000,96.094,97.255,-0.0,-0.009,-0.0,-0.03,-0.0,-0.839,0.761,0.032,-0.024,-0.26,0x00000003,1.0,1.0,-0.002,0.0,0.0,-0.0,-0.0,0.0,0.0,-0.062,0.295,0.0,0.0,0.115,-0.178,0.954,0.0,0.0,0.954,34.991,34.991,0.0,0.0,0.0,96.484,96.094,0.0,0.0,26.375,26.25,0.0,0.0,0.01,0.0,90.0,76.703,0.109,27.5,0x00000000,0x00000000,0x00000000,0.0,1246,1279,4.808,8.542,0.0,0.0,0.045,0.067,0.0,0.0,1.0,0.981,0.981,0.981,0.196,1.0,1.0,0.462,0.584,0.57,24.267,0x00000101,192.168.0.40,8080,255.255.255.0,192.168.0.1,0xFFFFFFFF,0xFFFFFFFF,0xFFFFFFFF,0x00000000,
11.2300460339,0x00000000,0x00000000,0x00000000,0x00000000,0x00000000,0x00000000,0x00000000,0x00000000,33.61,5,0x00000000,96.094,97.255,-0.001,-0.013,0.004,-0.026,-0.018,-0.804,0.707,0.023,-0.771,-1.651,0x00000003,1.0,1.0,-0.277,-0.005,-0.011,-0.008,-0.029,0.0,0.0,-0.062,0.295,0.0,0.0,0.115,-6.777,-4.437,0.0,0.0,-6.777,34.991,34.991,0.0,0.0,0.0,96.484,96.094,0.0,0.0,26.375,26.25,0.0,0.0,0.059,0.0,90.0,76.703,0.109,27.5,0x00000000,0x00000000,0x00000000,0.0,1246,1279,9.147,9.489,0.0,0.0,0.045,0.067,0.0,0.0,1.0,0.981,0.981,0.981,0.196,1.0,1.0,0.462,0.584,0.57,24.267,0x00000101,192.168.0.40,8080,255.255.255.0,192.168.0.1,0xFFFFFFFF,0xFFFFFFFF,0xFFFFFFFF,0x00000000,
11.2801229954,0x00000000,0x00000000,0x00000000,0x00000000,0x00000000,0x00000000,0x00000000,0x00000000,33.66,5,0x00000000,96.094,97.255,-0.003,0.042,0.251,-0.003,-0.041,-0.66,11.531,0.04,0.324,-1.229,0x00000003,1.0,1.0,-2.091,-0.068,-0.011,-0.162,-0.174,0.0,0.0,-0.066,0.29,0.0,0.0,0.11,-12.918,-10.045,0.0,0.0,-12.918,34.991,34.991,0.0,0.0,0.0,96.484,96.094,0.0,0.0,26.438,26.25,0.0,0.0,0.094,0.0,90.0,76.703,0.102,27.5,0x00000000,0x00000000,0x00000000,0.0,1246,1279,32.006,33.516,0.0,0.0,0.045,0.068,0.0,0.0,1.0,0.981,0.981,0.981,0.196,1.0,1.0,0.462,0.584,0.57,24.267,0x00000101,192.168.0.40,8080,255.255.255.0,192.168.0.1,0xFFFFFFFF,0xFFFFFFFF,0xFFFFFFFF,0x00000000,
11.3302240372,0x00000000,0x00000000,0x00000000,0x00000000,0x00000000,0x00000000,0x00000000,0x00000000,33.71,5,0x00000000,96.094,97.255,-0.005,0.163,0.685,-0.022,-0.062,0.303,35.259,0.038,-0.497,0.002,0x00000003,1.0,1.0,-3.301,-0.22,-0.013,-0.374,-0.384,0.0,0.0,-0.081,0.275,0.0,0.0,0.095,-5.633,-4.603,0.0,0.0,-5.633,34.991,34.991,0.0,0.0,0.0,96.484,96.094,0.0,0.0,26.375,26.25,0.0,0.0,0.098,0.0,90.0,76.703,0.102,27.5,0x00000000,0x00000000,0x00000000,0.0,1246,1279,30.582,33.769,0.0,0.0,0.045,0.068,0.0,0.0,1.0,0.981,0.981,0.981,0.196,1.0,1.0,0.462,0.584,0.57,24.267,0x00000101,192.168.0.40,8080,255.255.255.0,192.168.0.1,0xFFFFFFFF,0xFFFFFFFF,0xFFFFFFFF,0x00000000,
12.1315100193,0x00000000,0x00000000,0x00000000,0x00000000,0x00000000,0x00000000,0x00000000,0x00000000,34.51,5,0x00000000,96.094,97.255,0.0,-0.102,-0.492,-0.015,0.011,-4.898,-32.323,-0.008,-0.47,1.255,0x00000003,1.0,1.0,-1.724,0.403,0.016,0.312,0.329,0.0,0.0,0.058,0.415,0.0,0.0,0.235,-10.096,-10.63,0.0,0.0,-10.63,34.991,34.991,0.0,0.0,0.0,96.484,96.094,0.0,0.0,26.438,26.25,0.0,0.0,0.0,0.0,90.0,76.711,0.109,27.5,0x00000000,0x00000000,0x00000000,0.0,1246,1279,-6.922,4.312,0.0,0.0,0.049,0.072,0.0,0.0,1.0,0.981,0.981,0.981,0.196,1.0,1.0,0.462,0.584,0.57,24.267,0x00000101,192.168.0.40,8080,255.255.255.0,192.168.0.1,0xFFFFFFFF,0xFFFFFFFF,0xFFFFFFFF,0x00000000,
12.181566,0x00000000,0x00000000,0x00000000,0x00000000,0x00000000,0x00000000,0x00000000,0x00000000,34.56,5,0x00000000,96.094,97.255,-0.006,0.09,0.014,-0.02,0.003,-6.119,-4.481,-0.015,-0.365,2.149,0x00000003,1.0,1.0,-4.038,0.237,0.02,0.038,0.046,0.0,0.0,0.065,0.423,0.0,0.0,0.242,-7.947,-9.892,0.0,0.0,-9.892,34.991,34.991,0.0,0.0,0.0,96.484,96.094,0.0,0.0,26.375,26.25,0.0,0.0,0.0,0.01,90.0,76.711,0.109,27.5,0x00000000,0x00000000,0x00000000,0.0,1246,1279,16.79,21.252,0.0,0.0,0.049,0.072,0.0,0.0,1.0,0.981,0.981,0.981,0.196,1.0,1.0,0.462,0.584,0.57,24.267,0x00000101,192.168.0.40,8080,255.255.255.0,192.168.0.1,0xFFFFFFFF,0xFFFFFFFF,0xFFFFFFFF,0x00000000,
12.2316439152,0x00000000,0x00000000,0x00000000,0x00000000,0x00000000,0x00000000,0x00000000,0x00000000,34.61,5,0x00000000,96.094,97.255,-0.01,0.194,0.382,-0.009,-0.034,-5.821,18.65,-0.033,0.33,-1.531,0x00000003,1.0,1.0,-3.757,0.033,0.002,-0.143,-0.154,0.0,0.0,0.061,0.418,0.0,0.0,0.238,-5.9,-5.518,0.0,0.0,-5.9,34.991,34.991,0.0,0.0,0.0,96.484,96.094,0.0,0.0,26.375,26.25,0.0,0.0,0.0,0.06,90.0,76.711,0.109,27.5,0x00000000,0x00000000,0x00000000,0.0,1246,1279,20.115,23.717,0.0,0.0,0.049,0.073,0.0,0.0,1.0,0.981,0.981,0.981,0.196,1.0,1.0,0.462,0.584,0.57,24.267,0x00000101,192.168.0.40,8080,255.255.255.0,192.168.0.1,0xFFFFFFFF,0xFFFFFFFF,0xFFFFFFFF,0x00000000,
12.2817158699,0x00000000,0x00000000,0x00000000,0x00000000,0x00000000,0x00000000,0x00000000,0x00000000,34.66,5,0x00000000,96.094,97.255,-0.012,0.166,0.487,0.019,0.052,-4.6,27.805,-0.062,0.369,0.257,0x00000003,1.0,1.0,-2.218,-0.117,0.021,-0.243,-0.206,0.0,0.0,0.051,0.409,0.0,0.0,0.228,-2.645,0.547,0.0,0.0,-2.645,34.991,34.991,0.0,0.0,0.0,96.484,96.094,0.0,0.0,26.438,26.25,0.0,0.0,0.0,0.11,90.0,76.703,0.102,27.5,0x00000000,0x00000000,0x00000000,0.0,1246,1279,10.349,13.258,0.0,0.0,0.049,0.073,0.0,0.0,1.0,0.981,0.981,0.981,0.196,1.0,1.0,0.462,0.584,0.57,24.267,0x00000101,192.168.0.40,8080,255.255.255.0,192.168.0.1,0xFFFFFFFF,0xFFFFFFFF,0xFFFFFFFF,0x00000000,
12.3318140507,0x00000000,0x00000000,0x00000000,0x00000000,0x00000000,0x00000000,0x00000000,0x00000000,34.71,5,0x00000000,96.094,97.255,-0.006,0.072,0.411,-0.007,0.124,-3.129,24.789,-0.025,0.798,8.24,0x00000003,1.0,1.0,-0.514,-0.174,0.076,-0.244,-0.154,0.0,0.0,0.039,0.4,0.0,0.0,0.217,-0.432,2.149,0.0,0.0,2.149,34.991,34.991,0.0,0.0,0.0,96.484,96.094,0.0,0.0,26.438,26.25,0.0,0.0,0.0,0.16,90.0,76.703,0.102,27.5,0x00000000,0x00000000,0x00000000,0.0,1246,1279,5.187,9.692,0.0,0.0,0.05,0.073,0.0,0.0,1.0,0.981,0.981,0.981,0.196,1.0,1.0,0.462,0.584,0.57,24.267,0x00000101,192.168.0.40,8080,255.255.255.0,192.168.0.1,0xFFFFFFFF,0xFFFFFFFF,0xFFFFFFFF,0x00000000,
13.1831688881,0x00000000,0x00000000,0x00000000,0x00000000,0x00000000,0x00000000,0x00000000,0x00000000,35.56,5,0x00000000,96.094,97.255,-0.001,-0.031,0.059,-0.011,0.176,-1.523,4.632,0.048,0.406,13.272,0x00000003,1.0,1.0,0.114,-0.065,0.244,-0.119,0.0,0.0,0.0,-0.039,0.488,0.0,0.0,0.222,-1.971,3.115,0.0,0.0,3.115,34.991,34.991,0.0,0.0,0.0,96.484,96.094,0.0,0.0,26.375,26.25,0.0,0.0,0.0,0.19,90.0,76.703,0.109,27.5,0x00000000,0x00000000,0x00000000,0.0,1246,1279,5.507,9.601,0.0,0.0,0.052,0.077,0.0,0.0,1.0,0.981,0.981,0.981,0.196,1.0,1.0,0.462,0.584,0.57,24.267,0x00000101,192.168.0.40,8080,255.255.255.0,192.168.0.1,0xFFFFFFFF,0xFFFFFFFF,0xFFFFFFFF,0x00000000,
13.233232975,0x00000000,0x00000000,0x00000000,0x00000000,0x00000000,0x00000000,0x00000000,0x00000000,35.61,5,0x00000000,96.094,97.255,0.002,-0.044,0.011,0.003,0.085,-1.316,2.021,0.061,0.31,7.71,0x00000003,1.0,1.0,0.369,-0.049,0.181,-0.064,0.001,0.0,0.0,-0.043,0.488,0.0,0.0,0.221,-2.518,2.696,0.0,0.0,2.696,34.991,34.991,0.0,0.0,0.0,96.484,96.094,0.0,0.0,26.375,26.25,0.0,0.0,0.0,0.14,90.0,76.703,0.109,27.5,0x00000000,0x00000000,0x00000000,0.0,1246,1279,6.003,9.534,0.0,0.0,0.052,0.077,0.0,0.0,1.0,0.981,0.981,0.981,0.196,1.0,1.0,0.462,0.584,0.57,24.267,0x00000101,192.168.0.40,8080,255.255.255.0,192.168.0.1,0xFFFFFFFF,0xFFFFFFFF,0xFFFFFFFF,0x00000000,
13.2833058834,0x00000000,0x00000000,0x00000000,0x00000000,0x00000000,0x00000000,0x00000000,0x00000000,35.66,5,0x00000000,96.094,97.255,0.002,-0.048,-0.013,-0.026,-0.006,-1.243,-0.01,0.061,-0.747,1.475,0x00000003,1.0,1.0,0.461,-0.03,0.109,-0.016,0.001,0.0,0.0,-0.045,0.488,0.0,0.0,0.22,-2.759,2.696,0.0,0.0,-2.759,34.991,34.991,0.0,0.0,0.0,96.484,96.094,0.0,0.0,26.375,26.25,0.0,0.0,0.0,0.09,90.0,76.703,0.109,27.5,0x00000000,0x00000000,0x00000000,0.0,1246,1279,4.834,9.56,0.0,0.0,0.052,0.077,0.0,0.0,1.0,0.981,0.981,0.981,0.196,1.0,1.0,0.462,0.584,0.57,24.267,0x00000101,192.168.0.40,8080,255.255.255.0,192.168.0.1,0xFFFFFFFF,0xFFFFFFFF,0xFFFFFFFF,0x00000000,
13.333384037,0x00000000,0x00000000,0x00000000,0x00000000,0x00000000,0x00000000,0x00000000,0x00000000,35.71,5,0x00000000,96.094,97.255,0.0,-0.041,-0.029,-0.012,-0.006,-1.242,-0.746,0.065,-0.009,-0.266,0x00000003,1.0,1.0,0.268,-0.012,0.047,-0.001,0.002,0.0,0.0,-0.045,0.488,0.0,0.0,0.22,-2.963,3.115,0.0,0.0,3.115,34.991,34.991,0.0,0.0,0.0,96.484,96.094,0.0,0.0,26.375,26.25,0.0,0.0,0.0,0.04,90.0,76.703,0.102,27.5,0x00000000,0x00000000,0x00000000,0.0,1246,1279,4.784,9.562,0.0,0.0,0.052,0.077,0.0,0.0,1.0,0.981,0.981,0.981,0.196,1.0,1.0,0.462,0.584,0.57,24.267,0x00000101,192.168.0.40,8080,255.255.255.0,192.168.0.1,0xFFFFFFFF,0xFFFFFFFF,0xFFFFFFFF,0x00000000,
13.3834650517,0x00000000,0x00000000,0x00000000,0x00000000,0x00000000,0x00000000,0x00000000,0x00000000,35.76,5,0x00000000,96.094,97.255,-0.003,-0.029,-0.037,-0.038,-0.019,-1.292,-1.033,0.046,-0.72,2.17,0x00000003,1.0,1.0,0.105,-0.004,0.02,-0.0,0.001,0.0,0.0,-0.045,0.488,0.0,0.0,0.22,-1.678,3.268,0.0,0.0,3.268,34.991,34.991,0.0,0.0,0.0,96.484,96.094,0.0,0.0,26.375,26.25,0.0,0.0,0.0,0.0,90.0,76.703,0.102,27.5,0x00000000,0x00000000,0x00000000,0.0,1246,1279,4.781,9.562,0.0,0.0,0.052,0.077,0.0,0.0,1.0,0.981,0.981,0.981,0.196,1.0,1.0,0.462,0.584,0.57,24.267,0x00000101,192.168.0.40,8080,255.255.255.0,192.168.0.1,0xFFFFFFFF,0xFFFFFFFF,0xFFFFFFFF,0x00000000,
14.1847589016,0x00000000,0x00000000,0x00000000,0x00000000,0x00000000,0x00000000,0x00000000,0x00000000,36.56,5,0x00000000,96.094,97.255,-0.002,-0.022,-0.004,-0.017,-0.006,-1.704,0.188,0.058,0.194,-1.255,0x00000003,1.0,1.0,0.04,-0.003,-0.007,-0.001,-0.001,0.0,0.0,-0.045,0.487,0.0,0.0,0.22,-2.009,-0.394,0.0,0.0,-2.009,34.991,34.991,0.0,0.0,0.0,96.484,96.094,0.0,0.0,26.438,26.25,0.0,0.0,0.0,0.0,90.0,76.703,0.109,27.5,0x00000000,0x00000000,0x00000000,0.0,1246,1279,7.373,9.563,0.0,0.0,0.054,0.079,0.0,0.0,1.0,0.981,0.981,0.981,0.196,1.0,1.0,0.462,0.584,0.57,24.267,0x00000101,192.168.0.40,8080,255.255.255.0,192.168.0.1,0xFFFFFFFF,0xFFFFFFFF,0xFFFFFFFF,0x00000000,
14.2348089218,0x00000000,0x00000000,0x00000000,0x00000000,0x00000000,0x00000000,0x00000000,0x00000000,36.61,5,0x00000000,96.094,97.255,-0.002,-0.019,0.012,-0.021,-0.036,-1.645,1.369,0.043,-0.284,0.494,0x00000003,1.0,1.0,-0.035,-0.003,-0.003,-0.004,-0.006,0.0,0.0,-0.045,0.487,0.0,0.0,0.22,-1.411,0.127,0.0,0.0,-1.411,34.991,34.991,0.0,0.0,0.0,96.484,96.094,0.0,0.0,26.375,26.25,0.0,0.0,0.01,0.0,90.0,76.703,0.109,27.5,0x00000000,0x00000000,0x00000000,0.0,1246,1279,8.949,9.563,0.0,0.0,0.054,0.079,0.0,0.0,1.0,0.981,0.981,0.981,0.196,1.0,1.0,0.462,0.584,0.57,24.267,0x00000101,192.168.0.40,8080,255.255.255.0,192.168.0.1,0xFFFFFFFF,0xFFFFFFFF,0xFFFFFFFF,0x00000000,
14.2848989964,0x00000000,0x00000000,0x00000000,0x00000000,0x00000000,0x00000000,0x00000000,0x00000000,36.66,5,0x00000000,96.094,97.255,-0.003,-0.027,0.013,-0.013,-0.018,-1.622,0.377,0.041,0.217,0.139,0x00000003,1.0,1.0,-0.366,-0.011,-0.018,-0.017,-0.039,0.0,0.0,-0.045,0.486,0.0,0.0,0.219,-7.006,-5.658,0.0,0.0,-7.006,34.991,34.991,0.0,0.0,0.0,96.484,96.094,0.0,0.0,26.438,26.25,0.0,0.0,0.059,0.0,90.0,76.703,0.109,27.5,0x00000000,0x00000000,0x00000000,0.0,1246,1279,9.761,16.254,0.0,0.0,0.054,0.08,0.0,0.0,1.0,0.981,0.981,0.981,0.196,1.0,1.0,0.462,0.584,0.57,24.267,0x00000101,192.168.0.40,8080,255.255.255.0,192.168.0.1,0xFFFFFFFF,0xFFFFFFFF,0xFFFFFFFF,0x00000000,
14.3349878788,0x00000000,0x00000000,0x00000000,0x00000000,0x00000000,0x00000000,0x00000000,0x00000000,36.71,5,0x00000000,96.094,97.255,-0.007,0.042,0.309,-0.021,-0.04,-1.454,13.381,0.056,0.257,-1.498,0x00000003,1.0,1.0,-2.331,-0.084,-0.012,-0.2,-0.192,0.0,0.0,-0.05,0.481,0.0,0.0,0.214,-14.533,-11.202,0.0,0.0,-14.533,34.991,34.991,0.0,0.0,0.0,96.484,96.094,0.0,0.0,26.438,26.25,0.0,0.0,0.094,0.0,90.0,76.703,0.102,27.5,0x00000000,0x00000000,0x00000000,0.0,1246,1279,37.687,44.162,0.0,0.0,0.054,0.08,0.0,0.0,1.0,0.981,0.981,0.981,0.196,1.0,1.0,0.462,0.584,0.57,24.267,0x00000101,192.168.0.40,8080,255.255.255.0,192.168.0.1,0xFFFFFFFF,0xFFFFFFFF,0xFFFFFFFF,0x00000000,
14.3850388527,0x00000000,0x00000000,0x00000000,0x00000000,0x00000000,0x00000000,0x00000000,0x00000000,36.76,5,0x00000000,96.094,97.255,-0.009,0.177,0.748,-0.023,0.029,-0.315,39.642,0.033,-0.072,2.505,0x00000003,1.0,1.0,-3.574,-0.25,0.003,-0.428,-0.416,0.0,0.0,-0.067,0.464,0.0,0.0,0.197,-5.798,-3.751,0.0,0.0,-5.798,34.991,34.991,0.0,0.0,0.0,96.484,96.094,0.0,0.0,26.375,26.25,0.0,0.0,0.098,0.0,90.0,76.703,0.102,27.5,0x00000000,0x00000000,0x00000000,0.0,1246,1279,32.991,36.125,0.0,0.0,0.055,0.081,0.0,0.0,1.0,0.981,0.981,0.981,0.196,1.0,1.0,0.462,0.584,0.57,24.267,0x00000101,192.168.0.40,8080,255.255.255.0,192.168.0.1,0xFFFFFFFF,0xFFFFFFFF,0xFFFFFFFF,0x00000000,
15.1863529682,0x00000000,0x00000000,0x00000000,0x00000000,0x00000000,0x00000000,0x00000000,0x00000000,37.56,5,0x00000000,96.094,97.255,-0.003,-0.036,-0.172,-0.006,0.004,-4.841,-13.34,0.005,-0.362,-0.305,0x00000003,1.0,1.0,-2.175,0.235,-0.012,0.133,0.127,0.0,0.0,0.044,0.578,0.0,0.0,0.309,-7.743,-9.18,0.0,0.0,-9.18,34.991,34.991,0.0,0.0,0.0,96.484,96.094,0.0,0.0,26.375,26.25,0.0,0.0,0.0,0.0,90.0,76.703,0.102,27.5,0x00000000,0x00000000,0x00000000,0.0,1246,1279,6.656,8.847,0.0,0.0,0.058,0.084,0.0,0.0,1.0,0.981,0.981,0.981,0.196,1.0,1.0,0.462,0.584,0.57,24.267,0x00000101,192.168.0.40,8080,255.255.255.0,192.168.0.1,0xFFFFFFFF,0xFFFFFFFF,0xFFFFFFFF,0x00000000,
15.2364170551,0x00000000,0x00000000,0x00000000,0x00000000,0x00000000,0x00000000,0x00000000,0x00000000,37.61,5,0x00000000,96.094,97.255,-0.002,0.1,0.147,-0.023,-0.048,-5.174,7.274,0.017,0.295,-0.857,0x00000003,1.0,1.0,-3.116,0.088,-0.017,-0.052,-0.073,0.0,0.0,0.044,0.578,0.0,0.0,0.31,-4.984,-6.294,0.0,0.0,-6.294,34.991,34.991,0.0,0.0,0.0,96.484,96.094,0.0,0.0,26.375,26.25,0.0,0.0,0.0,0.01,90.0,76.703,0.102,27.5,0x00000000,0x00000000,0x00000000,0.0,1246,1279,13.989,20.868,0.0,0.0,0.058,0.084,0.0,0.0,1.0,0.981,0.981,0.981,0.196,1.0,1.0,0.462,0.584,0.57,24.267,0x00000101,192.168.0.40,8080,255.255.255.0,192.168.0.1,0xFFFFFFFF,0xFFFFFFFF,0xFFFFFFFF,0x00000000,
15.2864949703,0x00000000,0x00000000,0x00000000,0x00000000,0x00000000,0x00000000,0x00000000,0x00000000,37.66,5,0x00000000,96.094,97.255,-0.004,0.123,0.301,-0.016,-0.059,-4.641,16.956,0.004,0.587,-1.824,0x00000003,1.0,1.0,-2.443,-0.049,-0.023,-0.159,-0.174,0.0,0.0,0.038,0.572,0.0,0.0,0.303,-3.522,-2.212,0.0,0.0,-3.522,34.991,34.991,0.0,0.0,0.0,96.484,96.094,0.0,0.0,26.438,26.25,0.0,0.0,0.0,0.06,90.0,76.703,0.102,27.5,0x00000000,0x00000000,0x00000000,0.0,1246,1279,9.709,16.745,0.0,0.0,0.058,0.085,0.0,0.0,1.0,0.981,0.981,0.981,0.196,1.0,1.0,0.462,0.584,0.57,24.267,0x00000101,192.168.0.40,8080,255.255.255.0,192.168.0.1,0xFFFFFFFF,0xFFFFFFFF,0xFFFFFFFF,0x00000000,
15.3365900517,0x00000000,0x00000000,0x00000000,0x00000000,0x00000000,0x00000000,0x00000000,0x00000000,37.71,5,0x00000000,96.094,97.255,-0.005,0.083,0.336,-0.035,0.032,-3.688,19.881,-0.004,0.328,2.359,0x00000003,1.0,1.0,-1.404,-0.134,0.014,-0.221,-0.183,0.0,0.0,0.029,0.563,0.0,0.0,0.294,-4.259,0.547,0.0,0.0,-4.259,34.991,34.991,0.0,0.0,0.0,96.484,96.094,0.0,0.0,26.375,26.25,0.0,0.0,0.0,0.11,90.0,76.703,0.102,27.5,0x00000000,0x00000000,0x00000000,0.0,1246,1279,9.569,9.873,0.0,0.0,0.058,0.085,0.0,0.0,1.0,0.981,0.981,0.981,0.196,1.0,1.0,0.462,0.584,0.57,24.267,0x00000101,192.168.0.40,8080,255.255.255.0,192.168.0.1,0xFFFFFFFF,0xFFFFFFFF,0xFFFFFFFF,0x00000000,
15.3866519928,0x00000000,0x00000000,0x00000000,0x00000000,0x00000000,0x00000000,0x00000000,0x00000000,37.76,5,0x00000000,96.094,97.255,-0.001,0.034,0.336,-0.024,0.184,-2.636,20.449,-0.025,-0.145,10.337,0x00000003,1.0,1.0,-0.656,-0.181,0.086,-0.255,-0.17,0.0,0.0,0.017,0.555,0.0,0.0,0.284,-2.289,0.025,0.0,0.0,-2.289,34.991,34.991,0.0,0.0,0.0,96.484,96.094,0.0,0.0,26.375,26.25,0.0,0.0,0.0,0.16,90.0,76.703,0.102,27.5,0x00000000,0x00000000,0x00000000,0.0,1246,1279,9.563,9.757,0.0,0.0,0.058,0.085,0.0,0.0,1.0,0.981,0.981,0.981,0.196,1.0,1.0,0.462,0.584,0.57,24.267,0x00000101,192.168.0.40,8080,255.255.255.0,192.168.0.1,0xFFFFFFFF,0xFFFFFFFF,0xFFFFFFFF,0x00000000,
16.177934885,0x00000000,0x00000000,0x00000000,0x00000000,0x00000000,0x00000000,0x00000000,0x00000000,38.55,5,0x00000000,96.094,97.255,-0.001,-0.008,0.081,-0.033,0.212,-0.799,5.598,0.004,0.471,15.372,0x00000003,1.0,1.0,0.032,-0.081,0.309,-0.159,-0.001,0.0,0.0,-0.094,0.604,0.0,0.0,0.253,-3.636,2.759,0.0,0.0,-3.636,34.991,34.991,0.0,0.0,0.0,96.484,96.094,0.0,0.0,26.375,26.25,0.0,0.0,0.0,0.25,90.0,76.703,0.109,27.5,0x00000000,0x00000000,0x00000000,0.0,1246,1279,9.56,9.687,0.0,0.0,0.061,0.089,0.0,0.0,1.0,0.981,0.981,0.981,0.196,1.0,1.0,0.462,0.584,0.57,24.267,0x00000101,192.168.0.40,8080,255.255.255.0,192.168.0.1,0xFFFFFFFF,0xFFFFFFFF,0xFFFFFFFF,0x00000000,
16.2279908657,0x00000000,0x00000000,0x00000000,0x00000000,0x00000000,0x00000000,0x00000000,0x00000000,38.6,5,0x00000000,96.094,97.255,0.001,-0.023,0.043,-0.016,0.224,-0.519,3.986,0.003,-0.088,12.605,0x00000003,1.0,1.0,0.193,-0.073,0.267,-0.128,-0.0,0.0,0.0,-0.101,0.604,0.0,0.0,0.25,-1.615,2.289,0.0,0.0,2.289,34.991,34.991,0.0,0.0,0.0,96.484,96.094,0.0,0.0,26.375,26.25,0.0,0.0,0.0,0.2,90.0,76.703,0.109,27.5,0x00000000,0x00000000,0x00000000,0.0,1246,1279,6.516,9.568,0.0,0.0,0.061,0.089,0.0,0.0,1.0,0.981,0.981,0.981,0.196,1.0,1.0,0.462,0.584,0.57,24.267,0x00000101,192.168.0.40,8080,255.255.255.0,192.168.0.1,0xFFFFFFFF,0xFFFFFFFF,0xFFFFFFFF,0x00000000,
16.2780759335,0x00000000,0x00000000,0x00000000,0x00000000,0x00000000,0x00000000,0x00000000,0x00000000,38.65,5,0x00000000,96.094,97.255,0.003,-0.042,-0.004,-0.027,0.103,-0.392,0.965,0.009,0.424,9.122,0x00000003,1.0,1.0,0.382,-0.057,0.205,-0.078,0.001,0.0,0.0,-0.105,0.604,0.0,0.0,0.247,-1.793,1.895,0.0,0.0,1.895,34.991,34.991,0.0,0.0,0.0,96.484,96.094,0.0,0.0,26.375,26.25,0.0,0.0,0.0,0.15,90.0,76.703,0.109,27.5,0x00000000,0x00000000,0x00000000,0.0,1246,1279,8.277,9.563,0.0,0.0,0.061,0.089,0.0,0.0,1.0,0.981,0.981,0.981,0.196,1.0,1.0,0.462,0.584,0.57,24.267,0x00000101,192.168.0.40,8080,255.255.255.0,192.168.0.1,0xFFFFFFFF,0xFFFFFFFF,0xFFFFFFFF,0x00000000,
16.3281769753,0x00000000,0x00000000,0x00000000,0x00000000,0x00000000,0x00000000,0x00000000,0x00000000,38.7,5,0x00000000,96.094,97.255,-0.001,-0.042,-0.04,-0.013,0.042,-0.403,-0.801,0.007,-0.534,4.272,0x00000003,1.0,1.0,0.264,-0.041,0.146,-0.056,-0.0,0.0,0.0,-0.108,0.604,0.0,0.0,0.246,-3.217,1.271,0.0,0.0,-3.217,34.991,34.991,0.0,0.0,0.0,96.484,96.094,0.0,0.0,26.375,26.25,0.0,0.0,0.0,0.1,90.0,76.703,0.109,27.5,0x00000000,0x00000000,0x00000000,0.0,1246,1279,6.122,9.563,0.0,0.0,0.061,0.089,0.0,0.0,1.0,0.981,0.981,0.981,0.196,1.0,1.0,0.462,0.584,0.57,24.267,0x00000101,192.168.0.40,8080,255.255.255.0,192.168.0.1,0xFFFFFFFF,0xFFFFFFFF,0xFFFFFFFF,0x00000000,
16.3782379627,0x00000000,0x00000000,0x00000000,0x00000000,0x00000000,0x00000000,0x00000000,0x00000000,38.75,5,0x00000000,96.094,97.255,-0.001,-0.025,-0.021,-0.039,0.018,-0.458,-0.56,-0.02,-1.025,2.901,0x00000003,1.0,1.0,0.06,-0.031,0.091,-0.038,-0.019,0.0,0.0,-0.11,0.604,0.0,0.0,0.245,-3.865,0.839,0.0,0.0,-3.865,34.991,34.991,0.0,0.0,0.0,96.484,96.094,0.0,0.0,26.375,26.25,0.0,0.0,0.0,0.05,90.0,76.703,0.102,27.5,0x00000000,0x00000000,0x00000000,0.0,1246,1279,6.664,9.563,0.0,0.0,0.061,0.089,0.0,0.0,1.0,0.981,0.981,0.981,0.196,1.0,1.0,0.462,0.584,0.57,24.267,0x00000101,192.168.0.40,8080,255.255.255.0,192.168.0.1,0xFFFFFFFF,0xFFFFFFFF,0xFFFFFFFF,0x00000000,
17.1795239449,0x00000000,0x00000000,0x00000000,0x00000000,0x00000000,0x00000000,0x00000000,0x00000000,39.55,5,0x00000000,96.094,97.255,-0.0,-0.024,0.005,-0.008,-0.018,0.179,1.427,-0.034,-1.029,-1.903,0x00000003,1.0,1.0,0.412,-0.044,-0.028,-0.02,-0.029,0.0,0.0,-0.132,0.58,0.0,0.0,0.222,-0.381,0.915,0.0,0.0,0.915,34.991,34.991,0.0,0.0,0.0,96.484,96.094,0.0,0.0,26.375,26.25,0.0,0.0,0.0,0.0,90.0,76.711,0.109,27.5,0x00000000,0x00000000,0x00000000,0.0,1246,1279,6.264,9.528,0.0,0.0,0.062,0.091,0.0,0.0,1.0,0.981,0.981,0.981,0.196,1.0,1.0,0.462,0.584,0.57,24.267,0x00000101,192.168.0.40,8080,255.255.255.0,192.168.0.1,0xFFFFFFFF,0xFFFFFFFF,0xFFFFFFFF,0x00000000,
17.2295918465,0x00000000,0x00000000,0x00000000,0x00000000,0x00000000,0x00000000,0x00000000,0x00000000,39.6,5,0x00000000,96.094,97.255,-0.001,-0.032,-0.024,-0.013,0.018,0.215,-0.665,-0.038,-0.301,1.545,0x00000003,1.0,1.0,0.385,-0.021,-0.012,-0.003,-0.001,0.0,0.0,-0.132,0.58,0.0,0.0,0.222,0.331,0.725,0.0,0.0,0.725,34.991,34.991,0.0,0.0,0.0,96.484,96.094,0.0,0.0,26.438,26.25,0.0,0.0,0.01,0.0,90.0,76.711,0.109,27.5,0x00000000,0x00000000,0x00000000,0.0,1246,1279,5.184,5.502,0.0,0.0,0.062,0.091,0.0,0.0,1.0,0.981,0.981,0.981,0.196,1.0,1.0,0.462,0.584,0.57,24.267,0x00000101,192.168.0.40,8080,255.255.255.0,192.168.0.1,0xFFFFFFFF,0xFFFFFFFF,0xFFFFFFFF,0x00000000,
