Time_stamp,fault_status_word_1,fault_status_word_2,fault_status_word_3,fault_status_word_4,mcu_0_fault_status,mcu_1_fault_status,mcu_2_fault_status,mcu_3_fault_status,operational_time,operational_state,dynamic_response,min_propulsion_batt_soc,aux_batt_soc,inertial_x_acc_g,inertial_y_acc_g,inertial_x_rate_rps,inertial_y_rate_rps,inertial_z_rate_rps,pse_pitch_deg,pse_pitch_rate_dps,pse_roll_deg,pse_roll_rate_dps,pse_yaw_rate_dps,pse_data_is_valid,yaw_rate_limit_rps,vel_limit_mps,linear_accel_mps2,linear_vel_mps,differential_wheel_vel_rps,right_front_vel_mps,left_front_vel_mps,right_rear_vel_mps,left_rear_vel_mps,right_front_pos_m,left_front_pos_m,right_rear_pos_m,left_rear_pos_m,linear_pos_m,right_front_current_A0pk,left_front_current_A0pk,right_rear_current_A0pk,left_rear_current_A0pk,max_motor_current_A0pk,right_front_current_limit_A0pk,left_front_current_limit_A0pk,right_rear_current_limit_A0pk,left_rear_current_limit_A0pk,min_motor_current_limit_A0pk,front_base_batt_1_soc,front_base_batt_2_soc,rear_base_batt_1_soc,rear_base_batt_2_soc,front_base_batt_1_temp_degC,front_base_batt_2_temp_degC,rear_base_batt_1_temp_degC,rear_base_batt_2_temp_degC,vel_target_mps,yaw_rate_target_rps,angle_target_deg,aux_batt_voltage_V,aux_batt_current_A,aux_batt_temp_degC,abb_system_status,aux_batt_status,aux_batt_faults,7p2V_battery_voltage,ccu_sp_sw_build_id,ccu_uip_sw_build_id,mcu_0_inst_power_W,mcu_1_inst_power_W,mcu_2_inst_power_W,mcu_3_inst_power_W,mcu_0_total_energy_Wh,mcu_1_total_energy_Wh,mcu_2_total_energy_Wh,mcu_3_total_energy_Wh,fram_vel_limit_mps,fram_accel_limit_mps2,fram_decel_limit_mps2,fram_dtz_decel_limit_mps2,fram_coastdown_decel_mps2,fram_yaw_rate_limit_rps,fram_yaw_accel_limit_rps2,fram_tire_diameter_m,fram_wheelbase_length_m,fram_wheel_track_width_m,fram_transmission_ratio,fram_config_bitmap,fram_eth_ip_address,fram_eth_port_number,fram_eth_subnet_mask,fram_eth_gateway,user_feedback_bitmap_1,user_feedback_bitmap_2,user_feedback_bitmap_3,user_feedback_bitmap_4,
0.079488992691,0x00000000,0x00000000,0x00000000,0x00000000,0x00000000,0x00000000,0x00000000,0x00000000,38.64,3,0x00000000,96.484,97.647,-0.004,0.183,-0.012,-0.017,-0.031,10.548,-0.207,-0.015,0.704,0.077,0x00000003,0.0,0.0,0.007,-0.0,0.002,0.0,0.0,0.0,0.0,0.016,0.012,0.0,0.0,0.014,-1.386,-2.136,0.0,0.0,-2.136,34.991,34.991,0.0,0.0,0.0,96.875,96.484,0.0,0.0,26.375,26.25,0.0,0.0,0.0,0.0,90.0,76.703,0.109,27.375,0x00000000,0x00000000,0x00000000,0.0,1246,1279,7.814,14.031,0.0,0.0,0.054,0.098,0.0,0.0,1.0,0.981,0.981,0.981,0.196,1.0,1.0,0.462,0.584,0.57,24.267,0x00000101,192.168.0.40,8080,255.255.255.0,192.168.0.1,0xFFFFFFFF,0xFFFFFFFF,0xFFFFFFFF,0x00000000,
0.12961602211,0x00000000,0x00000000,0x00000000,0x00000000,0x00000000,0x00000000,0x00000000,0x00000000,38.69,3,0x00000000,96.484,97.647,-0.001,0.185,-0.017,-0.012,-0.019,10.569,0.206,-0.009,0.02,-0.268,0x00000003,0.0,0.0,0.011,-0.0,0.002,-0.0,0.001,0.0,0.0,0.016,0.012,0.0,0.0,0.014,-1.399,-2.034,0.0,0.0,-2.034,34.991,34.991,0.0,0.0,0.0,96.875,96.484,0.0,0.0,26.375,26.25,0.0,0.0,0.0,0.0,90.0,76.703,0.109,27.375,0x00000000,0x00000000,0x00000000,0.0,1246,1279,7.753,10.729,0.0,0.0,0.054,0.098,0.0,0.0,1.0,0.981,0.981,0.981,0.196,1.0,1.0,0.462,0.584,0.57,24.267,0x00000101,192.168.0.40,8080,255.255.255.0,192.168.0.1,0xFFFFFFFF,0xFFFFFFFF,0xFFFFFFFF,0x00000000,
0.179631948471,0x00000000,0x00000000,0x00000000,0x00000000,0x00000000,0x00000000,0x00000000,0x00000000,38.74,3,0x00000000,96.484,97.647,-0.003,0.186,-0.03,-0.008,-0.007,10.58,0.035,0.017,0.701,0.08,0x00000003,0.0,0.0,-0.0,-0.0,0.002,-0.0,0.0,0.0,0.0,0.016,0.012,0.0,0.0,0.014,-1.386,-2.034,0.0,0.0,-2.034,34.991,34.991,0.0,0.0,0.0,96.875,96.484,0.0,0.0,26.375,26.25,0.0,0.0,0.0,0.0,90.0,76.703,0.109,27.375,0x00000000,0x00000000,0x00000000,0.0,1246,1279,5.412,12.64,0.0,0.0,0.054,0.098,0.0,0.0,1.0,0.981,0.981,0.981,0.196,1.0,1.0,0.462,0.584,0.57,24.267,0x00000101,192.168.0.40,8080,255.255.255.0,192.168.0.1,0xFFFFFFFF,0xFFFFFFFF,0xFFFFFFFF,0x00000000,
0.229766130447,0x00000000,0x00000000,0x00000000,0x00000000,0x00000000,0x00000000,0x00000000,0x00000000,38.79,3,0x00000000,96.484,97.647,-0.005,0.185,-0.025,-0.013,0.018,10.568,0.119,0.008,-0.677,0.789,0x00000003,0.0,0.0,-0.009,-0.0,0.002,-0.001,0.0,0.0,0.0,0.016,0.012,0.0,0.0,0.014,-1.271,-2.238,0.0,0.0,-2.238,34.991,34.991,0.0,0.0,0.0,96.875,96.484,0.0,0.0,26.375,26.25,0.0,0.0,0.0,0.0,90.0,76.703,0.109,27.375,0x00000000,0x00000000,0x00000000,0.0,1246,1279,5.311,12.721,0.0,0.0,0.054,0.098,0.0,0.0,1.0,0.981,0.981,0.981,0.196,1.0,1.0,0.462,0.584,0.57,24.267,0x00000101,192.168.0.40,8080,255.255.255.0,192.168.0.1,0xFFFFFFFF,0xFFFFFFFF,0xFFFFFFFF,0x00000000,
0.279793024063,0x00000000,0x00000000,0x00000000,0x00000000,0x00000000,0x00000000,0x00000000,0x00000000,38.84,3,0x00000000,96.484,97.647,-0.003,0.184,-0.011,-0.017,-0.006,10.554,-0.389,0.002,0.256,1.131,0x00000003,0.0,0.0,0.001,-0.0,0.003,-0.001,0.001,0.0,0.0,0.016,0.012,0.0,0.0,0.014,-1.284,-2.034,0.0,0.0,-2.034,34.991,34.991,0.0,0.0,0.0,96.875,96.484,0.0,0.0,26.375,26.25,0.0,0.0,0.0,0.0,90.0,76.703,0.109,27.375,0x00000000,0x00000000,0x00000000,0.0,1246,1279,4.789,9.851,0.0,0.0,0.054,0.099,0.0,0.0,1.0,0.981,0.981,0.981,0.196,1.0,1.0,0.462,0.584,0.57,24.267,0x00000101,192.168.0.40,8080,255.255.255.0,192.168.0.1,0xFFFFFFFF,0xFFFFFFFF,0xFFFFFFFF,0x00000000,
0.329922914505,0x00000000,0x00000000,0x00000000,0x00000000,0x00000000,0x00000000,0x00000000,0x00000000,38.89,3,0x00000000,96.484,97.647,-0.002,0.182,-0.011,-0.008,-0.019,10.54,0.066,0.001,-0.23,-0.265,0x00000003,0.0,0.0,-0.01,-0.0,0.003,-0.002,0.001,0.0,0.0,0.016,0.012,0.0,0.0,0.014,-1.271,-2.034,0.0,0.0,-2.034,34.991,34.991,0.0,0.0,0.0,96.875,96.484,0.0,0.0,26.375,26.25,0.0,0.0,0.0,0.0,90.0,76.703,0.109,27.375,0x00000000,0x00000000,0x00000000,0.0,1246,1279,4.767,10.077,0.0,0.0,0.054,0.099,0.0,0.0,1.0,0.981,0.981,0.981,0.196,1.0,1.0,0.462,0.584,0.57,24.267,0x00000101,192.168.0.40,8080,255.255.255.0,192.168.0.1,0xFFFFFFFF,0xFFFFFFFF,0xFFFFFFFF,0x00000000,
0.37996006012,0x00000000,0x00000000,0x00000000,0x00000000,0x00000000,0x00000000,0x00000000,0x00000000,38.94,3,0x00000000,96.484,97.647,-0.001,0.184,-0.012,-0.017,-0.013,10.524,-0.208,0.002,-0.155,-0.626,0x00000003,0.0,0.0,0.003,-0.0,0.002,-0.0,0.0,0.0,0.0,0.016,0.012,0.0,0.0,0.014,-1.284,-2.034,0.0,0.0,-2.034,34.991,34.991,0.0,0.0,0.0,96.875,96.484,0.0,0.0,26.375,26.25,0.0,0.0,0.0,0.0,90.0,76.703,0.109,27.375,0x00000000,0x00000000,0x00000000,0.0,1246,1279,4.766,11.991,0.0,0.0,0.054,0.099,0.0,0.0,1.0,0.981,0.981,0.981,0.196,1.0,1.0,0.462,0.584,0.57,24.267,0x00000101,192.168.0.40,8080,255.255.255.0,192.168.0.1,0xFFFFFFFF,0xFFFFFFFF,0xFFFFFFFF,0x00000000,
0.430084943771,0x00000000,0x00000000,0x00000000,0x00000000,0x00000000,0x00000000,0x00000000,0x00000000,38.99,3,0x00000000,96.484,97.647,-0.005,0.184,-0.017,-0.03,-0.006,10.548,0.315,-0.015,-0.683,0.792,0x00000003,0.0,0.0,-0.003,-0.0,0.002,-0.001,0.001,0.0,0.0,0.016,0.012,0.0,0.0,0.014,-1.284,-2.136,0.0,0.0,-2.136,34.991,34.991,0.0,0.0,0.0,96.875,96.484,0.0,0.0,26.375,26.25,0.0,0.0,0.0,0.0,90.0,76.703,0.109,27.375,0x00000000,0x00000000,0x00000000,0.0,1246,1279,4.766,11.636,0.0,0.0,0.054,0.099,0.0,0.0,1.0,0.981,0.981,0.981,0.196,1.0,1.0,0.462,0.584,0.57,24.267,0x00000101,192.168.0.40,8080,255.255.255.0,192.168.0.1,0xFFFFFFFF,0xFFFFFFFF,0xFFFFFFFF,0x00000000,
0.480163097382,0x00000000,0x00000000,0x00000000,0x00000000,0x00000000,0x00000000,0x00000000,0x00000000,39.04,3,0x00000000,96.484,97.647,-0.004,0.186,-0.016,-0.03,-0.019,10.578,0.866,-0.047,-0.37,0.429,0x00000003,0.0,0.0,0.003,-0.0,0.003,-0.001,0.001,0.0,0.0,0.016,0.012,0.0,0.0,0.014,-1.297,-1.933,0.0,0.0,-1.933,34.991,34.991,0.0,0.0,0.0,96.875,96.484,0.0,0.0,26.375,26.25,0.0,0.0,0.0,0.0,90.0,76.703,0.109,27.375,0x00000000,0x00000000,0x00000000,0.0,1246,1279,6.765,10.806,0.0,0.0,0.054,0.099,0.0,0.0,1.0,0.981,0.981,0.981,0.196,1.0,1.0,0.462,0.584,0.57,24.267,0x00000101,192.168.0.40,8080,255.255.255.0,192.168.0.1,0xFFFFFFFF,0xFFFFFFFF,0xFFFFFFFF,0x00000000,
0.530231952667,0x00000000,0x00000000,0x00000000,0x00000000,0x00000000,0x00000000,0x00000000,0x00000000,39.09,3,0x00000000,96.484,97.647,-0.003,0.184,-0.009,-0.017,-0.012,10.597,0.275,-0.037,0.199,0.078,0x00000003,0.0,0.0,-0.004,-0.0,0.003,-0.001,0.0,0.0,0.0,0.016,0.012,0.0,0.0,0.014,-1.284,-2.034,0.0,0.0,-2.034,34.991,34.991,0.0,0.0,0.0,96.875,96.484,0.0,0.0,26.375,26.25,0.0,0.0,0.0,0.0,90.0,76.703,0.109,27.375,0x00000000,0x00000000,0x00000000,0.0,1246,1279,7.078,10.799,0.0,0.0,0.055,0.099,0.0,0.0,1.0,0.981,0.981,0.981,0.196,1.0,1.0,0.462,0.584,0.57,24.267,0x00000101,192.168.0.40,8080,255.255.255.0,192.168.0.1,0xFFFFFFFF,0xFFFFFFFF,0xFFFFFFFF,0x00000000,
0.58062005043,0x00000000,0x00000000,0x00000000,0x00000000,0x00000000,0x00000000,0x00000000,0x00000000,39.14,3,0x00000000,96.484,97.647,-0.004,0.184,-0.021,-0.025,-0.019,10.594,-0.771,-0.043,0.534,-0.289,0x00000003,0.0,0.0,0.001,-0.0,0.002,-0.0,0.0,0.0,0.0,0.016,0.012,0.0,0.0,0.014,-1.284,-2.136,0.0,0.0,-2.136,34.991,34.991,0.0,0.0,0.0,96.875,96.484,0.0,0.0,26.375,26.25,0.0,0.0,0.0,0.0,90.0,76.703,0.109,27.375,0x00000000,0x00000000,0x00000000,0.0,1246,1279,4.866,13.016,0.0,0.0,0.055,0.1,0.0,0.0,1.0,0.981,0.981,0.981,0.196,1.0,1.0,0.462,0.584,0.57,24.267,0x00000101,192.168.0.40,8080,255.255.255.0,192.168.0.1,0xFFFFFFFF,0xFFFFFFFF,0xFFFFFFFF,0x00000000,
0.630553007126,0x00000000,0x00000000,0x00000000,0x00000000,0x00000000,0x00000000,0x00000000,0x00000000,39.19,3,0x00000000,96.484,97.647,-0.004,0.183,-0.019,-0.008,-0.006,10.581,0.463,-0.043,0.644,-0.973,0x00000003,0.0,0.0,0.006,-0.0,0.002,-0.001,0.001,0.0,0.0,0.016,0.012,0.0,0.0,0.014,-1.297,-2.034,0.0,0.0,-2.034,34.991,34.991,0.0,0.0,0.0,96.875,96.484,0.0,0.0,26.375,26.25,0.0,0.0,0.0,0.0,90.0,76.703,0.109,27.375,0x00000000,0x00000000,0x00000000,0.0,1246,1279,8.179,12.053,0.0,0.0,0.055,0.1,0.0,0.0,1.0,0.981,0.981,0.981,0.196,1.0,1.0,0.462,0.584,0.57,24.267,0x00000101,192.168.0.40,8080,255.255.255.0,192.168.0.1,0xFFFFFFFF,0xFFFFFFFF,0xFFFFFFFF,0x00000000,
0.680572032928,0x00000000,0x00000000,0x00000000,0x00000000,0x00000000,0x00000000,0x00000000,0x00000000,39.24,3,0x00000000,96.484,97.647,-0.003,0.184,-0.023,-0.008,0.006,10.572,0.606,-0.025,0.531,-1.68,0x00000003,0.0,0.0,0.001,-0.0,0.003,-0.002,0.001,0.0,0.0,0.016,0.012,0.0,0.0,0.014,-1.373,-1.933,0.0,0.0,-1.933,34.991,34.991,0.0,0.0,0.0,96.875,96.484,0.0,0.0,26.375,26.25,0.0,0.0,0.0,0.0,90.0,76.703,0.109,27.375,0x00000000,0x00000000,0x00000000,0.0,1246,1279,5.251,11.884,0.0,0.0,0.055,0.1,0.0,0.0,1.0,0.981,0.981,0.981,0.196,1.0,1.0,0.462,0.584,0.57,24.267,0x00000101,192.168.0.40,8080,255.255.255.0,192.168.0.1,0xFFFFFFFF,0xFFFFFFFF,0xFFFFFFFF,0x00000000,
0.730672121048,0x00000000,0x00000000,0x00000000,0x00000000,0x00000000,0x00000000,0x00000000,0x00000000,39.29,3,0x00000000,96.484,97.647,-0.004,0.183,-0.011,-0.008,0.006,10.575,0.32,-0.025,-0.52,-1.333,0x00000003,0.0,0.0,0.009,-0.0,0.003,-0.0,0.001,0.0,0.0,0.016,0.012,0.0,0.0,0.014,-1.284,-2.034,0.0,0.0,-2.034,34.991,34.991,0.0,0.0,0.0,96.875,96.484,0.0,0.0,26.375,26.25,0.0,0.0,0.0,0.0,90.0,76.711,0.109,27.375,0x00000000,0x00000000,0x00000000,0.0,1246,1279,6.605,12.041,0.0,0.0,0.055,0.1,0.0,0.0,1.0,0.981,0.981,0.981,0.196,1.0,1.0,0.462,0.584,0.57,24.267,0x00000101,192.168.0.40,8080,255.255.255.0,192.168.0.1,0xFFFFFFFF,0xFFFFFFFF,0xFFFFFFFF,0x00000000,
0.780699014664,0x00000000,0x00000000,0x00000000,0x00000000,0x00000000,0x00000000,0x00000000,0x00000000,39.34,3,0x00000000,96.484,97.647,-0.003,0.185,-0.002,-0.026,0.012,10.591,0.642,-0.002,1.115,0.432,0x00000003,0.0,0.0,0.013,0.0,0.003,-0.0,0.002,0.0,0.0,0.016,0.012,0.0,0.0,0.014,-1.399,-1.933,0.0,0.0,-1.933,34.991,34.991,0.0,0.0,0.0,96.875,96.484,0.0,0.0,26.375,26.25,0.0,0.0,0.0,0.0,90.0,76.711,0.109,27.375,0x00000000,0x00000000,0x00000000,0.0,1246,1279,7.009,13.084,0.0,0.0,0.055,0.1,0.0,0.0,1.0,0.981,0.981,0.981,0.196,1.0,1.0,0.462,0.584,0.57,24.267,0x00000101,192.168.0.40,8080,255.255.255.0,192.168.0.1,0xFFFFFFFF,0xFFFFFFFF,0xFFFFFFFF,0x00000000,
0.831046104431,0x00000000,0x00000000,0x00000000,0x00000000,0x00000000,0x00000000,0x00000000,0x00000000,39.39,3,0x00000000,96.484,97.647,-0.002,0.185,-0.015,-0.03,-0.012,10.616,0.805,-0.011,-0.197,0.792,0x00000003,0.0,0.0,0.001,-0.0,0.002,-0.0,0.0,0.0,0.0,0.016,0.012,0.0,0.0,0.014,-1.271,-2.034,0.0,0.0,-2.034,34.991,34.991,0.0,0.0,0.0,96.875,96.484,0.0,0.0,26.375,26.25,0.0,0.0,0.0,0.0,90.0,76.711,0.109,27.375,0x00000000,0x00000000,0x00000000,0.0,1246,1279,6.049,13.069,0.0,0.0,0.055,0.1,0.0,0.0,1.0,0.981,0.981,0.981,0.196,1.0,1.0,0.462,0.584,0.57,24.267,0x00000101,192.168.0.40,8080,255.255.255.0,192.168.0.1,0xFFFFFFFF,0xFFFFFFFF,0xFFFFFFFF,0x00000000,
0.880816936493,0x00000000,0x00000000,0x00000000,0x00000000,0x00000000,0x00000000,0x00000000,0x00000000,39.44,3,0x00000000,96.484,97.647,-0.004,0.185,-0.019,-0.017,-0.013,10.622,-0.32,-0.028,-0.09,-0.975,0x00000003,0.0,0.0,-0.0,-0.0,0.001,-0.0,0.0,0.0,0.0,0.016,0.012,0.0,0.0,0.014,-1.271,-2.136,0.0,0.0,-2.136,34.991,34.991,0.0,0.0,0.0,96.875,96.484,0.0,0.0,26.375,26.25,0.0,0.0,0.0,0.0,90.0,76.711,0.109,27.375,0x00000000,0x00000000,0x00000000,0.0,1246,1279,5.454,11.539,0.0,0.0,0.055,0.101,0.0,0.0,1.0,0.981,0.981,0.981,0.196,1.0,1.0,0.462,0.584,0.57,24.267,0x00000101,192.168.0.40,8080,255.255.255.0,192.168.0.1,0xFFFFFFFF,0xFFFFFFFF,0xFFFFFFFF,0x00000000,
0.93102312088,0x00000000,0x00000000,0x00000000,0x00000000,0x00000000,0x00000000,0x00000000,0x00000000,39.49,3,0x00000000,96.484,97.647,-0.003,0.185,-0.012,0.0,-0.006,10.624,-0.619,-0.016,0.387,0.432,0x00000003,0.0,0.0,-0.011,-0.0,0.002,-0.002,0.0,0.0,0.0,0.016,0.012,0.0,0.0,0.014,-1.386,-2.136,0.0,0.0,-2.136,34.991,34.991,0.0,0.0,0.0,96.875,96.484,0.0,0.0,26.375,26.25,0.0,0.0,0.0,0.0,90.0,76.711,0.109,27.375,0x00000000,0x00000000,0x00000000,0.0,1246,1279,4.975,11.47,0.0,0.0,0.055,0.101,0.0,0.0,1.0,0.981,0.981,0.981,0.196,1.0,1.0,0.462,0.584,0.57,24.267,0x00000101,192.168.0.40,8080,255.255.255.0,192.168.0.1,0xFFFFFFFF,0xFFFFFFFF,0xFFFFFFFF,0x00000000,
0.980983018875,0x00000000,0x00000000,0x00000000,0x00000000,0x00000000,0x00000000,0x00000000,0x00000000,39.54,3,0x00000000,96.484,97.647,-0.003,0.184,-0.021,-0.008,-0.007,10.625,-0.137,-0.001,0.023,-0.275,0x00000003,0.0,0.0,0.007,-0.0,0.003,-0.0,0.001,0.0,0.0,0.016,0.012,0.0,0.0,0.014,-1.284,-1.933,0.0,0.0,-1.933,34.991,34.991,0.0,0.0,0.0,96.875,96.484,0.0,0.0,26.375,26.25,0.0,0.0,0.0,0.0,90.0,76.711,0.109,27.375,0x00000000,0x00000000,0x00000000,0.0,1246,1279,6.931,13.574,0.0,0.0,0.055,0.101,0.0,0.0,1.0,0.981,0.981,0.981,0.196,1.0,1.0,0.462,0.584,0.57,24.267,0x00000101,192.168.0.40,8080,255.255.255.0,192.168.0.1,0xFFFFFFFF,0xFFFFFFFF,0xFFFFFFFF,0x00000000,
1.03125309944,0x00000000,0x00000000,0x00000000,0x00000000,0x00000000,0x00000000,0x00000000,0x00000000,39.59,3,0x00000000,96.484,97.647,-0.001,0.184,-0.019,-0.012,-0.049,10.633,0.397,-0.005,-0.234,-0.269,0x00000003,0.0,0.0,0.002,0.0,0.002,-0.0,0.0,0.0,0.0,0.016,0.012,0.0,0.0,0.014,-1.284,-2.136,0.0,0.0,-2.136,34.991,34.991,0.0,0.0,0.0,96.875,96.484,0.0,0.0,26.375,26.25,0.0,0.0,0.0,0.0,90.0,76.711,0.109,27.375,0x00000000,0x00000000,0x00000000,0.0,1246,1279,7.715,9.721,0.0,0.0,0.055,0.101,0.0,0.0,1.0,0.981,0.981,0.981,0.196,1.0,1.0,0.462,0.584,0.57,24.267,0x00000101,192.168.0.40,8080,255.255.255.0,192.168.0.1,0xFFFFFFFF,0xFFFFFFFF,0xFFFFFFFF,0x00000000,
1.0812060833,0x00000000,0x00000000,0x00000000,0x00000000,0x00000000,0x00000000,0x00000000,0x00000000,39.64,3,0x00000000,96.484,97.647,-0.004,0.184,-0.003,-0.017,-0.006,10.642,0.352,-0.014,0.121,0.442,0x00000003,0.0,0.0,-0.003,0.0,0.001,-0.0,0.0,0.0,0.0,0.016,0.012,0.0,0.0,0.014,-1.17,-1.933,0.0,0.0,-1.933,34.991,34.991,0.0,0.0,0.0,96.875,96.484,0.0,0.0,26.375,26.25,0.0,0.0,0.0,0.0,90.0,76.711,0.109,27.375,0x00000000,0x00000000,0x00000000,0.0,1246,1279,5.231,12.952,0.0,0.0,0.056,0.101,0.0,0.0,1.0,0.981,0.981,0.981,0.196,1.0,1.0,0.462,0.584,0.57,24.267,0x00000101,192.168.0.40,8080,255.255.255.0,192.168.0.1,0xFFFFFFFF,0xFFFFFFFF,0xFFFFFFFF,0x00000000,
1.13127493858,0x00000000,0x00000000,0x00000000,0x00000000,0x00000000,0x00000000,0x00000000,0x00000000,39.69,3,0x00000000,96.484,97.647,-0.003,0.186,-0.001,0.005,-0.018,10.668,0.391,-0.026,-0.175,-0.607,0x00000003,0.0,0.0,-0.003,0.0,0.001,-0.0,0.0,0.0,0.0,0.016,0.012,0.0,0.0,0.014,-1.284,-2.136,0.0,0.0,-2.136,34.991,34.991,0.0,0.0,0.0,96.875,96.484,0.0,0.0,26.375,26.25,0.0,0.0,0.0,0.0,90.0,76.711,0.109,27.375,0x00000000,0x00000000,0x00000000,0.0,1246,1279,5.418,12.456,0.0,0.0,0.056,0.101,0.0,0.0,1.0,0.981,0.981,0.981,0.196,1.0,1.0,0.462,0.584,0.57,24.267,0x00000101,192.168.0.40,8080,255.255.255.0,192.168.0.1,0xFFFFFFFF,0xFFFFFFFF,0xFFFFFFFF,0x00000000,
1.18134593964,0x00000000,0x00000000,0x00000000,0x00000000,0x00000000,0x00000000,0x00000000,0x00000000,39.74,3,0x00000000,96.484,97.647,-0.003,0.185,-0.006,-0.012,-0.028,10.695,0.438,-0.025,-0.762,1.149,0x00000003,0.0,0.0,0.002,0.0,0.001,-0.0,0.001,0.0,0.0,0.016,0.012,0.0,0.0,0.014,-0.776,-1.831,0.0,0.0,-1.831,34.991,34.991,0.0,0.0,0.0,96.875,96.484,0.0,0.0,26.375,26.25,0.0,0.0,0.0,0.0,90.0,76.711,0.109,27.375,0x00000000,0x00000000,0x00000000,0.0,1246,1279,7.019,11.214,0.0,0.0,0.056,0.102,0.0,0.0,1.0,0.981,0.981,0.981,0.196,1.0,1.0,0.462,0.584,0.57,24.267,0x00000101,192.168.0.40,8080,255.255.255.0,192.168.0.1,0xFFFFFFFF,0xFFFFFFFF,0xFFFFFFFF,0x00000000,
1.23134708405,0x00000000,0x00000000,0x00000000,0x00000000,0x00000000,0x00000000,0x00000000,0x00000000,39.79,3,0x00000000,96.484,97.647,-0.003,0.186,-0.015,-0.006,-0.025,10.72,0.063,-0.021,0.629,-1.503,0x00000003,0.0,0.0,-0.008,0.0,0.002,-0.001,0.001,0.0,0.0,0.016,0.012,0.0,0.0,0.014,-0.267,-2.746,0.0,0.0,-2.746,34.991,34.991,0.0,0.0,0.0,96.875,96.484,0.0,0.0,26.375,26.25,0.0,0.0,0.0,0.0,90.0,76.711,0.109,27.375,0x00000000,0x00000000,0x00000000,0.0,1246,1279,6.049,10.449,0.0,0.0,0.056,0.102,0.0,0.0,1.0,0.981,0.981,0.981,0.196,1.0,1.0,0.462,0.584,0.57,24.267,0x00000101,192.168.0.40,8080,255.255.255.0,192.168.0.1,0xFFFFFFFF,0xFFFFFFFF,0xFFFFFFFF,0x00000000,
1.28137493134,0x00000000,0x00000000,0x00000000,0x00000000,0x00000000,0x00000000,0x00000000,0x00000000,39.84,3,0x00000000,96.484,97.647,-0.004,0.186,-0.016,-0.021,-0.009,10.723,0.43,-0.011,0.023,-0.968,0x00000003,0.0,0.0,-0.005,0.0,0.002,-0.0,0.0,0.0,0.0,0.016,0.012,0.0,0.0,0.014,-1.17,-2.034,0.0,0.0,-2.034,34.991,34.991,0.0,0.0,0.0,96.875,96.484,0.0,0.0,26.375,26.25,0.0,0.0,0.0,0.0,90.0,76.711,0.109,27.375,0x00000000,0x00000000,0x00000000,0.0,1246,1279,4.821,11.601,0.0,0.0,0.056,0.102,0.0,0.0,1.0,0.981,0.981,0.981,0.196,1.0,1.0,0.462,0.584,0.57,24.267,0x00000101,192.168.0.40,8080,255.255.255.0,192.168.0.1,0xFFFFFFFF,0xFFFFFFFF,0xFFFFFFFF,0x00000000,
1.33152413368,0x00000000,0x00000000,0x00000000,0x00000000,0x00000000,0x00000000,0x00000000,0x00000000,39.89,3,0x00000000,96.484,97.647,-0.004,0.187,-0.014,-0.034,-0.012,10.721,-0.305,-0.026,-0.298,0.088,0x00000003,0.0,0.0,-0.0,0.0,0.002,-0.0,0.001,0.0,0.0,0.016,0.012,0.0,0.0,0.014,-1.271,-2.06,0.0,0.0,-2.06,34.991,34.991,0.0,0.0,0.0,96.875,96.484,0.0,0.0,26.375,26.25,0.0,0.0,0.0,0.0,90.0,76.711,0.109,27.375,0x00000000,0x00000000,0x00000000,0.0,1246,1279,4.948,10.276,0.0,0.0,0.056,0.102,0.0,0.0,1.0,0.981,0.981,0.981,0.196,1.0,1.0,0.462,0.584,0.57,24.267,0x00000101,192.168.0.40,8080,255.255.255.0,192.168.0.1,0xFFFFFFFF,0xFFFFFFFF,0xFFFFFFFF,0x00000000,
1.38172101974,0x00000000,0x00000000,0x00000000,0x00000000,0x00000000,0x00000000,0x00000000,0x00000000,39.94,3,0x00000000,96.484,97.647,-0.003,0.185,-0.009,-0.023,-0.019,10.718,-0.195,-0.054,-0.668,0.082,0x00000003,0.0,0.0,0.0,0.0,0.001,-0.0,0.001,0.0,0.0,0.016,0.012,0.0,0.0,0.014,-1.17,-2.136,0.0,0.0,-2.136,34.991,34.991,0.0,0.0,0.0,96.875,96.484,0.0,0.0,26.375,26.25,0.0,0.0,0.0,0.0,90.0,76.711,0.109,27.375,0x00000000,0x00000000,0x00000000,0.0,1246,1279,4.774,12.787,0.0,0.0,0.056,0.102,0.0,0.0,1.0,0.981,0.981,0.981,0.196,1.0,1.0,0.462,0.584,0.57,24.267,0x00000101,192.168.0.40,8080,255.255.255.0,192.168.0.1,0xFFFFFFFF,0xFFFFFFFF,0xFFFFFFFF,0x00000000,
1.43176412582,0x00000000,0x00000000,0x00000000,0x00000000,0x00000000,0x00000000,0x00000000,0x00000000,39.99,3,0x00000000,96.484,97.647,-0.004,0.185,-0.011,-0.008,-0.018,10.73,0.519,-0.059,0.614,0.44,0x00000003,0.0,0.0,-0.002,-0.0,0.002,-0.001,0.001,0.0,0.0,0.016,0.012,0.0,0.0,0.014,-1.297,-2.149,0.0,0.0,-2.149,34.991,34.991,0.0,0.0,0.0,96.875,96.484,0.0,0.0,26.375,26.25,0.0,0.0,0.0,0.0,90.0,76.711,0.109,27.375,0x00000000,0x00000000,0x00000000,0.0,1246,1279,4.946,10.883,0.0,0.0,0.056,0.102,0.0,0.0,1.0,0.981,0.981,0.981,0.196,1.0,1.0,0.462,0.584,0.57,24.267,0x00000101,192.168.0.40,8080,255.255.255.0,192.168.0.1,0xFFFFFFFF,0xFFFFFFFF,0xFFFFFFFF,0x00000000,
1.48185110092,0x00000000,0x00000000,0x00000000,0x00000000,0x00000000,0x00000000,0x00000000,0x00000000,40.04,3,0x00000000,96.484,97.647,-0.003,0.185,-0.011,-0.008,-0.016,10.743,0.345,-0.066,-0.379,0.446,0x00000003,0.0,0.0,-0.004,0.0,0.002,-0.0,0.0,0.0,0.0,0.016,0.012,0.0,0.0,0.014,-1.081,-2.238,0.0,0.0,-2.238,34.991,34.991,0.0,0.0,0.0,96.875,96.484,0.0,0.0,26.375,26.25,0.0,0.0,0.0,0.0,90.0,76.711,0.109,27.375,0x00000000,0x00000000,0x00000000,0.0,1246,1279,4.773,13.827,0.0,0.0,0.056,0.103,0.0,0.0,1.0,0.981,0.981,0.981,0.196,1.0,1.0,0.462,0.584,0.57,24.267,0x00000101,192.168.0.40,8080,255.255.255.0,192.168.0.1,0xFFFFFFFF,0xFFFFFFFF,0xFFFFFFFF,0x00000000,
1.53200507164,0x00000000,0x00000000,0x00000000,0x00000000,0x00000000,0x00000000,0x00000000,0x00000000,40.09,3,0x00000000,96.484,97.647,-0.003,0.186,0.0,-0.017,-0.024,10.756,0.937,-0.051,0.051,0.099,0x00000003,0.0,0.0,0.0,0.0,0.002,-0.0,0.0,0.0,0.0,0.016,0.012,0.0,0.0,0.014,-1.081,-2.238,0.0,0.0,-2.238,34.991,34.991,0.0,0.0,0.0,96.875,96.484,0.0,0.0,26.375,26.25,0.0,0.0,0.0,0.0,90.0,76.711,0.109,27.375,0x00000000,0x00000000,0x00000000,0.0,1246,1279,5.399,12.497,0.0,0.0,0.056,0.103,0.0,0.0,1.0,0.981,0.981,0.981,0.196,1.0,1.0,0.462,0.584,0.57,24.267,0x00000101,192.168.0.40,8080,255.255.255.0,192.168.0.1,0xFFFFFFFF,0xFFFFFFFF,0xFFFFFFFF,0x00000000,
1.58200192451,0x00000000,0x00000000,0x00000000,0x00000000,0x00000000,0x00000000,0x00000000,0x00000000,40.14,3,0x00000000,96.484,97.647,-0.003,0.187,-0.002,-0.024,-0.012,10.78,0.912,-0.073,-0.477,0.273,0x00000003,0.0,0.0,-0.008,-0.0,0.001,-0.0,-0.001,0.0,0.0,0.016,0.012,0.0,0.0,0.014,-1.093,-2.047,0.0,0.0,-2.047,34.991,34.991,0.0,0.0,0.0,96.875,96.484,0.0,0.0,26.375,26.25,0.0,0.0,0.0,0.0,90.0,76.711,0.109,27.375,0x00000000,0x00000000,0x00000000,0.0,1246,1279,4.793,10.83,0.0,0.0,0.056,0.103,0.0,0.0,1.0,0.981,0.981,0.981,0.196,1.0,1.0,0.462,0.584,0.57,24.267,0x00000101,192.168.0.40,8080,255.255.255.0,192.168.0.1,0xFFFFFFFF,0xFFFFFFFF,0xFFFFFFFF,0x00000000,
1.63211107254,0x00000000,0x00000000,0x00000000,0x00000000,0x00000000,0x00000000,0x00000000,0x00000000,40.19,3,0x00000000,96.484,97.647,-0.003,0.187,0.001,-0.013,-0.024,10.806,0.568,-0.089,-0.048,-0.616,0x00000003,0.0,0.0,-0.0,-0.0,0.001,-0.001,-0.0,0.0,0.0,0.016,0.012,0.0,0.0,0.014,-0.979,-1.945,0.0,0.0,-1.945,34.991,34.991,0.0,0.0,0.0,96.875,96.484,0.0,0.0,26.375,26.25,0.0,0.0,0.0,0.0,90.0,76.711,0.109,27.375,0x00000000,0x00000000,0x00000000,0.0,1246,1279,4.947,10.791,0.0,0.0,0.056,0.103,0.0,0.0,1.0,0.981,0.981,0.981,0.196,1.0,1.0,0.462,0.584,0.57,24.267,0x00000101,192.168.0.40,8080,255.255.255.0,192.168.0.1,0xFFFFFFFF,0xFFFFFFFF,0xFFFFFFFF,0x00000000,
1.68221497536,0x00000000,0x00000000,0x00000000,0x00000000,0x00000000,0x00000000,0x00000000,0x00000000,40.24,3,0x00000000,96.484,97.647,-0.004,0.186,0.005,-0.013,-0.027,10.842,1.028,-0.07,0.175,0.098,0x00000003,0.0,0.0,-0.003,-0.0,0.001,-0.001,-0.0,0.0,0.0,0.016,0.012,0.0,0.0,0.014,-0.992,-2.073,0.0,0.0,-2.073,34.991,34.991,0.0,0.0,0.0,96.875,96.484,0.0,0.0,26.375,26.25,0.0,0.0,0.0,0.0,90.0,76.711,0.109,27.375,0x00000000,0x00000000,0x00000000,0.0,1246,1279,5.586,10.572,0.0,0.0,0.056,0.103,0.0,0.0,1.0,0.981,0.981,0.981,0.196,1.0,1.0,0.462,0.584,0.57,24.267,0x00000101,192.168.0.40,8080,255.255.255.0,192.168.0.1,0xFFFFFFFF,0xFFFFFFFF,0xFFFFFFFF,0x00000000,
1.73221111298,0x00000000,0x00000000,0x00000000,0x00000000,0x00000000,0x00000000,0x00000000,0x00000000,40.29,3,0x00000000,96.484,97.647,-0.002,0.188,-0.006,-0.021,-0.025,10.887,0.706,-0.049,1.131,-0.961,0x00000003,0.0,0.0,0.003,-0.0,0.001,-0.0,0.0,0.0,0.0,0.016,0.012,0.0,0.0,0.014,-0.966,-2.085,0.0,0.0,-2.085,34.991,34.991,0.0,0.0,0.0,96.875,96.484,0.0,0.0,26.375,26.25,0.0,0.0,0.0,0.0,90.0,76.711,0.109,27.375,0x00000000,0x00000000,0x00000000,0.0,1246,1279,5.139,9.6,0.0,0.0,0.057,0.103,0.0,0.0,1.0,0.981,0.981,0.981,0.196,1.0,1.0,0.462,0.584,0.57,24.267,0x00000101,192.168.0.40,8080,255.255.255.0,192.168.0.1,0xFFFFFFFF,0xFFFFFFFF,0xFFFFFFFF,0x00000000,
1.78236794472,0x00000000,0x00000000,0x00000000,0x00000000,0x00000000,0x00000000,0x00000000,0x00000000,40.34,3,0x00000000,96.484,97.647,-0.003,0.189,-0.017,-0.017,-0.013,10.911,0.178,-0.053,0.081,-0.615,0x00000003,0.0,0.0,-0.008,-0.0,0.001,-0.001,0.0,0.0,0.0,0.016,0.012,0.0,0.0,0.014,-0.992,-2.2,0.0,0.0,-2.2,34.991,34.991,0.0,0.0,0.0,96.875,96.484,0.0,0.0,26.375,26.25,0.0,0.0,0.0,0.0,90.0,76.711,0.109,27.375,0x00000000,0x00000000,0x00000000,0.0,1246,1279,5.595,13.491,0.0,0.0,0.057,0.103,0.0,0.0,1.0,0.981,0.981,0.981,0.196,1.0,1.0,0.462,0.584,0.57,24.267,0x00000101,192.168.0.40,8080,255.255.255.0,192.168.0.1,0xFFFFFFFF,0xFFFFFFFF,0xFFFFFFFF,0x00000000,
1.83241200447,0x00000000,0x00000000,0x00000000,0x00000000,0x00000000,0x00000000,0x00000000,0x00000000,40.39,3,0x00000000,96.484,97.647,-0.003,0.188,-0.019,-0.021,-0.019,10.913,-0.033,-0.054,0.363,0.454,0x00000003,0.0,0.0,0.01,0.0,0.002,-0.0,0.001,0.0,0.0,0.016,0.012,0.0,0.0,0.014,-0.903,-2.034,0.0,0.0,-2.034,34.991,34.991,0.0,0.0,0.0,96.875,96.484,0.0,0.0,26.375,26.25,0.0,0.0,0.0,0.0,90.0,76.711,0.109,27.375,0x00000000,0x00000000,0x00000000,0.0,1246,1279,5.14,11.552,0.0,0.0,0.057,0.104,0.0,0.0,1.0,0.981,0.981,0.981,0.196,1.0,1.0,0.462,0.584,0.57,24.267,0x00000101,192.168.0.40,8080,255.255.255.0,192.168.0.1,0xFFFFFFFF,0xFFFFFFFF,0xFFFFFFFF,0x00000000,
1.8827650547,0x00000000,0x00000000,0x00000000,0x00000000,0x00000000,0x00000000,0x00000000,0x00000000,40.44,3,0x00000000,96.484,97.647,-0.004,0.19,-0.013,-0.021,-0.031,10.93,0.699,-0.042,0.28,-1.667,0x00000003,0.0,0.0,-0.001,0.0,0.001,-0.0,0.0,0.0,0.0,0.016,0.012,0.0,0.0,0.014,-0.992,-2.2,0.0,0.0,-2.2,34.991,34.991,0.0,0.0,0.0,96.875,96.484,0.0,0.0,26.375,26.25,0.0,0.0,0.0,0.0,90.0,76.711,0.109,27.375,0x00000000,0x00000000,0x00000000,0.0,1246,1279,5.415,12.847,0.0,0.0,0.057,0.104,0.0,0.0,1.0,0.981,0.981,0.981,0.196,1.0,1.0,0.462,0.584,0.57,24.267,0x00000101,192.168.0.40,8080,255.255.255.0,192.168.0.1,0xFFFFFFFF,0xFFFFFFFF,0xFFFFFFFF,0x00000000,
1.93284511566,0x00000000,0x00000000,0x00000000,0x00000000,0x00000000,0x00000000,0x00000000,0x00000000,40.49,3,0x00000000,96.484,97.647,-0.004,0.188,-0.026,-0.008,0.006,10.924,0.052,-0.038,0.722,1.149,0x00000003,0.0,0.0,0.006,0.0,0.001,-0.0,0.001,0.0,0.0,0.016,0.012,0.0,0.0,0.014,-1.081,-2.238,0.0,0.0,-2.238,34.991,34.991,0.0,0.0,0.0,96.875,96.484,0.0,0.0,26.375,26.25,0.0,0.0,0.0,0.0,90.0,76.711,0.109,27.375,0x00000000,0x00000000,0x00000000,0.0,1246,1279,5.426,12.087,0.0,0.0,0.057,0.104,0.0,0.0,1.0,0.981,0.981,0.981,0.196,1.0,1.0,0.462,0.584,0.57,24.267,0x00000101,192.168.0.40,8080,255.255.255.0,192.168.0.1,0xFFFFFFFF,0xFFFFFFFF,0xFFFFFFFF,0x00000000,
1.98268413544,0x00000000,0x00000000,0x00000000,0x00000000,0x00000000,0x00000000,0x00000000,0x00000000,40.54,3,0x00000000,96.484,97.647,-0.003,0.189,-0.018,-0.013,0.017,10.921,0.097,-0.024,0.012,-0.266,0x00000003,0.0,0.0,0.001,0.0,0.001,-0.0,0.0,0.0,0.0,0.016,0.012,0.0,0.0,0.014,-1.106,-2.301,0.0,0.0,-2.301,34.991,34.991,0.0,0.0,0.0,96.875,96.484,0.0,0.0,26.375,26.25,0.0,0.0,0.0,0.0,90.0,76.711,0.109,27.375,0x00000000,0x00000000,0x00000000,0.0,1246,1279,5.132,11.186,0.0,0.0,0.057,0.104,0.0,0.0,1.0,0.981,0.981,0.981,0.196,1.0,1.0,0.462,0.584,0.57,24.267,0x00000101,192.168.0.40,8080,255.255.255.0,192.168.0.1,0xFFFFFFFF,0xFFFFFFFF,0xFFFFFFFF,0x00000000,
2.03278207779,0x00000000,0x00000000,0x00000000,0x00000000,0x00000000,0x00000000,0x00000000,0x00000000,40.59,3,0x00000000,96.484,97.647,-0.003,0.191,-0.015,-0.012,-0.025,10.928,0.273,-0.035,-0.17,-0.614,0x00000003,0.0,0.0,0.005,0.0,0.002,-0.0,0.001,0.0,0.0,0.016,0.012,0.0,0.0,0.014,-1.17,-1.92,0.0,0.0,-1.92,34.991,34.991,0.0,0.0,0.0,96.875,96.484,0.0,0.0,26.375,26.25,0.0,0.0,0.0,0.0,90.0,76.711,0.109,27.375,0x00000000,0x00000000,0x00000000,0.0,1246,1279,4.781,11.341,0.0,0.0,0.057,0.104,0.0,0.0,1.0,0.981,0.981,0.981,0.196,1.0,1.0,0.462,0.584,0.57,24.267,0x00000101,192.168.0.40,8080,255.255.255.0,192.168.0.1,0xFFFFFFFF,0xFFFFFFFF,0xFFFFFFFF,0x00000000,
2.08274292946,0x00000000,0x00000000,0x00000000,0x00000000,0x00000000,0x00000000,0x00000000,0x00000000,40.64,3,0x00000000,96.484,97.647,-0.004,0.191,-0.009,-0.021,-0.031,10.944,0.817,-0.019,0.562,-0.607,0x00000003,0.0,0.0,0.006,0.0,0.001,0.0,0.001,0.0,0.0,0.016,0.012,0.0,0.0,0.014,-1.119,-1.996,0.0,0.0,-1.996,34.991,34.991,0.0,0.0,0.0,96.875,96.484,0.0,0.0,26.375,26.25,0.0,0.0,0.0,0.0,90.0,76.711,0.109,27.375,0x00000000,0x00000000,0x00000000,0.0,1246,1279,5.399,11.769,0.0,0.0,0.057,0.104,0.0,0.0,1.0,0.981,0.981,0.981,0.196,1.0,1.0,0.462,0.584,0.57,24.267,0x00000101,192.168.0.40,8080,255.255.255.0,192.168.0.1,0xFFFFFFFF,0xFFFFFFFF,0xFFFFFFFF,0x00000000,
2.13300895691,0x00000000,0x00000000,0x00000000,0x00000000,0x00000000,0x00000000,0x00000000,0x00000000,40.69,3,0x00000000,96.484,97.647,-0.004,0.192,0.0,-0.017,-0.018,10.981,0.668,-0.018,0.174,0.106,0x00000003,0.0,0.0,-0.001,0.0,0.002,-0.001,0.001,0.0,0.0,0.016,0.012,0.0,0.0,0.014,-0.992,-2.034,0.0,0.0,-2.034,34.991,34.991,0.0,0.0,0.0,96.875,96.484,0.0,0.0,26.375,26.25,0.0,0.0,0.0,0.0,90.0,76.711,0.109,27.375,0x00000000,0x00000000,0x00000000,0.0,1246,1279,5.131,11.784,0.0,0.0,0.057,0.105,0.0,0.0,1.0,0.981,0.981,0.981,0.196,1.0,1.0,0.462,0.584,0.57,24.267,0x00000101,192.168.0.40,8080,255.255.255.0,192.168.0.1,0xFFFFFFFF,0xFFFFFFFF,0xFFFFFFFF,0x00000000,
2.18292713165,0x00000000,0x00000000,0x00000000,0x00000000,0x00000000,0x00000000,0x00000000,0x00000000,40.74,3,0x00000000,96.484,97.647,-0.003,0.194,0.0,-0.026,-0.018,11.041,1.496,-0.01,0.199,-1.307,0x00000003,0.0,0.0,-0.013,-0.0,0.002,-0.002,-0.0,0.0,0.0,0.016,0.012,0.0,0.0,0.014,-0.356,-2.963,0.0,0.0,-2.963,34.991,34.991,0.0,0.0,0.0,96.875,96.484,0.0,0.0,26.375,26.25,0.0,0.0,0.0,0.0,90.0,76.711,0.109,27.375,0x00000000,0x00000000,0x00000000,0.0,1246,1279,5.299,12.189,0.0,0.0,0.057,0.105,0.0,0.0,1.0,0.981,0.981,0.981,0.196,1.0,1.0,0.462,0.584,0.57,24.267,0x00000101,192.168.0.40,8080,255.255.255.0,192.168.0.1,0xFFFFFFFF,0xFFFFFFFF,0xFFFFFFFF,0x00000000,
2.23303103447,0x00000000,0x00000000,0x00000000,0x00000000,0x00000000,0x00000000,0x00000000,0x00000000,40.79,3,0x00000000,96.484,97.647,-0.003,0.192,0.024,-0.017,-0.042,11.127,1.94,-0.009,0.69,-1.303,0x00000003,0.0,0.0,-0.011,-0.001,0.001,-0.002,-0.001,0.0,0.0,0.016,0.012,0.0,0.0,0.014,-0.585,-0.954,0.0,0.0,-0.954,34.991,34.991,0.0,0.0,0.0,96.875,96.484,0.0,0.0,26.375,26.25,0.0,0.0,0.0,0.0,90.0,76.711,0.109,27.375,0x00000000,0x00000000,0x00000000,0.0,1246,1279,10.096,13.02,0.0,0.0,0.057,0.105,0.0,0.0,1.0,0.981,0.981,0.981,0.196,1.0,1.0,0.462,0.584,0.57,24.267,0x00000101,192.168.0.40,8080,255.255.255.0,192.168.0.1,0xFFFFFFFF,0xFFFFFFFF,0xFFFFFFFF,0x00000000,
2.28300595284,0x00000000,0x00000000,0x00000000,0x00000000,0x00000000,0x00000000,0x00000000,0x00000000,40.84,3,0x00000000,96.484,97.647,-0.003,0.194,0.024,-0.013,-0.036,11.222,1.971,-0.033,-0.84,0.121,0x00000003,0.0,0.0,0.001,-0.001,0.002,-0.001,-0.0,0.0,0.0,0.016,0.012,0.0,0.0,0.014,-0.394,-1.831,0.0,0.0,-1.831,34.991,34.991,0.0,0.0,0.0,96.875,96.484,0.0,0.0,26.375,26.25,0.0,0.0,0.0,0.0,90.0,76.711,0.109,27.375,0x00000000,0x00000000,0x00000000,0.0,1246,1279,4.996,12.018,0.0,0.0,0.057,0.105,0.0,0.0,1.0,0.981,0.981,0.981,0.196,1.0,1.0,0.462,0.584,0.57,24.267,0x00000101,192.168.0.40,8080,255.255.255.0,192.168.0.1,0xFFFFFFFF,0xFFFFFFFF,0xFFFFFFFF,0x00000000,
2.33311200142,0x00000000,0x00000000,0x00000000,0x00000000,0x00000000,0x00000000,0x00000000,0x00000000,40.89,3,0x00000000,96.484,97.647,-0.004,0.195,0.027,-0.039,-0.036,11.343,2.344,-0.009,0.22,-0.232,0x00000003,0.0,0.0,0.0,-0.001,0.003,-0.002,0.0,0.0,0.0,0.016,0.012,0.0,0.0,0.014,0.025,-1.78,0.0,0.0,-1.78,34.991,34.991,0.0,0.0,0.0,96.875,96.484,0.0,0.0,26.375,26.25,0.0,0.0,0.0,0.0,90.0,76.711,0.109,27.375,0x00000000,0x00000000,0x00000000,0.0,1246,1279,5.962,13.566,0.0,0.0,0.058,0.105,0.0,0.0,1.0,0.981,0.981,0.981,0.196,1.0,1.0,0.462,0.584,0.57,24.267,0x00000101,192.168.0.40,8080,255.255.255.0,192.168.0.1,0xFFFFFFFF,0xFFFFFFFF,0xFFFFFFFF,0x00000000,
2.38314604759,0x00000000,0x00000000,0x00000000,0x00000000,0x00000000,0x00000000,0x00000000,0x00000000,40.94,3,0x00000000,96.484,97.647,-0.001,0.195,0.037,0.008,-0.024,11.468,2.416,-0.014,0.691,-1.299,0x00000003,0.0,0.0,0.002,-0.001,0.003,-0.001,0.0,0.0,0.0,0.016,0.012,0.0,0.0,0.014,-0.089,-1.577,0.0,0.0,-1.577,34.991,34.991,0.0,0.0,0.0,96.875,96.484,0.0,0.0,26.375,26.25,0.0,0.0,0.0,0.0,90.0,76.711,0.109,27.375,0x00000000,0x00000000,0x00000000,0.0,1246,1279,4.997,10.892,0.0,0.0,0.058,0.106,0.0,0.0,1.0,0.981,0.981,0.981,0.196,1.0,1.0,0.462,0.584,0.57,24.267,0x00000101,192.168.0.40,8080,255.255.255.0,192.168.0.1,0xFFFFFFFF,0xFFFFFFFF,0xFFFFFFFF,0x00000000,
2.43327093124,0x00000000,0x00000000,0x00000000,0x00000000,0x00000000,0x00000000,0x00000000,0x00000000,40.99,3,0x00000000,96.484,97.647,-0.003,0.201,0.041,-0.0,-0.024,11.601,3.23,-0.001,-0.247,-1.622,0x00000003,0.0,0.0,0.007,-0.0,0.001,-0.0,-0.0,0.0,0.0,0.016,0.012,0.0,0.0,0.014,-0.203,-1.64,0.0,0.0,-1.64,34.991,34.991,0.0,0.0,0.0,96.875,96.484,0.0,0.0,26.375,26.25,0.0,0.0,0.0,0.0,90.0,76.711,0.109,27.375,0x00000000,0x00000000,0x00000000,0.0,1246,1279,4.956,11.927,0.0,0.0,0.058,0.106,0.0,0.0,1.0,0.981,0.981,0.981,0.196,1.0,1.0,0.462,0.584,0.57,24.267,0x00000101,192.168.0.40,8080,255.255.255.0,192.168.0.1,0xFFFFFFFF,0xFFFFFFFF,0xFFFFFFFF,0x00000000,
2.48330307007,0x00000000,0x00000000,0x00000000,0x00000000,0x00000000,0x00000000,0x00000000,0x00000000,41.04,3,0x00000000,96.484,97.647,-0.004,0.204,0.014,-0.034,-0.036,11.723,2.659,0.016,-0.057,-1.281,0x00000003,0.0,0.0,-0.002,-0.0,0.002,-0.001,0.0,0.0,0.0,0.016,0.012,0.0,0.0,0.014,-0.038,-1.844,0.0,0.0,-1.844,34.991,34.991,0.0,0.0,0.0,96.875,96.484,0.0,0.0,26.375,26.25,0.0,0.0,0.0,0.0,90.0,76.711,0.109,27.375,0x00000000,0x00000000,0x00000000,0.0,1246,1279,6.997,13.677,0.0,0.0,0.058,0.106,0.0,0.0,1.0,0.981,0.981,0.981,0.196,1.0,1.0,0.462,0.584,0.57,24.267,0x00000101,192.168.0.40,8080,255.255.255.0,192.168.0.1,0xFFFFFFFF,0xFFFFFFFF,0xFFFFFFFF,0x00000000,
2.53344297409,0x00000000,0x00000000,0x00000000,0x00000000,0x00000000,0x00000000,0x00000000,0x00000000,41.09,3,0x00000000,96.484,97.647,-0.004,0.206,0.009,-0.021,-0.037,11.806,1.487,0.014,0.062,-0.585,0x00000003,0.0,0.0,-0.002,-0.0,0.001,-0.001,-0.0,0.0,0.0,0.016,0.012,0.0,0.0,0.014,-0.038,-2.022,0.0,0.0,-2.022,34.991,34.991,0.0,0.0,0.0,96.875,96.484,0.0,0.0,26.375,26.25,0.0,0.0,0.0,0.0,90.0,76.711,0.109,27.375,0x00000000,0x00000000,0x00000000,0.0,1246,1279,5.042,11.529,0.0,0.0,0.058,0.106,0.0,0.0,1.0,0.981,0.981,0.981,0.196,1.0,1.0,0.462,0.584,0.57,24.267,0x00000101,192.168.0.40,8080,255.255.255.0,192.168.0.1,0xFFFFFFFF,0xFFFFFFFF,0xFFFFFFFF,0x00000000,
2.58346390724,0x00000000,0x00000000,0x00000000,0x00000000,0x00000000,0x00000000,0x00000000,0x00000000,41.14,3,0x00000000,96.484,97.647,-0.007,0.206,-0.022,-0.026,0.018,11.837,-0.253,0.019,1.08,-0.599,0x00000003,0.0,0.0,0.004,-0.0,0.001,-0.0,-0.0,0.0,0.0,0.016,0.012,0.0,0.0,0.014,0.089,-2.238,0.0,0.0,-2.238,34.991,34.991,0.0,0.0,0.0,96.875,96.484,0.0,0.0,26.375,26.25,0.0,0.0,0.0,0.0,90.0,76.711,0.109,27.375,0x00000000,0x00000000,0x00000000,0.0,1246,1279,5.928,13.84,0.0,0.0,0.058,0.106,0.0,0.0,1.0,0.981,0.981,0.981,0.196,1.0,1.0,0.462,0.584,0.57,24.267,0x00000101,192.168.0.40,8080,255.255.255.0,192.168.0.1,0xFFFFFFFF,0xFFFFFFFF,0xFFFFFFFF,0x00000000,
2.63359808922,0x00000000,0x00000000,0x00000000,0x00000000,0x00000000,0x00000000,0x00000000,0x00000000,41.19,3,0x00000000,96.484,97.647,-0.002,0.208,-0.031,0.014,-0.013,11.825,-0.82,0.003,0.021,-0.25,0x00000003,0.0,0.0,0.014,0.0,0.001,-0.0,0.002,0.0,0.0,0.016,0.012,0.0,0.0,0.014,0.025,-2.454,0.0,0.0,-2.454,34.991,34.991,0.0,0.0,0.0,96.875,96.484,0.0,0.0,26.375,26.25,0.0,0.0,0.0,0.0,90.0,76.711,0.109,27.375,0x00000000,0x00000000,0x00000000,0.0,1246,1279,4.816,12.054,0.0,0.0,0.058,0.106,0.0,0.0,1.0,0.981,0.981,0.981,0.196,1.0,1.0,0.462,0.584,0.57,24.267,0x00000101,192.168.0.40,8080,255.255.255.0,192.168.0.1,0xFFFFFFFF,0xFFFFFFFF,0xFFFFFFFF,0x00000000,
2.68362402916,0x00000000,0x00000000,0x00000000,0x00000000,0x00000000,0x00000000,0x00000000,0x00000000,41.24,3,0x00000000,96.484,97.647,-0.005,0.208,-0.038,-0.012,0.012,11.779,-0.932,0.022,0.592,-0.605,0x00000003,0.0,0.0,-0.005,0.0,0.003,-0.001,0.001,0.0,0.0,0.016,0.012,0.0,0.0,0.014,-0.076,-2.848,0.0,0.0,-2.848,34.991,34.991,0.0,0.0,0.0,96.875,96.484,0.0,0.0,26.375,26.25,0.0,0.0,0.0,0.0,90.0,76.711,0.109,27.375,0x00000000,0x00000000,0x00000000,0.0,1246,1279,6.033,11.977,0.0,0.0,0.058,0.107,0.0,0.0,1.0,0.981,0.981,0.981,0.196,1.0,1.0,0.462,0.584,0.57,24.267,0x00000101,192.168.0.40,8080,255.255.255.0,192.168.0.1,0xFFFFFFFF,0xFFFFFFFF,0xFFFFFFFF,0x00000000,
2.73378610611,0x00000000,0x00000000,0x00000000,0x00000000,0x00000000,0x00000000,0x00000000,0x00000000,41.29,3,0x00000000,96.484,97.647,-0.004,0.208,-0.022,0.0,0.006,11.737,-0.736,0.028,0.78,0.813,0x00000003,0.0,0.0,0.004,-0.0,0.004,-0.001,0.001,0.0,0.0,0.016,0.012,0.0,0.0,0.014,0.394,-2.848,0.0,0.0,-2.848,34.991,34.991,0.0,0.0,0.0,96.875,96.484,0.0,0.0,26.375,26.25,0.0,0.0,0.0,0.0,90.0,76.711,0.109,27.375,0x00000000,0x00000000,0x00000000,0.0,1246,1279,6.006,10.607,0.0,0.0,0.058,0.107,0.0,0.0,1.0,0.981,0.981,0.981,0.196,1.0,1.0,0.462,0.584,0.57,24.267,0x00000101,192.168.0.40,8080,255.255.255.0,192.168.0.1,0xFFFFFFFF,0xFFFFFFFF,0xFFFFFFFF,0x00000000,
2.78381490707,0x00000000,0x00000000,0x00000000,0x00000000,0x00000000,0x00000000,0x00000000,0x00000000,41.34,3,0x00000000,96.484,97.647,-0.006,0.2,-0.006,0.009,-0.019,11.728,0.118,0.045,0.592,0.467,0x00000003,0.0,0.0,-0.001,-0.0,0.004,-0.002,0.001,0.0,0.0,0.016,0.012,0.0,0.0,0.014,-0.102,-2.848,0.0,0.0,-2.848,34.991,34.991,0.0,0.0,0.0,96.875,96.484,0.0,0.0,26.375,26.25,0.0,0.0,0.0,0.0,90.0,76.711,0.109,27.375,0x00000000,0x00000000,0x00000000,0.0,1246,1279,4.819,11.734,0.0,0.0,0.058,0.107,0.0,0.0,1.0,0.981,0.981,0.981,0.196,1.0,1.0,0.462,0.584,0.57,24.267,0x00000101,192.168.0.40,8080,255.255.255.0,192.168.0.1,0xFFFFFFFF,0xFFFFFFFF,0xFFFFFFFF,0x00000000,
2.83392310143,0x00000000,0x00000000,0x00000000,0x00000000,0x00000000,0x00000000,0x00000000,0x00000000,41.39,3,0x00000000,96.484,97.647,-0.0,0.199,0.01,-0.017,-0.012,11.732,0.521,0.054,-0.37,-2.014,0x00000003,0.0,0.0,-0.005,-0.0,0.003,-0.001,0.001,0.0,0.0,0.016,0.012,0.0,0.0,0.014,-0.496,-2.848,0.0,0.0,-2.848,34.991,34.991,0.0,0.0,0.0,96.875,96.484,0.0,0.0,26.375,26.25,0.0,0.0,0.0,0.0,90.0,76.711,0.109,27.375,0x00000000,0x00000000,0x00000000,0.0,1246,1279,5.106,10.144,0.0,0.0,0.058,0.107,0.0,0.0,1.0,0.981,0.981,0.981,0.196,1.0,1.0,0.462,0.584,0.57,24.267,0x00000101,192.168.0.40,8080,255.255.255.0,192.168.0.1,0xFFFFFFFF,0xFFFFFFFF,0xFFFFFFFF,0x00000000,
2.88397192955,0x00000000,0x00000000,0x00000000,0x00000000,0x00000000,0x00000000,0x00000000,0x00000000,41.44,3,0x00000000,96.484,97.647,-0.002,0.205,0.014,-0.03,-0.03,11.802,1.448,0.048,-1.065,1.188,0x00000003,0.0,0.0,-0.003,-0.0,0.003,-0.001,0.0,0.0,0.0,0.016,0.012,0.0,0.0,0.014,0.076,-2.543,0.0,0.0,-2.543,34.991,34.991,0.0,0.0,0.0,96.875,96.484,0.0,0.0,26.375,26.25,0.0,0.0,0.0,0.0,90.0,76.711,0.109,27.375,0x00000000,0x00000000,0x00000000,0.0,1246,1279,5.298,13.305,0.0,0.0,0.058,0.107,0.0,0.0,1.0,0.981,0.981,0.981,0.196,1.0,1.0,0.462,0.584,0.57,24.267,0x00000101,192.168.0.40,8080,255.255.255.0,192.168.0.1,0xFFFFFFFF,0xFFFFFFFF,0xFFFFFFFF,0x00000000,
2.93406200409,0x00000000,0x00000000,0x00000000,0x00000000,0x00000000,0x00000000,0x00000000,0x00000000,41.49,3,0x00000000,96.484,97.647,-0.005,0.202,0.007,-0.013,-0.012,11.874,0.523,0.06,0.473,-1.303,0x00000003,0.0,0.0,-0.003,-0.0,0.002,-0.001,0.0,0.0,0.0,0.016,0.012,0.0,0.0,0.014,0.114,-2.238,0.0,0.0,-2.238,34.991,34.991,0.0,0.0,0.0,96.875,96.484,0.0,0.0,26.375,26.25,0.0,0.0,0.0,0.0,90.0,76.711,0.109,27.375,0x00000000,0x00000000,0x00000000,0.0,1246,1279,7.71,9.874,0.0,0.0,0.059,0.107,0.0,0.0,1.0,0.981,0.981,0.981,0.196,1.0,1.0,0.462,0.584,0.57,24.267,0x00000101,192.168.0.40,8080,255.255.255.0,192.168.0.1,0xFFFFFFFF,0xFFFFFFFF,0xFFFFFFFF,0x00000000,
2.98411893845,0x00000000,0x00000000,0x00000000,0x00000000,0x00000000,0x00000000,0x00000000,0x00000000,41.54,3,0x00000000,96.484,97.647,-0.006,0.205,-0.003,-0.026,-0.019,11.926,0.741,0.055,-0.827,0.117,0x00000003,0.0,0.0,0.003,-0.0,0.001,-0.0,0.0,0.0,0.0,0.016,0.012,0.0,0.0,0.014,0.191,-2.225,0.0,0.0,-2.225,34.991,34.991,0.0,0.0,0.0,96.875,96.484,0.0,0.0,26.375,26.25,0.0,0.0,0.0,0.0,90.0,76.711,0.109,27.375,0x00000000,0x00000000,0x00000000,0.0,1246,1279,5.073,13.588,0.0,0.0,0.059,0.108,0.0,0.0,1.0,0.981,0.981,0.981,0.196,1.0,1.0,0.462,0.584,0.57,24.267,0x00000101,192.168.0.40,8080,255.255.255.0,192.168.0.1,0xFFFFFFFF,0xFFFFFFFF,0xFFFFFFFF,0x00000000,
3.03422999382,0x00000000,0x00000000,0x00000000,0x00000000,0x00000000,0x00000000,0x00000000,0x00000000,41.59,3,0x00000000,96.484,97.647,-0.0,0.208,-0.005,-0.004,-0.043,11.964,-0.066,0.064,0.42,0.117,0x00000003,0.0,0.0,0.011,-0.0,0.001,-0.0,0.001,0.0,0.0,0.016,0.012,0.0,0.0,0.014,0.267,-2.251,0.0,0.0,-2.251,34.991,34.991,0.0,0.0,0.0,96.875,96.484,0.0,0.0,26.375,26.25,0.0,0.0,0.0,0.0,90.0,76.711,0.109,27.375,0x00000000,0x00000000,0x00000000,0.0,1246,1279,5.116,11.23,0.0,0.0,0.059,0.108,0.0,0.0,1.0,0.981,0.981,0.981,0.196,1.0,1.0,0.462,0.584,0.57,24.267,0x00000101,192.168.0.40,8080,255.255.255.0,192.168.0.1,0xFFFFFFFF,0xFFFFFFFF,0xFFFFFFFF,0x00000000,
3.08425593376,0x00000000,0x00000000,0x00000000,0x00000000,0x00000000,0x00000000,0x00000000,0x00000000,41.64,3,0x00000000,96.484,97.647,-0.003,0.207,-0.006,-0.004,-0.031,11.97,-0.198,0.074,-0.989,-0.233,0x00000003,0.0,0.0,0.003,0.0,0.002,0.0,0.001,0.0,0.0,0.016,0.012,0.0,0.0,0.014,-0.013,-2.67,0.0,0.0,-2.67,34.991,34.991,0.0,0.0,0.0,96.875,96.484,0.0,0.0,26.375,26.25,0.0,0.0,0.0,0.0,90.0,76.711,0.109,27.375,0x00000000,0x00000000,0x00000000,0.0,1246,1279,4.781,9.785,0.0,0.0,0.059,0.108,0.0,0.0,1.0,0.981,0.981,0.981,0.196,1.0,1.0,0.462,0.584,0.57,24.267,0x00000101,192.168.0.40,8080,255.255.255.0,192.168.0.1,0xFFFFFFFF,0xFFFFFFFF,0xFFFFFFFF,0x00000000,
3.13438296318,0x00000000,0x00000000,0x00000000,0x00000000,0x00000000,0x00000000,0x00000000,0x00000000,41.69,3,0x00000000,96.484,97.647,-0.006,0.209,-0.02,-0.012,-0.019,11.971,-0.498,0.103,1.263,0.826,0x00000003,0.0,0.0,-0.0,0.0,0.002,-0.0,0.0,0.0,0.0,0.016,0.012,0.0,0.0,0.014,-0.216,-2.886,0.0,0.0,-2.886,34.991,34.991,0.0,0.0,0.0,96.875,96.484,0.0,0.0,26.375,26.25,0.0,0.0,0.0,0.0,90.0,76.711,0.109,27.375,0x00000000,0x00000000,0x00000000,0.0,1246,1279,4.766,11.879,0.0,0.0,0.059,0.108,0.0,0.0,1.0,0.981,0.981,0.981,0.196,1.0,1.0,0.462,0.584,0.57,24.267,0x00000101,192.168.0.40,8080,255.255.255.0,192.168.0.1,0xFFFFFFFF,0xFFFFFFFF,0xFFFFFFFF,0x00000000,
3.18443608284,0x00000000,0x00000000,0x00000000,0x00000000,0x00000000,0x00000000,0x00000000,0x00000000,41.74,3,0x00000000,96.484,97.647,-0.003,0.208,-0.02,-0.013,0.006,11.95,-0.087,0.089,-0.097,-0.939,0x00000003,0.0,0.0,-0.005,-0.0,0.001,-0.001,0.0,0.0,0.0,0.016,0.012,0.0,0.0,0.014,-0.203,-2.874,0.0,0.0,-2.874,34.991,34.991,0.0,0.0,0.0,96.875,96.484,0.0,0.0,26.375,26.25,0.0,0.0,0.0,0.0,90.0,76.711,0.109,27.375,0x00000000,0x00000000,0x00000000,0.0,1246,1279,6.627,13.38,0.0,0.0,0.059,0.108,0.0,0.0,1.0,0.981,0.981,0.981,0.196,1.0,1.0,0.462,0.584,0.57,24.267,0x00000101,192.168.0.40,8080,255.255.255.0,192.168.0.1,0xFFFFFFFF,0xFFFFFFFF,0xFFFFFFFF,0x00000000,
3.23457193375,0x00000000,0x00000000,0x00000000,0x00000000,0x00000000,0x00000000,0x00000000,0x00000000,41.79,3,0x00000000,96.484,97.647,-0.004,0.203,-0.014,0.005,-0.013,11.948,0.197,0.095,0.245,-0.235,0x00000003,0.0,0.0,0.002,-0.0,0.001,-0.0,0.0,0.0,0.0,0.016,0.012,0.0,0.0,0.014,-0.61,-1.615,0.0,0.0,-1.615,34.991,34.991,0.0,0.0,0.0,96.875,96.484,0.0,0.0,26.375,26.25,0.0,0.0,0.0,0.0,90.0,76.711,0.109,27.375,0x00000000,0x00000000,0x00000000,0.0,1246,1279,4.846,11.854,0.0,0.0,0.059,0.108,0.0,0.0,1.0,0.981,0.981,0.981,0.196,1.0,1.0,0.462,0.584,0.57,24.267,0x00000101,192.168.0.40,8080,255.255.255.0,192.168.0.1,0xFFFFFFFF,0xFFFFFFFF,0xFFFFFFFF,0x00000000,
3.28457593918,0x00000000,0x00000000,0x00000000,0x00000000,0x00000000,0x00000000,0x00000000,0x00000000,41.84,3,0x00000000,96.484,97.647,0.0,0.208,-0.006,-0.004,-0.018,11.948,0.976,0.087,-0.955,-1.634,0x00000003,0.0,0.0,0.006,-0.0,0.002,-0.001,0.001,0.0,0.0,0.016,0.012,0.0,0.0,0.014,-0.928,-1.221,0.0,0.0,-1.221,34.991,34.991,0.0,0.0,0.0,96.875,96.484,0.0,0.0,26.375,26.25,0.0,0.0,0.0,0.0,90.0,76.703,0.109,27.375,0x00000000,0x00000000,0x00000000,0.0,1246,1279,5.107,13.005,0.0,0.0,0.059,0.109,0.0,0.0,1.0,0.981,0.981,0.981,0.196,1.0,1.0,0.462,0.584,0.57,24.267,0x00000101,192.168.0.40,8080,255.255.255.0,192.168.0.1,0xFFFFFFFF,0xFFFFFFFF,0xFFFFFFFF,0x00000000,
3.33472394943,0x00000000,0x00000000,0x00000000,0x00000000,0x00000000,0x00000000,0x00000000,0x00000000,41.89,3,0x00000000,96.484,97.647,-0.003,0.207,-0.004,-0.021,-0.006,11.958,0.466,0.07,-0.184,-0.58,0x00000003,0.0,0.0,-0.005,-0.0,0.002,-0.001,0.0,0.0,0.0,0.016,0.012,0.0,0.0,0.014,0.089,-2.467,0.0,0.0,-2.467,34.991,34.991,0.0,0.0,0.0,96.875,96.484,0.0,0.0,26.375,26.25,0.0,0.0,0.0,0.0,90.0,76.703,0.109,27.375,0x00000000,0x00000000,0x00000000,0.0,1246,1279,4.78,12.018,0.0,0.0,0.059,0.109,0.0,0.0,1.0,0.981,0.981,0.981,0.196,1.0,1.0,0.462,0.584,0.57,24.267,0x00000101,192.168.0.40,8080,255.255.255.0,192.168.0.1,0xFFFFFFFF,0xFFFFFFFF,0xFFFFFFFF,0x00000000,
3.38474702835,0x00000000,0x00000000,0x00000000,0x00000000,0x00000000,0x00000000,0x00000000,0x00000000,41.94,3,0x00000000,96.484,97.647,-0.006,0.209,-0.011,-0.013,-0.012,11.993,1.135,0.046,-0.501,0.842,0x00000003,0.0,0.0,0.001,-0.0,0.001,-0.0,0.0,0.0,0.0,0.016,0.012,0.0,0.0,0.014,0.089,-2.467,0.0,0.0,-2.467,34.991,34.991,0.0,0.0,0.0,96.875,96.484,0.0,0.0,26.375,26.25,0.0,0.0,0.0,0.0,90.0,76.703,0.109,27.375,0x00000000,0x00000000,0x00000000,0.0,1246,1279,5.399,11.975,0.0,0.0,0.059,0.109,0.0,0.0,1.0,0.981,0.981,0.981,0.196,1.0,1.0,0.462,0.584,0.57,24.267,0x00000101,192.168.0.40,8080,255.255.255.0,192.168.0.1,0xFFFFFFFF,0xFFFFFFFF,0xFFFFFFFF,0x00000000,
3.43487405777,0x00000000,0x00000000,0x00000000,0x00000000,0x00000000,0x00000000,0x00000000,0x00000000,41.99,3,0x00000000,96.484,97.647,-0.005,0.21,-0.004,-0.021,-0.007,12.023,0.718,0.053,-0.442,-0.569,0x00000003,0.0,0.0,0.003,-0.0,0.001,-0.0,0.0,0.0,0.0,0.016,0.012,0.0,0.0,0.014,0.089,-2.378,0.0,0.0,-2.378,34.991,34.991,0.0,0.0,0.0,96.875,96.484,0.0,0.0,26.375,26.25,0.0,0.0,0.0,0.0,90.0,76.703,0.109,27.375,0x00000000,0x00000000,0x00000000,0.0,1246,1279,7.196,13.01,0.0,0.0,0.059,0.109,0.0,0.0,1.0,0.981,0.981,0.981,0.196,1.0,1.0,0.462,0.584,0.57,24.267,0x00000101,192.168.0.40,8080,255.255.255.0,192.168.0.1,0xFFFFFFFF,0xFFFFFFFF,0xFFFFFFFF,0x00000000,
3.48491692543,0x00000000,0x00000000,0x00000000,0x00000000,0x00000000,0x00000000,0x00000000,0x00000000,42.04,3,0x00000000,96.484,97.647,-0.001,0.211,-0.009,-0.034,-0.012,12.042,0.175,0.061,0.41,0.12,0x00000003,0.0,0.0,0.009,0.0,0.001,-0.0,0.001,0.0,0.0,0.016,0.012,0.0,0.0,0.014,0.191,-2.39,0.0,0.0,-2.39,34.991,34.991,0.0,0.0,0.0,96.875,96.484,0.0,0.0,26.375,26.25,0.0,0.0,0.0,0.0,90.0,76.703,0.109,27.375,0x00000000,0x00000000,0x00000000,0.0,1246,1279,6.237,13.428,0.0,0.0,0.059,0.109,0.0,0.0,1.0,0.981,0.981,0.981,0.196,1.0,1.0,0.462,0.584,0.57,24.267,0x00000101,192.168.0.40,8080,255.255.255.0,192.168.0.1,0xFFFFFFFF,0xFFFFFFFF,0xFFFFFFFF,0x00000000,
3.5350151062,0x00000000,0x00000000,0x00000000,0x00000000,0x00000000,0x00000000,0x00000000,0x00000000,42.09,3,0x00000000,96.484,97.647,-0.002,0.207,-0.021,-0.008,-0.012,12.059,-0.225,0.072,1.733,-0.242,0x00000003,0.0,0.0,0.008,0.0,0.002,-0.0,0.002,0.0,0.0,0.016,0.012,0.0,0.0,0.014,-0.102,-2.696,0.0,0.0,-2.696,34.991,34.991,0.0,0.0,0.0,96.875,96.484,0.0,0.0,26.375,26.25,0.0,0.0,0.0,0.0,90.0,76.703,0.109,27.375,0x00000000,0x00000000,0x00000000,0.0,1246,1279,7.052,11.699,0.0,0.0,0.059,0.109,0.0,0.0,1.0,0.981,0.981,0.981,0.196,1.0,1.0,0.462,0.584,0.57,24.267,0x00000101,192.168.0.40,8080,255.255.255.0,192.168.0.1,0xFFFFFFFF,0xFFFFFFFF,0xFFFFFFFF,0x00000000,
3.58505511284,0x00000000,0x00000000,0x00000000,0x00000000,0x00000000,0x00000000,0x00000000,0x00000000,42.14,3,0x00000000,96.484,97.647,-0.005,0.212,-0.017,-0.013,-0.006,12.054,-0.108,0.063,0.067,-0.584,0x00000003,0.0,0.0,-0.005,0.0,0.002,-0.0,0.0,0.0,0.0,0.016,0.012,0.0,0.0,0.014,-0.102,-2.823,0.0,0.0,-2.823,34.991,34.991,0.0,0.0,0.0,96.875,96.484,0.0,0.0,26.375,26.25,0.0,0.0,0.0,0.0,90.0,76.703,0.109,27.375,0x00000000,0x00000000,0x00000000,0.0,1246,1279,5.497,11.961,0.0,0.0,0.06,0.11,0.0,0.0,1.0,0.981,0.981,0.981,0.196,1.0,1.0,0.462,0.584,0.57,24.267,0x00000101,192.168.0.40,8080,255.255.255.0,192.168.0.1,0xFFFFFFFF,0xFFFFFFFF,0xFFFFFFFF,0x00000000,
3.6351981163,0x00000000,0x00000000,0x00000000,0x00000000,0x00000000,0x00000000,0x00000000,0x00000000,42.19,3,0x00000000,96.484,97.647,-0.005,0.208,-0.009,-0.017,-0.025,12.06,0.594,0.064,-0.111,-0.939,0x00000003,0.0,0.0,0.001,0.0,0.001,-0.0,0.0,0.0,0.0,0.016,0.012,0.0,0.0,0.014,-0.203,-2.823,0.0,0.0,-2.823,34.991,34.991,0.0,0.0,0.0,96.875,96.484,0.0,0.0,26.375,26.25,0.0,0.0,0.0,0.0,90.0,76.703,0.109,27.375,0x00000000,0x00000000,0x00000000,0.0,1246,1279,4.977,13.678,0.0,0.0,0.06,0.11,0.0,0.0,1.0,0.981,0.981,0.981,0.196,1.0,1.0,0.462,0.584,0.57,24.267,0x00000101,192.168.0.40,8080,255.255.255.0,192.168.0.1,0xFFFFFFFF,0xFFFFFFFF,0xFFFFFFFF,0x00000000,
3.68520998955,0x00000000,0x00000000,0x00000000,0x00000000,0x00000000,0x00000000,0x00000000,0x00000000,42.24,3,0x00000000,96.484,97.647,-0.001,0.208,-0.024,-0.017,0.012,12.066,0.033,0.075,0.5,0.83,0x00000003,0.0,0.0,0.006,0.0,0.001,-0.0,0.001,0.0,0.0,0.016,0.012,0.0,0.0,0.014,-0.407,-2.848,0.0,0.0,-2.848,34.991,34.991,0.0,0.0,0.0,96.875,96.484,0.0,0.0,26.375,26.25,0.0,0.0,0.0,0.0,90.0,76.703,0.109,27.375,0x00000000,0x00000000,0x00000000,0.0,1246,1279,5.745,13.12,0.0,0.0,0.06,0.11,0.0,0.0,1.0,0.981,0.981,0.981,0.196,1.0,1.0,0.462,0.584,0.57,24.267,0x00000101,192.168.0.40,8080,255.255.255.0,192.168.0.1,0xFFFFFFFF,0xFFFFFFFF,0xFFFFFFFF,0x00000000,
3.73534011841,0x00000000,0x00000000,0x00000000,0x00000000,0x00000000,0x00000000,0x00000000,0x00000000,42.29,3,0x00000000,96.484,97.647,0.0,0.21,-0.014,-0.03,-0.0,12.056,-0.11,0.047,0.252,0.831,0x00000003,0.0,0.0,-0.002,0.0,0.002,-0.0,0.001,0.0,0.0,0.016,0.012,0.0,0.0,0.014,-0.407,-2.823,0.0,0.0,-2.823,34.991,34.991,0.0,0.0,0.0,96.875,96.484,0.0,0.0,26.375,26.25,0.0,0.0,0.0,0.0,90.0,76.703,0.109,27.375,0x00000000,0x00000000,0x00000000,0.0,1246,1279,5.168,13.433,0.0,0.0,0.06,0.11,0.0,0.0,1.0,0.981,0.981,0.981,0.196,1.0,1.0,0.462,0.584,0.57,24.267,0x00000101,192.168.0.40,8080,255.255.255.0,192.168.0.1,0xFFFFFFFF,0xFFFFFFFF,0xFFFFFFFF,0x00000000,
3.79542613029,0x00000000,0x00000000,0x00000000,0x00000000,0x00000000,0x00000000,0x00000000,0x00000000,42.35,3,0x00000000,96.484,97.647,-0.005,0.208,-0.002,-0.017,-0.049,12.057,-0.111,0.022,-0.089,0.123,0x00000003,0.0,0.0,-0.003,0.0,0.001,-0.001,0.001,0.0,0.0,0.016,0.012,0.0,0.0,0.014,-0.407,-2.912,0.0,0.0,-2.912,34.991,34.991,0.0,0.0,0.0,96.875,96.484,0.0,0.0,26.375,26.25,0.0,0.0,0.0,0.0,90.0,76.711,0.109,27.375,0x00000000,0x00000000,0x00000000,0.0,1246,1279,4.775,13.759,0.0,0.0,0.06,0.11,0.0,0.0,1.0,0.981,0.981,0.981,0.196,1.0,1.0,0.462,0.584,0.57,24.267,0x00000101,192.168.0.40,8080,255.255.255.0,192.168.0.1,0xFFFFFFFF,0xFFFFFFFF,0xFFFFFFFF,0x00000000,
3.8455119133,0x00000000,0x00000000,0x00000000,0x00000000,0x00000000,0x00000000,0x00000000,0x00000000,42.4,3,0x00000000,96.484,97.647,-0.004,0.208,-0.006,-0.013,-0.018,12.069,0.261,0.049,0.974,-0.232,0x00000003,0.0,0.0,-0.001,0.0,0.001,-0.0,0.0,0.0,0.0,0.016,0.012,0.0,0.0,0.014,-0.407,-2.734,0.0,0.0,-2.734,34.991,34.991,0.0,0.0,0.0,96.875,96.484,0.0,0.0,26.375,26.25,0.0,0.0,0.0,0.0,90.0,76.711,0.109,27.375,0x00000000,0x00000000,0x00000000,0.0,1246,1279,4.766,12.117,0.0,0.0,0.06,0.111,0.0,0.0,1.0,0.981,0.981,0.981,0.196,1.0,1.0,0.462,0.584,0.57,24.267,0x00000101,192.168.0.40,8080,255.255.255.0,192.168.0.1,0xFFFFFFFF,0xFFFFFFFF,0xFFFFFFFF,0x00000000,
3.89555311203,0x00000000,0x00000000,0x00000000,0x00000000,0x00000000,0x00000000,0x00000000,0x00000000,42.45,3,0x00000000,96.484,97.647,0.001,0.211,-0.015,-0.052,0.018,12.078,0.361,0.049,-0.405,1.542,0x00000003,0.0,0.0,-0.002,0.0,0.001,-0.0,0.0,0.0,0.0,0.016,0.012,0.0,0.0,0.014,-0.407,-2.823,0.0,0.0,-2.823,34.991,34.991,0.0,0.0,0.0,96.875,96.484,0.0,0.0,26.375,26.25,0.0,0.0,0.0,0.0,90.0,76.711,0.109,27.375,0x00000000,0x00000000,0x00000000,0.0,1246,1279,4.766,13.57,0.0,0.0,0.06,0.111,0.0,0.0,1.0,0.981,0.981,0.981,0.196,1.0,1.0,0.462,0.584,0.57,24.267,0x00000101,192.168.0.40,8080,255.255.255.0,192.168.0.1,0xFFFFFFFF,0xFFFFFFFF,0xFFFFFFFF,0x00000000,
3.94566893578,0x00000000,0x00000000,0x00000000,0x00000000,0x00000000,0x00000000,0x00000000,0x00000000,42.5,3,0x00000000,96.484,97.647,-0.004,0.209,-0.023,-0.025,-0.013,12.083,-0.143,0.034,0.333,0.467,0x00000003,0.0,0.0,-0.002,0.0,0.0,-0.0,0.0,0.0,0.0,0.016,0.012,0.0,0.0,0.014,-0.407,-2.848,0.0,0.0,-2.848,34.991,34.991,0.0,0.0,0.0,96.875,96.484,0.0,0.0,26.375,26.25,0.0,0.0,0.0,0.0,90.0,76.711,0.109,27.375,0x00000000,0x00000000,0x00000000,0.0,1246,1279,7.771,10.676,0.0,0.0,0.06,0.111,0.0,0.0,1.0,0.981,0.981,0.981,0.196,1.0,1.0,0.462,0.584,0.57,24.267,0x00000101,192.168.0.40,8080,255.255.255.0,192.168.0.1,0xFFFFFFFF,0xFFFFFFFF,0xFFFFFFFF,0x00000000,
3.99572205544,0x00000000,0x00000000,0x00000000,0x00000000,0x00000000,0x00000000,0x00000000,0x00000000,42.55,3,0x00000000,96.484,97.647,-0.006,0.209,-0.016,-0.03,-0.006,12.071,-0.029,0.005,-0.242,0.822,0x00000003,0.0,0.0,-0.012,-0.0,0.001,-0.001,0.0,0.0,0.0,0.016,0.012,0.0,0.0,0.014,-0.407,-2.924,0.0,0.0,-2.924,34.991,34.991,0.0,0.0,0.0,96.875,96.484,0.0,0.0,26.375,26.25,0.0,0.0,0.0,0.0,90.0,76.711,0.109,27.375,0x00000000,0x00000000,0x00000000,0.0,1246,1279,4.895,10.098,0.0,0.0,0.06,0.111,0.0,0.0,1.0,0.981,0.981,0.981,0.196,1.0,1.0,0.462,0.584,0.57,24.267,0x00000101,192.168.0.40,8080,255.255.255.0,192.168.0.1,0xFFFFFFFF,0xFFFFFFFF,0xFFFFFFFF,0x00000000,
4.04584908485,0x00000000,0x00000000,0x00000000,0x00000000,0x00000000,0x00000000,0x00000000,0x00000000,42.6,3,0x00000000,96.484,97.647,-0.002,0.211,-0.017,-0.008,-0.0,12.054,-0.496,0.03,1.248,0.821,0x00000003,0.0,0.0,-0.001,-0.0,0.001,-0.0,0.0,0.0,0.0,0.016,0.012,0.0,0.0,0.014,-0.407,-2.937,0.0,0.0,-2.937,34.991,34.991,0.0,0.0,0.0,96.875,96.484,0.0,0.0,26.375,26.25,0.0,0.0,0.0,0.0,90.0,76.711,0.109,27.375,0x00000000,0x00000000,0x00000000,0.0,1246,1279,4.771,11.892,0.0,0.0,0.06,0.111,0.0,0.0,1.0,0.981,0.981,0.981,0.196,1.0,1.0,0.462,0.584,0.57,24.267,0x00000101,192.168.0.40,8080,255.255.255.0,192.168.0.1,0xFFFFFFFF,0xFFFFFFFF,0xFFFFFFFF,0x00000000,
4.09589409828,0x00000000,0x00000000,0x00000000,0x00000000,0x00000000,0x00000000,0x00000000,0x00000000,42.65,3,0x00000000,96.484,97.647,-0.0,0.208,-0.019,-0.008,-0.006,12.046,-0.337,0.031,-0.91,0.475,0x00000003,0.0,0.0,0.0,0.0,0.002,-0.001,0.001,0.0,0.0,0.016,0.012,0.0,0.0,0.014,-0.509,-2.823,0.0,0.0,-2.823,34.991,34.991,0.0,0.0,0.0,96.875,96.484,0.0,0.0,26.375,26.25,0.0,0.0,0.0,0.0,90.0,76.711,0.109,27.375,0x00000000,0x00000000,0x00000000,0.0,1246,1279,7.476,13.675,0.0,0.0,0.06,0.111,0.0,0.0,1.0,0.981,0.981,0.981,0.196,1.0,1.0,0.462,0.584,0.57,24.267,0x00000101,192.168.0.40,8080,255.255.255.0,192.168.0.1,0xFFFFFFFF,0xFFFFFFFF,0xFFFFFFFF,0x00000000,
4.14599704742,0x00000000,0x00000000,0x00000000,0x00000000,0x00000000,0x00000000,0x00000000,0x00000000,42.7,3,0x00000000,96.484,97.647,-0.003,0.209,-0.019,-0.021,-0.025,12.02,-0.409,0.033,-0.335,0.114,0x00000003,0.0,0.0,-0.001,-0.0,0.001,-0.0,-0.0,0.0,0.0,0.016,0.012,0.0,0.0,0.014,-0.407,-2.912,0.0,0.0,-2.912,34.991,34.991,0.0,0.0,0.0,96.875,96.484,0.0,0.0,26.375,26.25,0.0,0.0,0.0,0.0,90.0,76.711,0.109,27.375,0x00000000,0x00000000,0x00000000,0.0,1246,1279,4.883,13.3,0.0,0.0,0.06,0.112,0.0,0.0,1.0,0.981,0.981,0.981,0.196,1.0,1.0,0.462,0.584,0.57,24.267,0x00000101,192.168.0.40,8080,255.255.255.0,192.168.0.1,0xFFFFFFFF,0xFFFFFFFF,0xFFFFFFFF,0x00000000,
4.19605207443,0x00000000,0x00000000,0x00000000,0x00000000,0x00000000,0x00000000,0x00000000,0x00000000,42.75,3,0x00000000,96.484,97.647,-0.006,0.21,-0.01,-0.008,-0.006,12.012,-0.049,0.023,-0.416,0.469,0x00000003,0.0,0.0,-0.004,-0.0,0.001,-0.001,-0.0,0.0,0.0,0.016,0.012,0.0,0.0,0.014,-0.509,-2.912,0.0,0.0,-2.912,34.991,34.991,0.0,0.0,0.0,96.875,96.484,0.0,0.0,26.375,26.25,0.0,0.0,0.0,0.0,90.0,76.711,0.109,27.375,0x00000000,0x00000000,0x00000000,0.0,1246,1279,4.771,12.55,0.0,0.0,0.061,0.112,0.0,0.0,1.0,0.981,0.981,0.981,0.196,1.0,1.0,0.462,0.584,0.57,24.267,0x00000101,192.168.0.40,8080,255.255.255.0,192.168.0.1,0xFFFFFFFF,0xFFFFFFFF,0xFFFFFFFF,0x00000000,
4.24614596367,0x00000000,0x00000000,0x00000000,0x00000000,0x00000000,0x00000000,0x00000000,0x00000000,42.8,3,0x00000000,96.484,97.647,-0.003,0.208,-0.018,-0.025,-0.007,12.015,0.437,0.021,0.074,0.468,0x00000003,0.0,0.0,0.003,0.0,0.001,-0.0,0.0,0.0,0.0,0.016,0.012,0.0,0.0,0.014,-0.509,-2.861,0.0,0.0,-2.861,34.991,34.991,0.0,0.0,0.0,96.875,96.484,0.0,0.0,26.375,26.25,0.0,0.0,0.0,0.0,90.0,76.711,0.109,27.375,0x00000000,0x00000000,0x00000000,0.0,1246,1279,5.952,12.698,0.0,0.0,0.061,0.112,0.0,0.0,1.0,0.981,0.981,0.981,0.196,1.0,1.0,0.462,0.584,0.57,24.267,0x00000101,192.168.0.40,8080,255.255.255.0,192.168.0.1,0xFFFFFFFF,0xFFFFFFFF,0xFFFFFFFF,0x00000000,
4.29617810249,0x00000000,0x00000000,0x00000000,0x00000000,0x00000000,0x00000000,0x00000000,0x00000000,42.85,3,0x00000000,96.484,97.647,-0.001,0.209,-0.011,-0.008,-0.031,12.022,-0.382,0.02,1.457,-1.304,0x00000003,0.0,0.0,0.008,0.0,0.001,-0.0,0.001,0.0,0.0,0.016,0.012,0.0,0.0,0.014,-0.407,-2.759,0.0,0.0,-2.759,34.991,34.991,0.0,0.0,0.0,96.875,96.484,0.0,0.0,26.375,26.25,0.0,0.0,0.0,0.0,90.0,76.703,0.109,27.375,0x00000000,0x00000000,0x00000000,0.0,1246,1279,7.04,13.595,0.0,0.0,0.061,0.112,0.0,0.0,1.0,0.981,0.981,0.981,0.196,1.0,1.0,0.462,0.584,0.57,24.267,0x00000101,192.168.0.40,8080,255.255.255.0,192.168.0.1,0xFFFFFFFF,0xFFFFFFFF,0xFFFFFFFF,0x00000000,
4.34630894661,0x00000000,0x00000000,0x00000000,0x00000000,0x00000000,0x00000000,0x00000000,0x00000000,42.9,3,0x00000000,96.484,97.647,-0.002,0.209,-0.016,-0.017,-0.0,12.043,-0.043,0.023,-0.263,-0.238,0x00000003,0.0,0.0,-0.009,-0.0,0.002,-0.001,-0.0,0.0,0.0,0.016,0.012,0.0,0.0,0.014,0.509,-4.12,0.0,0.0,-4.12,34.991,34.991,0.0,0.0,0.0,96.875,96.484,0.0,0.0,26.375,26.25,0.0,0.0,0.0,0.0,90.0,76.703,0.109,27.375,0x00000000,0x00000000,0x00000000,0.0,1246,1279,14.314,10.225,0.0,0.0,0.061,0.112,0.0,0.0,1.0,0.981,0.981,0.981,0.196,1.0,1.0,0.462,0.584,0.57,24.267,0x00000101,192.168.0.40,8080,255.255.255.0,192.168.0.1,0xFFFFFFFF,0xFFFFFFFF,0xFFFFFFFF,0x00000000,
4.3963470459,0x00000000,0x00000000,0x00000000,0x00000000,0x00000000,0x00000000,0x00000000,0x00000000,42.95,3,0x00000000,96.484,97.647,-0.006,0.21,-0.02,0.005,-0.007,12.057,0.081,0.012,-0.188,-0.593,0x00000003,0.0,0.0,-0.004,0.0,0.003,-0.001,0.001,0.0,0.0,0.016,0.012,0.0,0.0,0.014,0.61,-4.336,0.0,0.0,-4.336,34.991,34.991,0.0,0.0,0.0,96.875,96.484,0.0,0.0,26.375,26.25,0.0,0.0,0.0,0.0,90.0,76.703,0.109,27.375,0x00000000,0x00000000,0x00000000,0.0,1246,1279,6.394,10.532,0.0,0.0,0.061,0.112,0.0,0.0,1.0,0.981,0.981,0.981,0.196,1.0,1.0,0.462,0.584,0.57,24.267,0x00000101,192.168.0.40,8080,255.255.255.0,192.168.0.1,0xFFFFFFFF,0xFFFFFFFF,0xFFFFFFFF,0x00000000,
4.4464700222,0x00000000,0x00000000,0x00000000,0x00000000,0x00000000,0x00000000,0x00000000,0x00000000,43.0,3,0x00000000,96.484,97.647,-0.002,0.208,-0.028,-0.008,0.012,12.06,0.079,0.044,1.28,-1.655,0x00000003,0.0,0.0,-0.003,0.0,0.002,-0.0,0.0,0.0,0.0,0.016,0.012,0.0,0.0,0.014,-0.509,-2.963,0.0,0.0,-2.963,34.991,34.991,0.0,0.0,0.0,96.875,96.484,0.0,0.0,26.375,26.25,0.0,0.0,0.0,0.0,90.0,76.703,0.109,27.375,0x00000000,0x00000000,0x00000000,0.0,1246,1279,5.196,12.315,0.0,0.0,0.061,0.113,0.0,0.0,1.0,0.981,0.981,0.981,0.196,1.0,1.0,0.462,0.584,0.57,24.267,0x00000101,192.168.0.40,8080,255.255.255.0,192.168.0.1,0xFFFFFFFF,0xFFFFFFFF,0xFFFFFFFF,0x00000000,
