Time_stamp,fault_status_word_1,fault_status_word_2,fault_status_word_3,fault_status_word_4,mcu_0_fault_status,mcu_1_fault_status,mcu_2_fault_status,mcu_3_fault_status,operational_time,operational_state,dynamic_response,min_propulsion_batt_soc,aux_batt_soc,inertial_x_acc_g,inertial_y_acc_g,inertial_x_rate_rps,inertial_y_rate_rps,inertial_z_rate_rps,pse_pitch_deg,pse_pitch_rate_dps,pse_roll_deg,pse_roll_rate_dps,pse_yaw_rate_dps,pse_data_is_valid,yaw_rate_limit_rps,vel_limit_mps,linear_accel_mps2,linear_vel_mps,differential_wheel_vel_rps,right_front_vel_mps,left_front_vel_mps,right_rear_vel_mps,left_rear_vel_mps,right_front_pos_m,left_front_pos_m,right_rear_pos_m,left_rear_pos_m,linear_pos_m,right_front_current_A0pk,left_front_current_A0pk,right_rear_current_A0pk,left_rear_current_A0pk,max_motor_current_A0pk,right_front_current_limit_A0pk,left_front_current_limit_A0pk,right_rear_current_limit_A0pk,left_rear_current_limit_A0pk,min_motor_current_limit_A0pk,front_base_batt_1_soc,front_base_batt_2_soc,rear_base_batt_1_soc,rear_base_batt_2_soc,front_base_batt_1_temp_degC,front_base_batt_2_temp_degC,rear_base_batt_1_temp_degC,rear_base_batt_2_temp_degC,vel_target_mps,yaw_rate_target_rps,angle_target_deg,aux_batt_voltage_V,aux_batt_current_A,aux_batt_temp_degC,abb_system_status,aux_batt_status,aux_batt_faults,7p2V_battery_voltage,ccu_sp_sw_build_id,ccu_uip_sw_build_id,mcu_0_inst_power_W,mcu_1_inst_power_W,mcu_2_inst_power_W,mcu_3_inst_power_W,mcu_0_total_energy_Wh,mcu_1_total_energy_Wh,mcu_2_total_energy_Wh,mcu_3_total_energy_Wh,fram_vel_limit_mps,fram_accel_limit_mps2,fram_decel_limit_mps2,fram_dtz_decel_limit_mps2,fram_coastdown_decel_mps2,fram_yaw_rate_limit_rps,fram_yaw_accel_limit_rps2,fram_tire_diameter_m,fram_wheelbase_length_m,fram_wheel_track_width_m,fram_transmission_ratio,fram_config_bitmap,fram_eth_ip_address,fram_eth_port_number,fram_eth_subnet_mask,fram_eth_gateway,user_feedback_bitmap_1,user_feedback_bitmap_2,user_feedback_bitmap_3,user_feedback_bitmap_4,
0.0831398963928,0x00000000,0x00000000,0x00000000,0x00000000,0x00000000,0x00000000,0x00000000,0x00000000,16.55,3,0x00000000,96.484,97.647,0.0,-0.014,-0.01,-0.012,-0.03,-0.819,-0.132,-1.62,-0.58,0.365,0x00000003,0.0,0.0,-0.001,0.0,0.001,-0.0,0.0,0.0,0.0,0.0,-0.002,0.0,0.0,-0.0,-0.661,0.0,0.0,0.0,-0.661,34.991,34.991,0.0,0.0,0.0,96.875,96.484,0.0,0.0,26.375,26.25,0.0,0.0,0.0,0.0,90.0,76.727,0.109,27.438,0x00000000,0x00000000,0x00000000,0.0,1246,1279,3.987,9.408,0.0,0.0,0.007,0.014,0.0,0.0,1.0,0.981,0.981,0.981,0.196,1.0,1.0,0.462,0.584,0.57,24.267,0x00000101,192.168.0.40,8080,255.255.255.0,192.168.0.1,0xFFFFFFFF,0xFFFFFFFF,0xFFFFFFFF,0x00000000,
0.133131980896,0x00000000,0x00000000,0x00000000,0x00000000,0x00000000,0x00000000,0x00000000,0x00000000,16.6,3,0x00000000,96.484,97.647,-0.001,-0.014,-0.027,-0.021,-0.025,-0.799,0.662,-1.625,-1.094,-2.067,0x00000003,0.0,0.0,-0.005,-0.0,0.001,-0.001,0.0,0.0,0.0,0.0,-0.002,0.0,0.0,-0.0,-0.636,0.013,0.0,0.0,-0.636,34.991,34.991,0.0,0.0,0.0,96.875,96.484,0.0,0.0,26.375,26.25,0.0,0.0,0.0,0.0,90.0,76.727,0.109,27.438,0x00000000,0x00000000,0x00000000,0.0,1246,1279,4.214,7.145,0.0,0.0,0.007,0.014,0.0,0.0,1.0,0.981,0.981,0.981,0.196,1.0,1.0,0.462,0.584,0.57,24.267,0x00000101,192.168.0.40,8080,255.255.255.0,192.168.0.1,0xFFFFFFFF,0xFFFFFFFF,0xFFFFFFFF,0x00000000,
0.18326997757,0x00000000,0x00000000,0x00000000,0x00000000,0x00000000,0x00000000,0x00000000,0x00000000,16.65,3,0x00000000,96.484,97.647,0.0,-0.013,-0.024,-0.03,-0.037,-0.794,0.3,-1.614,-0.331,0.017,0x00000003,0.0,0.0,-0.005,-0.0,0.002,-0.001,0.0,0.0,0.0,0.0,-0.002,0.0,0.0,-0.0,-0.776,0.038,0.0,0.0,-0.776,34.991,34.991,0.0,0.0,0.0,96.875,96.484,0.0,0.0,26.375,26.25,0.0,0.0,0.0,0.0,90.0,76.727,0.109,27.438,0x00000000,0x00000000,0x00000000,0.0,1246,1279,1.152,7.047,0.0,0.0,0.007,0.015,0.0,0.0,1.0,0.981,0.981,0.981,0.196,1.0,1.0,0.462,0.584,0.57,24.267,0x00000101,192.168.0.40,8080,255.255.255.0,192.168.0.1,0xFFFFFFFF,0xFFFFFFFF,0xFFFFFFFF,0x00000000,
0.243320941925,0x00000000,0x00000000,0x00000000,0x00000000,0x00000000,0x00000000,0x00000000,0x00000000,16.71,3,0x00000000,96.484,97.647,0.0,-0.014,-0.017,-0.021,-0.043,-0.77,0.749,-1.604,-0.08,0.357,0x00000003,0.0,0.0,0.002,0.0,0.002,-0.0,0.001,0.0,0.0,0.0,-0.002,0.0,0.0,-0.0,-0.839,0.127,0.0,0.0,-0.839,34.991,34.991,0.0,0.0,0.0,96.875,96.484,0.0,0.0,26.375,26.25,0.0,0.0,0.0,0.0,90.0,76.727,0.109,27.438,0x00000000,0x00000000,0x00000000,0.0,1246,1279,2.864,6.004,0.0,0.0,0.007,0.015,0.0,0.0,1.0,0.981,0.981,0.981,0.196,1.0,1.0,0.462,0.584,0.57,24.267,0x00000101,192.168.0.40,8080,255.255.255.0,192.168.0.1,0xFFFFFFFF,0xFFFFFFFF,0xFFFFFFFF,0x00000000,
0.29344201088,0x00000000,0x00000000,0x00000000,0x00000000,0x00000000,0x00000000,0x00000000,0x00000000,16.76,3,0x00000000,96.484,97.647,-0.001,-0.014,-0.011,-0.03,-0.025,-0.767,0.523,-1.6,-0.828,-2.051,0x00000003,0.0,0.0,-0.004,0.0,0.001,-0.001,0.0,0.0,0.0,0.0,-0.002,0.0,0.0,-0.0,-0.839,0.038,0.0,0.0,-0.839,34.991,34.991,0.0,0.0,0.0,96.875,96.484,0.0,0.0,26.375,26.25,0.0,0.0,0.0,0.0,90.0,76.727,0.109,27.438,0x00000000,0x00000000,0x00000000,0.0,1246,1279,3.497,7.38,0.0,0.0,0.007,0.015,0.0,0.0,1.0,0.981,0.981,0.981,0.196,1.0,1.0,0.462,0.584,0.57,24.267,0x00000101,192.168.0.40,8080,255.255.255.0,192.168.0.1,0xFFFFFFFF,0xFFFFFFFF,0xFFFFFFFF,0x00000000,
0.343492984772,0x00000000,0x00000000,0x00000000,0x00000000,0x00000000,0x00000000,0x00000000,0x00000000,16.81,3,0x00000000,96.484,97.647,0.0,-0.013,-0.01,-0.021,-0.006,-0.752,-0.369,-1.606,-1.054,-0.992,0x00000003,0.0,0.0,-0.006,0.0,0.002,-0.001,0.0,0.0,0.0,0.0,-0.002,0.0,0.0,-0.0,-0.877,0.013,0.0,0.0,-0.877,34.991,34.991,0.0,0.0,0.0,96.875,96.484,0.0,0.0,26.375,26.25,0.0,0.0,0.0,0.0,90.0,76.727,0.109,27.438,0x00000000,0x00000000,0x00000000,0.0,1246,1279,4.193,7.102,0.0,0.0,0.007,0.015,0.0,0.0,1.0,0.981,0.981,0.981,0.196,1.0,1.0,0.462,0.584,0.57,24.267,0x00000101,192.168.0.40,8080,255.255.255.0,192.168.0.1,0xFFFFFFFF,0xFFFFFFFF,0xFFFFFFFF,0x00000000,
0.393593072891,0x00000000,0x00000000,0x00000000,0x00000000,0x00000000,0x00000000,0x00000000,0x00000000,16.86,3,0x00000000,96.484,97.647,-0.0,-0.014,-0.022,-0.021,-0.031,-0.742,0.536,-1.611,-1.309,-1.355,0x00000003,0.0,0.0,0.001,-0.0,0.002,-0.0,0.0,0.0,0.0,0.0,-0.002,0.0,0.0,-0.0,-0.636,0.127,0.0,0.0,-0.636,34.991,34.991,0.0,0.0,0.0,96.875,96.484,0.0,0.0,26.375,26.25,0.0,0.0,0.0,0.0,90.0,76.727,0.109,27.438,0x00000000,0x00000000,0x00000000,0.0,1246,1279,4.108,7.09,0.0,0.0,0.007,0.015,0.0,0.0,1.0,0.981,0.981,0.981,0.196,1.0,1.0,0.462,0.584,0.57,24.267,0x00000101,192.168.0.40,8080,255.255.255.0,192.168.0.1,0xFFFFFFFF,0xFFFFFFFF,0xFFFFFFFF,0x00000000,
0.443634986877,0x00000000,0x00000000,0x00000000,0x00000000,0x00000000,0x00000000,0x00000000,0x00000000,16.91,3,0x00000000,96.484,97.647,0.0,-0.014,-0.019,-0.03,0.012,-0.732,-0.04,-1.602,-0.308,-2.728,0x00000003,0.0,0.0,0.005,-0.0,0.002,-0.001,0.001,0.0,0.0,0.0,-0.002,0.0,0.0,-0.0,-0.776,0.013,0.0,0.0,-0.776,34.991,34.991,0.0,0.0,0.0,96.875,96.484,0.0,0.0,26.375,26.25,0.0,0.0,0.0,0.0,90.0,76.727,0.109,27.438,0x00000000,0x00000000,0x00000000,0.0,1246,1279,1.364,6.234,0.0,0.0,0.007,0.015,0.0,0.0,1.0,0.981,0.981,0.981,0.196,1.0,1.0,0.462,0.584,0.57,24.267,0x00000101,192.168.0.40,8080,255.255.255.0,192.168.0.1,0xFFFFFFFF,0xFFFFFFFF,0xFFFFFFFF,0x00000000,
0.493766069412,0x00000000,0x00000000,0x00000000,0x00000000,0x00000000,0x00000000,0x00000000,0x00000000,16.96,3,0x00000000,96.484,97.647,-0.0,-0.014,-0.017,-0.012,-0.031,-0.713,0.423,-1.592,-0.056,-0.655,0x00000003,0.0,0.0,-0.009,-0.0,0.002,-0.002,0.0,0.0,0.0,0.0,-0.002,0.0,0.0,-0.0,-0.763,0.203,0.0,0.0,-0.763,34.991,34.991,0.0,0.0,0.0,96.875,96.484,0.0,0.0,26.375,26.25,0.0,0.0,0.0,0.0,90.0,76.727,0.109,27.438,0x00000000,0x00000000,0x00000000,0.0,1246,1279,4.281,5.979,0.0,0.0,0.007,0.015,0.0,0.0,1.0,0.981,0.981,0.981,0.196,1.0,1.0,0.462,0.584,0.57,24.267,0x00000101,192.168.0.40,8080,255.255.255.0,192.168.0.1,0xFFFFFFFF,0xFFFFFFFF,0xFFFFFFFF,0x00000000,
0.543929100037,0x00000000,0x00000000,0x00000000,0x00000000,0x00000000,0x00000000,0x00000000,0x00000000,17.01,3,0x00000000,96.484,97.647,-0.0,-0.014,-0.022,-0.013,-0.0,-0.703,0.636,-1.585,-1.288,0.38,0x00000003,0.0,0.0,0.008,-0.0,0.003,-0.001,0.001,0.0,0.0,0.0,-0.002,0.0,0.0,-0.0,-0.661,-0.076,0.0,0.0,-0.661,34.991,34.991,0.0,0.0,0.0,96.875,96.484,0.0,0.0,26.375,26.25,0.0,0.0,0.0,0.0,90.0,76.727,0.109,27.438,0x00000000,0x00000000,0x00000000,0.0,1246,1279,4.745,5.336,0.0,0.0,0.007,0.015,0.0,0.0,1.0,0.981,0.981,0.981,0.196,1.0,1.0,0.462,0.584,0.57,24.267,0x00000101,192.168.0.40,8080,255.255.255.0,192.168.0.1,0xFFFFFFFF,0xFFFFFFFF,0xFFFFFFFF,0x00000000,
0.603941917419,0x00000000,0x00000000,0x00000000,0x00000000,0x00000000,0x00000000,0x00000000,0x00000000,17.07,3,0x00000000,96.484,97.647,-0.0,-0.015,-0.016,-0.034,-0.0,-0.697,0.343,-1.568,0.449,-1.684,0x00000003,0.0,0.0,0.003,-0.0,0.002,-0.0,0.0,0.0,0.0,0.0,-0.002,0.0,0.0,-0.0,-0.776,0.089,0.0,0.0,-0.776,34.991,34.991,0.0,0.0,0.0,96.875,96.484,0.0,0.0,26.375,26.25,0.0,0.0,0.0,0.0,90.0,76.727,0.109,27.438,0x00000000,0x00000000,0x00000000,0.0,1246,1279,3.699,5.412,0.0,0.0,0.007,0.015,0.0,0.0,1.0,0.981,0.981,0.981,0.196,1.0,1.0,0.462,0.584,0.57,24.267,0x00000101,192.168.0.40,8080,255.255.255.0,192.168.0.1,0xFFFFFFFF,0xFFFFFFFF,0xFFFFFFFF,0x00000000,
0.654170036316,0x00000000,0x00000000,0x00000000,0x00000000,0x00000000,0x00000000,0x00000000,0x00000000,17.12,3,0x00000000,96.484,97.647,-0.001,-0.014,-0.013,-0.017,-0.012,-0.676,0.958,-1.569,-0.301,-2.035,0x00000003,0.0,0.0,-0.005,-0.0,0.002,-0.002,0.001,0.0,0.0,0.0,-0.002,0.0,0.0,-0.0,-0.737,0.013,0.0,0.0,-0.737,34.991,34.991,0.0,0.0,0.0,96.875,96.484,0.0,0.0,26.375,26.25,0.0,0.0,0.0,0.0,90.0,76.727,0.109,27.438,0x00000000,0x00000000,0x00000000,0.0,1246,1279,0.973,7.354,0.0,0.0,0.007,0.015,0.0,0.0,1.0,0.981,0.981,0.981,0.196,1.0,1.0,0.462,0.584,0.57,24.267,0x00000101,192.168.0.40,8080,255.255.255.0,192.168.0.1,0xFFFFFFFF,0xFFFFFFFF,0xFFFFFFFF,0x00000000,
0.704351902008,0x00000000,0x00000000,0x00000000,0x00000000,0x00000000,0x00000000,0x00000000,0x00000000,17.17,3,0x00000000,96.484,97.647,0.0,-0.014,-0.019,-0.021,-0.012,-0.677,-0.127,-1.564,-0.028,-0.977,0x00000003,0.0,0.0,0.002,-0.0,0.003,-0.001,0.0,0.0,0.0,0.0,-0.002,0.0,0.0,-0.0,-0.661,0.203,0.0,0.0,-0.661,34.991,34.991,0.0,0.0,0.0,96.875,96.484,0.0,0.0,26.375,26.25,0.0,0.0,0.0,0.0,90.0,76.727,0.109,27.438,0x00000000,0x00000000,0x00000000,0.0,1246,1279,3.631,6.581,0.0,0.0,0.007,0.015,0.0,0.0,1.0,0.981,0.981,0.981,0.196,1.0,1.0,0.462,0.584,0.57,24.267,0x00000101,192.168.0.40,8080,255.255.255.0,192.168.0.1,0xFFFFFFFF,0xFFFFFFFF,0xFFFFFFFF,0x00000000,
0.754393100739,0x00000000,0x00000000,0x00000000,0x00000000,0x00000000,0x00000000,0x00000000,0x00000000,17.22,3,0x00000000,96.484,97.647,-0.0,-0.014,-0.015,-0.021,-0.0,-0.688,-0.136,-1.546,0.222,-1.319,0x00000003,0.0,0.0,0.002,-0.0,0.002,-0.0,0.0,0.0,0.0,0.0,-0.002,0.0,0.0,-0.0,-0.661,0.089,0.0,0.0,-0.661,34.991,34.991,0.0,0.0,0.0,96.875,96.484,0.0,0.0,26.375,26.25,0.0,0.0,0.0,0.0,90.0,76.727,0.109,27.438,0x00000000,0x00000000,0x00000000,0.0,1246,1279,3.904,9.066,0.0,0.0,0.007,0.016,0.0,0.0,1.0,0.981,0.981,0.981,0.196,1.0,1.0,0.462,0.584,0.57,24.267,0x00000101,192.168.0.40,8080,255.255.255.0,192.168.0.1,0xFFFFFFFF,0xFFFFFFFF,0xFFFFFFFF,0x00000000,
0.804557085037,0x00000000,0x00000000,0x00000000,0x00000000,0x00000000,0x00000000,0x00000000,0x00000000,17.27,3,0x00000000,96.484,97.647,0.0,-0.014,-0.004,-0.026,-0.006,-0.684,0.171,-1.521,0.224,-2.023,0x00000003,0.0,0.0,0.001,-0.0,0.001,-0.0,0.0,0.0,0.0,0.0,-0.002,0.0,0.0,-0.0,-0.636,0.114,0.0,0.0,-0.636,34.991,34.991,0.0,0.0,0.0,96.875,96.484,0.0,0.0,26.375,26.25,0.0,0.0,0.0,0.0,90.0,76.727,0.109,27.438,0x00000000,0x00000000,0x00000000,0.0,1246,1279,1.139,5.764,0.0,0.0,0.007,0.016,0.0,0.0,1.0,0.981,0.981,0.981,0.196,1.0,1.0,0.462,0.584,0.57,24.267,0x00000101,192.168.0.40,8080,255.255.255.0,192.168.0.1,0xFFFFFFFF,0xFFFFFFFF,0xFFFFFFFF,0x00000000,
0.854518890381,0x00000000,0x00000000,0x00000000,0x00000000,0x00000000,0x00000000,0x00000000,0x00000000,17.32,3,0x00000000,96.484,97.647,0.0,-0.014,-0.011,-0.03,-0.012,-0.678,0.145,-1.528,-0.512,0.066,0x00000003,0.0,0.0,0.003,-0.0,0.001,-0.0,0.0,0.0,0.0,0.0,-0.002,0.0,0.0,-0.0,-0.636,0.089,0.0,0.0,-0.636,34.991,34.991,0.0,0.0,0.0,96.875,96.484,0.0,0.0,26.375,26.25,0.0,0.0,0.0,0.0,90.0,76.727,0.109,27.438,0x00000000,0x00000000,0x00000000,0.0,1246,1279,4.429,4.809,0.0,0.0,0.008,0.016,0.0,0.0,1.0,0.981,0.981,0.981,0.196,1.0,1.0,0.462,0.584,0.57,24.267,0x00000101,192.168.0.40,8080,255.255.255.0,192.168.0.1,0xFFFFFFFF,0xFFFFFFFF,0xFFFFFFFF,0x00000000,
0.904413938522,0x00000000,0x00000000,0x00000000,0x00000000,0x00000000,0x00000000,0x00000000,0x00000000,17.37,3,0x00000000,96.484,97.647,-0.001,-0.014,-0.005,-0.017,-0.037,-0.656,0.639,-1.535,-1.504,-0.64,0x00000003,0.0,0.0,-0.001,0.0,0.001,-0.0,0.0,0.0,0.0,0.0,-0.002,0.0,0.0,-0.0,-0.61,0.013,0.0,0.0,-0.61,34.991,34.991,0.0,0.0,0.0,96.875,96.484,0.0,0.0,26.375,26.25,0.0,0.0,0.0,0.0,90.0,76.727,0.109,27.438,0x00000000,0x00000000,0x00000000,0.0,1246,1279,1.715,6.134,0.0,0.0,0.008,0.016,0.0,0.0,1.0,0.981,0.981,0.981,0.196,1.0,1.0,0.462,0.584,0.57,24.267,0x00000101,192.168.0.40,8080,255.255.255.0,192.168.0.1,0xFFFFFFFF,0xFFFFFFFF,0xFFFFFFFF,0x00000000,
0.954487085342,0x00000000,0x00000000,0x00000000,0x00000000,0x00000000,0x00000000,0x00000000,0x00000000,17.42,3,0x00000000,96.484,97.647,-0.001,-0.014,-0.019,-0.012,-0.025,-0.647,0.274,-1.532,-1.004,-1.662,0x00000003,0.0,0.0,-0.0,0.0,0.001,-0.0,0.0,0.0,0.0,0.0,-0.002,0.0,0.0,-0.0,-0.737,0.0,0.0,0.0,-0.737,34.991,34.991,0.0,0.0,0.0,96.875,96.484,0.0,0.0,26.375,26.25,0.0,0.0,0.0,0.0,90.0,76.727,0.109,27.438,0x00000000,0x00000000,0x00000000,0.0,1246,1279,4.116,5.342,0.0,0.0,0.008,0.016,0.0,0.0,1.0,0.981,0.981,0.981,0.196,1.0,1.0,0.462,0.584,0.57,24.267,0x00000101,192.168.0.40,8080,255.255.255.0,192.168.0.1,0xFFFFFFFF,0xFFFFFFFF,0xFFFFFFFF,0x00000000,
1.00463795662,0x00000000,0x00000000,0x00000000,0x00000000,0x00000000,0x00000000,0x00000000,0x00000000,17.47,3,0x00000000,96.484,97.647,-0.0,-0.014,-0.014,-0.03,-0.013,-0.643,-0.378,-1.52,0.009,-0.625,0x00000003,0.0,0.0,0.005,0.0,0.001,-0.0,0.001,0.0,0.0,0.0,-0.002,0.0,0.0,-0.0,-0.737,0.089,0.0,0.0,-0.737,34.991,34.991,0.0,0.0,0.0,96.875,96.484,0.0,0.0,26.375,26.25,0.0,0.0,0.0,0.0,90.0,76.727,0.109,27.438,0x00000000,0x00000000,0x00000000,0.0,1246,1279,3.767,5.761,0.0,0.0,0.008,0.016,0.0,0.0,1.0,0.981,0.981,0.981,0.196,1.0,1.0,0.462,0.584,0.57,24.267,0x00000101,192.168.0.40,8080,255.255.255.0,192.168.0.1,0xFFFFFFFF,0xFFFFFFFF,0xFFFFFFFF,0x00000000,
1.0547170639,0x00000000,0x00000000,0x00000000,0x00000000,0x00000000,0x00000000,0x00000000,0x00000000,17.52,3,0x00000000,96.484,97.647,-0.0,-0.014,-0.013,-0.025,-0.037,-0.637,0.281,-1.519,-1.483,0.41,0x00000003,0.0,0.0,0.006,0.0,0.001,-0.0,0.001,0.0,0.0,0.0,-0.002,0.0,0.0,-0.0,-0.763,0.114,0.0,0.0,-0.763,34.991,34.991,0.0,0.0,0.0,96.875,96.484,0.0,0.0,26.375,26.25,0.0,0.0,0.0,0.0,90.0,76.727,0.109,27.438,0x00000000,0x00000000,0x00000000,0.0,1246,1279,2.499,6.512,0.0,0.0,0.008,0.016,0.0,0.0,1.0,0.981,0.981,0.981,0.196,1.0,1.0,0.462,0.584,0.57,24.267,0x00000101,192.168.0.40,8080,255.255.255.0,192.168.0.1,0xFFFFFFFF,0xFFFFFFFF,0xFFFFFFFF,0x00000000,
1.10485005379,0x00000000,0x00000000,0x00000000,0x00000000,0x00000000,0x00000000,0x00000000,0x00000000,17.57,3,0x00000000,96.484,97.647,-0.001,-0.015,-0.018,-0.021,-0.006,-0.633,0.259,-1.484,0.997,0.416,0x00000003,0.0,0.0,0.004,0.0,0.001,-0.0,0.001,0.0,0.0,0.0,-0.002,0.0,0.0,-0.0,-0.737,-0.076,0.0,0.0,-0.737,34.991,34.991,0.0,0.0,0.0,96.875,96.484,0.0,0.0,26.375,26.25,0.0,0.0,0.0,0.0,90.0,76.727,0.109,27.438,0x00000000,0x00000000,0x00000000,0.0,1246,1279,2.511,8.883,0.0,0.0,0.008,0.016,0.0,0.0,1.0,0.981,0.981,0.981,0.196,1.0,1.0,0.462,0.584,0.57,24.267,0x00000101,192.168.0.40,8080,255.255.255.0,192.168.0.1,0xFFFFFFFF,0xFFFFFFFF,0xFFFFFFFF,0x00000000,
1.15492391586,0x00000000,0x00000000,0x00000000,0x00000000,0x00000000,0x00000000,0x00000000,0x00000000,17.62,3,0x00000000,96.484,97.647,-0.001,-0.015,-0.007,-0.013,-0.025,-0.632,0.041,-1.475,-0.238,-1.304,0x00000003,0.0,0.0,-0.001,0.0,0.002,-0.001,0.001,0.0,0.0,0.0,-0.002,0.0,0.0,-0.0,-0.191,-0.623,0.0,0.0,-0.623,34.991,34.991,0.0,0.0,0.0,96.875,96.484,0.0,0.0,26.375,26.25,0.0,0.0,0.0,0.0,90.0,76.727,0.109,27.438,0x00000000,0x00000000,0x00000000,0.0,1246,1279,4.035,7.347,0.0,0.0,0.008,0.016,0.0,0.0,1.0,0.981,0.981,0.981,0.196,1.0,1.0,0.462,0.584,0.57,24.267,0x00000101,192.168.0.40,8080,255.255.255.0,192.168.0.1,0xFFFFFFFF,0xFFFFFFFF,0xFFFFFFFF,0x00000000,
1.20507192612,0x00000000,0x00000000,0x00000000,0x00000000,0x00000000,0x00000000,0x00000000,0x00000000,17.67,3,0x00000000,96.484,97.647,-0.001,-0.014,-0.016,-0.021,-0.019,-0.624,0.38,-1.438,0.011,-1.307,0x00000003,0.0,0.0,-0.004,0.0,0.002,-0.0,0.0,0.0,0.0,0.0,-0.002,0.0,0.0,-0.0,-0.572,0.0,0.0,0.0,-0.572,34.991,34.991,0.0,0.0,0.0,96.875,96.484,0.0,0.0,26.375,26.25,0.0,0.0,0.0,0.0,90.0,76.727,0.109,27.438,0x00000000,0x00000000,0x00000000,0.0,1246,1279,0.692,8.804,0.0,0.0,0.008,0.016,0.0,0.0,1.0,0.981,0.981,0.981,0.196,1.0,1.0,0.462,0.584,0.57,24.267,0x00000101,192.168.0.40,8080,255.255.255.0,192.168.0.1,0xFFFFFFFF,0xFFFFFFFF,0xFFFFFFFF,0x00000000,
1.25520801544,0x00000000,0x00000000,0x00000000,0x00000000,0x00000000,0x00000000,0x00000000,0x00000000,17.72,3,0x00000000,96.484,97.647,-0.0,-0.014,-0.019,-0.017,-0.006,-0.631,-0.275,-1.424,0.521,-0.602,0x00000003,0.0,0.0,-0.015,-0.0,0.002,-0.002,0.0,0.0,0.0,0.0,-0.002,0.0,0.0,-0.0,-0.661,0.305,0.0,0.0,-0.661,34.991,34.991,0.0,0.0,0.0,96.875,96.484,0.0,0.0,26.375,26.25,0.0,0.0,0.0,0.0,90.0,76.727,0.109,27.438,0x00000000,0x00000000,0x00000000,0.0,1246,1279,2.186,6.644,0.0,0.0,0.008,0.017,0.0,0.0,1.0,0.981,0.981,0.981,0.196,1.0,1.0,0.462,0.584,0.57,24.267,0x00000101,192.168.0.40,8080,255.255.255.0,192.168.0.1,0xFFFFFFFF,0xFFFFFFFF,0xFFFFFFFF,0x00000000,
1.30513191223,0x00000000,0x00000000,0x00000000,0x00000000,0x00000000,0x00000000,0x00000000,0x00000000,17.77,3,0x00000000,96.484,97.647,-0.0,-0.014,-0.021,-0.017,-0.037,-0.628,0.208,-1.424,-0.221,-0.269,0x00000003,0.0,0.0,0.004,-0.0,0.001,-0.0,0.0,0.0,0.0,0.0,-0.002,0.0,0.0,-0.0,-0.61,0.305,0.0,0.0,-0.61,34.991,34.991,0.0,0.0,0.0,96.875,96.484,0.0,0.0,26.375,26.25,0.0,0.0,0.0,0.0,90.0,76.727,0.109,27.438,0x00000000,0x00000000,0x00000000,0.0,1246,1279,3.131,4.847,0.0,0.0,0.008,0.017,0.0,0.0,1.0,0.981,0.981,0.981,0.196,1.0,1.0,0.462,0.584,0.57,24.267,0x00000101,192.168.0.40,8080,255.255.255.0,192.168.0.1,0xFFFFFFFF,0xFFFFFFFF,0xFFFFFFFF,0x00000000,
1.35526990891,0x00000000,0x00000000,0x00000000,0x00000000,0x00000000,0x00000000,0x00000000,0x00000000,17.82,3,0x00000000,96.484,97.647,-0.001,-0.013,-0.021,-0.017,-0.025,-0.62,0.706,-1.409,0.514,-1.651,0x00000003,0.0,0.0,-0.001,-0.0,0.002,-0.001,0.0,0.0,0.0,0.0,-0.002,0.0,0.0,-0.0,-0.737,0.038,0.0,0.0,-0.737,34.991,34.991,0.0,0.0,0.0,96.875,96.484,0.0,0.0,26.375,26.25,0.0,0.0,0.0,0.0,90.0,76.727,0.109,27.438,0x00000000,0x00000000,0x00000000,0.0,1246,1279,4.695,7.106,0.0,0.0,0.008,0.017,0.0,0.0,1.0,0.981,0.981,0.981,0.196,1.0,1.0,0.462,0.584,0.57,24.267,0x00000101,192.168.0.40,8080,255.255.255.0,192.168.0.1,0xFFFFFFFF,0xFFFFFFFF,0xFFFFFFFF,0x00000000,
1.40533304214,0x00000000,0x00000000,0x00000000,0x00000000,0x00000000,0x00000000,0x00000000,0x00000000,17.87,3,0x00000000,96.484,97.647,-0.001,-0.014,-0.01,-0.026,-0.012,-0.618,-0.097,-1.374,0.285,0.441,0x00000003,0.0,0.0,0.002,0.0,0.001,-0.0,0.0,0.0,0.0,0.0,-0.002,0.0,0.0,-0.0,-0.839,0.038,0.0,0.0,-0.839,34.991,34.991,0.0,0.0,0.0,96.875,96.484,0.0,0.0,26.375,26.25,0.0,0.0,0.0,0.0,90.0,76.719,0.109,27.438,0x00000000,0x00000000,0x00000000,0.0,1246,1279,2.944,2.832,0.0,0.0,0.008,0.017,0.0,0.0,1.0,0.981,0.981,0.981,0.196,1.0,1.0,0.462,0.584,0.57,24.267,0x00000101,192.168.0.40,8080,255.255.255.0,192.168.0.1,0xFFFFFFFF,0xFFFFFFFF,0xFFFFFFFF,0x00000000,
1.45534610748,0x00000000,0x00000000,0x00000000,0x00000000,0x00000000,0x00000000,0x00000000,0x00000000,17.92,3,0x00000000,96.484,97.647,0.0,-0.014,-0.016,-0.034,-0.018,-0.62,0.677,-1.372,-0.712,-1.655,0x00000003,0.0,0.0,-0.002,-0.0,0.001,-0.001,0.0,0.0,0.0,0.0,-0.002,0.0,0.0,-0.0,-0.737,0.038,0.0,0.0,-0.737,34.991,34.991,0.0,0.0,0.0,96.875,96.484,0.0,0.0,26.375,26.25,0.0,0.0,0.0,0.0,90.0,76.719,0.109,27.438,0x00000000,0x00000000,0x00000000,0.0,1246,1279,3.717,4.682,0.0,0.0,0.008,0.017,0.0,0.0,1.0,0.981,0.981,0.981,0.196,1.0,1.0,0.462,0.584,0.57,24.267,0x00000101,192.168.0.40,8080,255.255.255.0,192.168.0.1,0xFFFFFFFF,0xFFFFFFFF,0xFFFFFFFF,0x00000000,
1.50560903549,0x00000000,0x00000000,0x00000000,0x00000000,0x00000000,0x00000000,0x00000000,0x00000000,17.97,3,0x00000000,96.484,97.647,-0.0,-0.014,-0.009,-0.034,-0.049,-0.591,0.483,-1.362,-0.21,-0.603,0x00000003,0.0,0.0,0.002,-0.0,0.001,-0.0,0.0,0.0,0.0,0.0,-0.002,0.0,0.0,-0.0,-0.737,0.089,0.0,0.0,-0.737,34.991,34.991,0.0,0.0,0.0,96.875,96.484,0.0,0.0,26.375,26.25,0.0,0.0,0.0,0.0,90.0,76.719,0.109,27.438,0x00000000,0x00000000,0x00000000,0.0,1246,1279,4.72,7.956,0.0,0.0,0.008,0.017,0.0,0.0,1.0,0.981,0.981,0.981,0.196,1.0,1.0,0.462,0.584,0.57,24.267,0x00000101,192.168.0.40,8080,255.255.255.0,192.168.0.1,0xFFFFFFFF,0xFFFFFFFF,0xFFFFFFFF,0x00000000,
1.55578708649,0x00000000,0x00000000,0x00000000,0x00000000,0x00000000,0x00000000,0x00000000,0x00000000,18.02,3,0x00000000,96.484,97.647,-0.0,-0.014,-0.011,-0.004,-0.012,-0.589,0.589,-1.373,-0.21,-1.638,0x00000003,0.0,0.0,-0.006,-0.0,0.002,-0.001,0.0,0.0,0.0,0.0,-0.002,0.0,0.0,-0.0,-0.737,-0.076,0.0,0.0,-0.737,34.991,34.991,0.0,0.0,0.0,96.875,96.484,0.0,0.0,26.375,26.25,0.0,0.0,0.0,0.0,90.0,76.719,0.109,27.438,0x00000000,0x00000000,0x00000000,0.0,1246,1279,1.354,4.903,0.0,0.0,0.008,0.017,0.0,0.0,1.0,0.981,0.981,0.981,0.196,1.0,1.0,0.462,0.584,0.57,24.267,0x00000101,192.168.0.40,8080,255.255.255.0,192.168.0.1,0xFFFFFFFF,0xFFFFFFFF,0xFFFFFFFF,0x00000000,
1.60557699203,0x00000000,0x00000000,0x00000000,0x00000000,0x00000000,0x00000000,0x00000000,0x00000000,18.07,3,0x00000000,96.484,97.647,0.0,-0.014,-0.008,-0.034,-0.025,-0.585,-0.151,-1.358,0.304,-0.591,0x00000003,0.0,0.0,0.004,-0.0,0.002,-0.0,0.0,0.0,0.0,0.0,-0.002,0.0,0.0,-0.0,-0.737,0.089,0.0,0.0,-0.737,34.991,34.991,0.0,0.0,0.0,96.875,96.484,0.0,0.0,26.375,26.25,0.0,0.0,0.0,0.0,90.0,76.719,0.109,27.438,0x00000000,0x00000000,0x00000000,0.0,1246,1279,2.395,8.361,0.0,0.0,0.008,0.017,0.0,0.0,1.0,0.981,0.981,0.981,0.196,1.0,1.0,0.462,0.584,0.57,24.267,0x00000101,192.168.0.40,8080,255.255.255.0,192.168.0.1,0xFFFFFFFF,0xFFFFFFFF,0xFFFFFFFF,0x00000000,
1.65570211411,0x00000000,0x00000000,0x00000000,0x00000000,0x00000000,0x00000000,0x00000000,0x00000000,18.12,3,0x00000000,96.484,97.647,-0.0,-0.014,-0.012,-0.008,-0.006,-0.58,-0.032,-1.363,-0.687,0.112,0x00000003,0.0,0.0,-0.014,-0.0,0.002,-0.002,0.0,0.0,0.0,0.0,-0.002,0.0,0.0,-0.0,-0.674,0.0,0.0,0.0,-0.674,34.991,34.991,0.0,0.0,0.0,96.875,96.484,0.0,0.0,26.375,26.25,0.0,0.0,0.0,0.0,90.0,76.719,0.109,27.438,0x00000000,0x00000000,0x00000000,0.0,1246,1279,2.26,6.287,0.0,0.0,0.008,0.017,0.0,0.0,1.0,0.981,0.981,0.981,0.196,1.0,1.0,0.462,0.584,0.57,24.267,0x00000101,192.168.0.40,8080,255.255.255.0,192.168.0.1,0xFFFFFFFF,0xFFFFFFFF,0xFFFFFFFF,0x00000000,
1.70592904091,0x00000000,0x00000000,0x00000000,0x00000000,0x00000000,0x00000000,0x00000000,0x00000000,18.17,3,0x00000000,96.484,97.647,-0.0,-0.013,-0.007,-0.013,-0.025,-0.572,0.187,-1.331,-0.189,-1.627,0x00000003,0.0,0.0,0.003,-0.0,0.002,-0.001,0.0,0.0,0.0,0.0,-0.002,0.0,0.0,-0.0,-1.068,0.318,0.0,0.0,-1.068,34.991,34.991,0.0,0.0,0.0,96.875,96.484,0.0,0.0,26.375,26.25,0.0,0.0,0.0,0.0,90.0,76.719,0.109,27.438,0x00000000,0x00000000,0x00000000,0.0,1246,1279,0.615,6.897,0.0,0.0,0.008,0.017,0.0,0.0,1.0,0.981,0.981,0.981,0.196,1.0,1.0,0.462,0.584,0.57,24.267,0x00000101,192.168.0.40,8080,255.255.255.0,192.168.0.1,0xFFFFFFFF,0xFFFFFFFF,0xFFFFFFFF,0x00000000,
1.75595498085,0x00000000,0x00000000,0x00000000,0x00000000,0x00000000,0x00000000,0x00000000,0x00000000,18.22,3,0x00000000,96.484,97.647,-0.0,-0.015,-0.014,-0.013,0.018,-0.573,0.601,-1.305,-0.188,0.442,0x00000003,0.0,0.0,0.012,-0.0,0.002,0.0,0.0,0.0,0.0,0.0,-0.002,0.0,0.0,-0.0,-0.229,-0.534,0.0,0.0,-0.534,34.991,34.991,0.0,0.0,0.0,96.875,96.484,0.0,0.0,26.375,26.25,0.0,0.0,0.0,0.0,90.0,76.719,0.109,27.438,0x00000000,0x00000000,0x00000000,0.0,1246,1279,2.587,6.008,0.0,0.0,0.008,0.017,0.0,0.0,1.0,0.981,0.981,0.981,0.196,1.0,1.0,0.462,0.584,0.57,24.267,0x00000101,192.168.0.40,8080,255.255.255.0,192.168.0.1,0xFFFFFFFF,0xFFFFFFFF,0xFFFFFFFF,0x00000000,
1.80596399307,0x00000000,0x00000000,0x00000000,0x00000000,0x00000000,0x00000000,0x00000000,0x00000000,18.27,3,0x00000000,96.484,97.647,0.0,-0.014,-0.023,-0.021,-0.025,-0.574,0.472,-1.279,0.311,-0.588,0x00000003,0.0,0.0,0.008,-0.0,0.001,-0.0,0.001,0.0,0.0,0.0,-0.002,0.0,0.0,-0.0,-0.877,0.038,0.0,0.0,-0.877,34.991,34.991,0.0,0.0,0.0,96.875,96.484,0.0,0.0,26.375,26.25,0.0,0.0,0.0,0.0,90.0,76.719,0.109,27.438,0x00000000,0x00000000,0x00000000,0.0,1246,1279,4.154,6.185,0.0,0.0,0.008,0.017,0.0,0.0,1.0,0.981,0.981,0.981,0.196,1.0,1.0,0.462,0.584,0.57,24.267,0x00000101,192.168.0.40,8080,255.255.255.0,192.168.0.1,0xFFFFFFFF,0xFFFFFFFF,0xFFFFFFFF,0x00000000,
1.85602807999,0x00000000,0x00000000,0x00000000,0x00000000,0x00000000,0x00000000,0x00000000,0x00000000,18.32,3,0x00000000,96.484,97.647,-0.001,-0.014,-0.014,-0.017,-0.037,-0.576,0.296,-1.25,-0.43,-1.267,0x00000003,0.0,0.0,-0.002,-0.0,0.001,-0.001,0.0,0.0,0.0,0.0,-0.002,0.0,0.0,-0.0,-0.737,0.038,0.0,0.0,-0.737,34.991,34.991,0.0,0.0,0.0,96.875,96.484,0.0,0.0,26.375,26.25,0.0,0.0,0.0,0.0,90.0,76.719,0.109,27.438,0x00000000,0x00000000,0x00000000,0.0,1246,1279,2.92,8.869,0.0,0.0,0.008,0.018,0.0,0.0,1.0,0.981,0.981,0.981,0.196,1.0,1.0,0.462,0.584,0.57,24.267,0x00000101,192.168.0.40,8080,255.255.255.0,192.168.0.1,0xFFFFFFFF,0xFFFFFFFF,0xFFFFFFFF,0x00000000,
1.90600609779,0x00000000,0x00000000,0x00000000,0x00000000,0x00000000,0x00000000,0x00000000,0x00000000,18.37,3,0x00000000,96.484,97.647,0.0,-0.014,-0.03,-0.025,-0.037,-0.581,-0.249,-1.231,0.083,-1.268,0x00000003,0.0,0.0,-0.006,-0.0,0.002,-0.001,0.0,0.0,0.0,0.0,-0.002,0.0,0.0,-0.0,-0.636,0.089,0.0,0.0,-0.636,34.991,34.991,0.0,0.0,0.0,96.875,96.484,0.0,0.0,26.375,26.25,0.0,0.0,0.0,0.0,90.0,76.727,0.109,27.438,0x00000000,0x00000000,0x00000000,0.0,1246,1279,2.687,7.799,0.0,0.0,0.008,0.018,0.0,0.0,1.0,0.981,0.981,0.981,0.196,1.0,1.0,0.462,0.584,0.57,24.267,0x00000101,192.168.0.40,8080,255.255.255.0,192.168.0.1,0xFFFFFFFF,0xFFFFFFFF,0xFFFFFFFF,0x00000000,
1.95607089996,0x00000000,0x00000000,0x00000000,0x00000000,0x00000000,0x00000000,0x00000000,0x00000000,18.42,3,0x00000000,96.484,97.647,-0.0,-0.014,-0.019,-0.008,-0.018,-0.595,0.041,-1.239,-0.167,-1.266,0x00000003,0.0,0.0,0.006,-0.0,0.001,0.0,0.0,0.0,0.0,0.0,-0.002,0.0,0.0,-0.0,-0.839,-0.076,0.0,0.0,-0.839,34.991,34.991,0.0,0.0,0.0,96.875,96.484,0.0,0.0,26.375,26.25,0.0,0.0,0.0,0.0,90.0,76.727,0.109,27.438,0x00000000,0x00000000,0x00000000,0.0,1246,1279,0.296,7.12,0.0,0.0,0.008,0.018,0.0,0.0,1.0,0.981,0.981,0.981,0.196,1.0,1.0,0.462,0.584,0.57,24.267,0x00000101,192.168.0.40,8080,255.255.255.0,192.168.0.1,0xFFFFFFFF,0xFFFFFFFF,0xFFFFFFFF,0x00000000,
2.01616406441,0x00000000,0x00000000,0x00000000,0x00000000,0x00000000,0x00000000,0x00000000,0x00000000,18.48,3,0x00000000,96.484,97.647,-0.0,-0.014,-0.012,-0.047,-0.024,-0.602,0.037,-1.223,-1.401,-0.916,0x00000003,0.0,0.0,0.002,-0.0,0.001,-0.0,0.0,0.0,0.0,0.0,-0.002,0.0,0.0,-0.0,-0.737,0.013,0.0,0.0,-0.737,34.991,34.991,0.0,0.0,0.0,96.875,96.484,0.0,0.0,26.375,26.25,0.0,0.0,0.0,0.0,90.0,76.727,0.109,27.438,0x00000000,0x00000000,0x00000000,0.0,1246,1279,0.64,4.916,0.0,0.0,0.008,0.018,0.0,0.0,1.0,0.981,0.981,0.981,0.196,1.0,1.0,0.462,0.584,0.57,24.267,0x00000101,192.168.0.40,8080,255.255.255.0,192.168.0.1,0xFFFFFFFF,0xFFFFFFFF,0xFFFFFFFF,0x00000000,
2.06625103951,0x00000000,0x00000000,0x00000000,0x00000000,0x00000000,0x00000000,0x00000000,0x00000000,18.53,3,0x00000000,96.484,97.647,-0.001,-0.014,-0.015,-0.021,-0.012,-0.596,0.287,-1.214,0.085,-2.303,0x00000003,0.0,0.0,-0.006,-0.0,0.001,-0.001,0.0,0.0,0.0,0.0,-0.002,0.0,0.0,-0.0,-0.61,0.127,0.0,0.0,-0.61,34.991,34.991,0.0,0.0,0.0,96.875,96.484,0.0,0.0,26.375,26.25,0.0,0.0,0.0,0.0,90.0,76.727,0.109,27.438,0x00000000,0x00000000,0x00000000,0.0,1246,1279,2.588,8.181,0.0,0.0,0.008,0.018,0.0,0.0,1.0,0.981,0.981,0.981,0.196,1.0,1.0,0.462,0.584,0.57,24.267,0x00000101,192.168.0.40,8080,255.255.255.0,192.168.0.1,0xFFFFFFFF,0xFFFFFFFF,0xFFFFFFFF,0x00000000,
2.1163520813,0x00000000,0x00000000,0x00000000,0x00000000,0x00000000,0x00000000,0x00000000,0x00000000,18.58,3,0x00000000,96.484,97.647,-0.001,-0.014,-0.003,-0.012,-0.037,-0.593,0.336,-1.215,-0.655,-0.911,0x00000003,0.0,0.0,0.009,-0.0,0.001,-0.0,0.001,0.0,0.0,0.0,-0.002,0.0,0.0,-0.0,-0.877,-0.076,0.0,0.0,-0.877,34.991,34.991,0.0,0.0,0.0,96.875,96.484,0.0,0.0,26.375,26.25,0.0,0.0,0.0,0.0,90.0,76.727,0.109,27.438,0x00000000,0x00000000,0x00000000,0.0,1246,1279,3.701,4.913,0.0,0.0,0.008,0.018,0.0,0.0,1.0,0.981,0.981,0.981,0.196,1.0,1.0,0.462,0.584,0.57,24.267,0x00000101,192.168.0.40,8080,255.255.255.0,192.168.0.1,0xFFFFFFFF,0xFFFFFFFF,0xFFFFFFFF,0x00000000,
2.16640210152,0x00000000,0x00000000,0x00000000,0x00000000,0x00000000,0x00000000,0x00000000,0x00000000,18.63,3,0x00000000,96.484,97.647,-0.001,-0.015,-0.012,-0.026,-0.013,-0.591,-0.071,-1.189,-0.89,0.128,0x00000003,0.0,0.0,0.002,0.0,0.001,-0.0,0.0,0.0,0.0,0.0,-0.002,0.0,0.0,-0.0,-0.737,0.0,0.0,0.0,-0.737,34.991,34.991,0.0,0.0,0.0,96.875,96.484,0.0,0.0,26.375,26.25,0.0,0.0,0.0,0.0,90.0,76.727,0.109,27.438,0x00000000,0x00000000,0x00000000,0.0,1246,1279,4.382,5.585,0.0,0.0,0.009,0.018,0.0,0.0,1.0,0.981,0.981,0.981,0.196,1.0,1.0,0.462,0.584,0.57,24.267,0x00000101,192.168.0.40,8080,255.255.255.0,192.168.0.1,0xFFFFFFFF,0xFFFFFFFF,0xFFFFFFFF,0x00000000,
2.21648097038,0x00000000,0x00000000,0x00000000,0x00000000,0x00000000,0x00000000,0x00000000,0x00000000,18.68,3,0x00000000,96.484,97.647,0.0,-0.014,-0.01,-0.008,-0.024,-0.584,0.144,-1.188,-0.398,-1.947,0x00000003,0.0,0.0,-0.001,0.0,0.001,-0.0,0.0,0.0,0.0,0.0,-0.002,0.0,0.0,-0.0,0.191,-0.28,0.0,0.0,-0.28,34.991,34.991,0.0,0.0,0.0,96.875,96.484,0.0,0.0,26.375,26.25,0.0,0.0,0.0,0.0,90.0,76.727,0.109,27.438,0x00000000,0x00000000,0x00000000,0.0,1246,1279,3.599,7.024,0.0,0.0,0.009,0.018,0.0,0.0,1.0,0.981,0.981,0.981,0.196,1.0,1.0,0.462,0.584,0.57,24.267,0x00000101,192.168.0.40,8080,255.255.255.0,192.168.0.1,0xFFFFFFFF,0xFFFFFFFF,0xFFFFFFFF,0x00000000,
2.26658201218,0x00000000,0x00000000,0x00000000,0x00000000,0x00000000,0x00000000,0x00000000,0x00000000,18.73,3,0x00000000,96.484,97.647,0.0,-0.013,-0.021,-0.021,-0.019,-0.587,-0.398,-1.174,0.111,-0.9,0x00000003,0.0,0.0,-0.006,-0.0,0.002,-0.001,0.0,0.0,0.0,0.0,-0.002,0.0,0.0,-0.0,0.445,0.648,0.0,0.0,0.648,34.991,34.991,0.0,0.0,0.0,96.875,96.484,0.0,0.0,26.375,26.25,0.0,0.0,0.0,0.0,90.0,76.727,0.109,27.438,0x00000000,0x00000000,0x00000000,0.0,1246,1279,4.535,6.682,0.0,0.0,0.009,0.018,0.0,0.0,1.0,0.981,0.981,0.981,0.196,1.0,1.0,0.462,0.584,0.57,24.267,0x00000101,192.168.0.40,8080,255.255.255.0,192.168.0.1,0xFFFFFFFF,0xFFFFFFFF,0xFFFFFFFF,0x00000000,
2.3166410923,0x00000000,0x00000000,0x00000000,0x00000000,0x00000000,0x00000000,0x00000000,0x00000000,18.78,3,0x00000000,96.484,97.647,-0.0,-0.014,0.0,-0.026,-0.03,-0.589,-0.415,-1.15,0.611,-0.206,0x00000003,0.0,0.0,0.003,0.0,0.004,-0.002,0.002,0.0,0.0,0.0,-0.002,0.0,0.0,-0.0,-0.75,0.013,0.0,0.0,-0.75,34.991,34.991,0.0,0.0,0.0,96.875,96.484,0.0,0.0,26.375,26.25,0.0,0.0,0.0,0.0,90.0,76.727,0.109,27.438,0x00000000,0x00000000,0x00000000,0.0,1246,1279,3.57,7.005,0.0,0.0,0.009,0.018,0.0,0.0,1.0,0.981,0.981,0.981,0.196,1.0,1.0,0.462,0.584,0.57,24.267,0x00000101,192.168.0.40,8080,255.255.255.0,192.168.0.1,0xFFFFFFFF,0xFFFFFFFF,0xFFFFFFFF,0x00000000,
2.36673307419,0x00000000,0x00000000,0x00000000,0x00000000,0x00000000,0x00000000,0x00000000,0x00000000,18.83,3,0x00000000,96.484,97.647,0.0,-0.014,-0.005,-0.026,-0.024,-0.578,-0.009,-1.14,0.111,-0.896,0x00000003,0.0,0.0,-0.003,0.0,0.003,-0.0,0.0,0.0,0.0,0.0,-0.002,0.0,0.0,-0.0,-0.737,0.0,0.0,0.0,-0.737,34.991,34.991,0.0,0.0,0.0,96.875,96.484,0.0,0.0,26.375,26.25,0.0,0.0,0.0,0.0,90.0,76.727,0.109,27.438,0x00000000,0x00000000,0x00000000,0.0,1246,1279,3.528,4.862,0.0,0.0,0.009,0.018,0.0,0.0,1.0,0.981,0.981,0.981,0.196,1.0,1.0,0.462,0.584,0.57,24.267,0x00000101,192.168.0.40,8080,255.255.255.0,192.168.0.1,0xFFFFFFFF,0xFFFFFFFF,0xFFFFFFFF,0x00000000,
2.41679811478,0x00000000,0x00000000,0x00000000,0x00000000,0x00000000,0x00000000,0x00000000,0x00000000,18.88,3,0x00000000,96.484,97.647,0.0,-0.014,-0.014,-0.021,-0.043,-0.571,0.329,-1.141,-0.387,-1.936,0x00000003,0.0,0.0,-0.003,0.0,0.002,-0.0,0.0,0.0,0.0,0.0,-0.002,0.0,0.0,-0.0,-0.674,-0.076,0.0,0.0,-0.674,34.991,34.991,0.0,0.0,0.0,96.875,96.484,0.0,0.0,26.375,26.25,0.0,0.0,0.0,0.0,90.0,76.719,0.109,27.438,0x00000000,0x00000000,0x00000000,0.0,1246,1279,3.346,6.993,0.0,0.0,0.009,0.019,0.0,0.0,1.0,0.981,0.981,0.981,0.196,1.0,1.0,0.462,0.584,0.57,24.267,0x00000101,192.168.0.40,8080,255.255.255.0,192.168.0.1,0xFFFFFFFF,0xFFFFFFFF,0xFFFFFFFF,0x00000000,
2.46688199043,0x00000000,0x00000000,0x00000000,0x00000000,0x00000000,0x00000000,0x00000000,0x00000000,18.93,3,0x00000000,96.484,97.647,-0.001,-0.014,-0.007,-0.039,-0.0,-0.557,0.087,-1.12,-0.129,0.495,0x00000003,0.0,0.0,-0.0,-0.0,0.002,-0.0,0.0,0.0,0.0,0.0,-0.002,0.0,0.0,-0.0,-0.712,0.114,0.0,0.0,-0.712,34.991,34.991,0.0,0.0,0.0,96.875,96.484,0.0,0.0,26.375,26.25,0.0,0.0,0.0,0.0,90.0,76.719,0.109,27.438,0x00000000,0x00000000,0x00000000,0.0,1246,1279,2.301,4.862,0.0,0.0,0.009,0.019,0.0,0.0,1.0,0.981,0.981,0.981,0.196,1.0,1.0,0.462,0.584,0.57,24.267,0x00000101,192.168.0.40,8080,255.255.255.0,192.168.0.1,0xFFFFFFFF,0xFFFFFFFF,0xFFFFFFFF,0x00000000,
2.51696801186,0x00000000,0x00000000,0x00000000,0x00000000,0x00000000,0x00000000,0x00000000,0x00000000,18.98,3,0x00000000,96.484,97.647,-0.0,-0.013,-0.025,-0.03,-0.031,-0.56,0.04,-1.144,-0.866,-0.203,0x00000003,0.0,0.0,0.003,-0.0,0.001,-0.0,0.0,0.0,0.0,0.0,-0.002,0.0,0.0,-0.0,-0.89,0.089,0.0,0.0,-0.89,34.991,34.991,0.0,0.0,0.0,96.875,96.484,0.0,0.0,26.375,26.25,0.0,0.0,0.0,0.0,90.0,76.719,0.109,27.438,0x00000000,0x00000000,0x00000000,0.0,1246,1279,2.436,4.77,0.0,0.0,0.009,0.019,0.0,0.0,1.0,0.981,0.981,0.981,0.196,1.0,1.0,0.462,0.584,0.57,24.267,0x00000101,192.168.0.40,8080,255.255.255.0,192.168.0.1,0xFFFFFFFF,0xFFFFFFFF,0xFFFFFFFF,0x00000000,
2.56703901291,0x00000000,0x00000000,0x00000000,0x00000000,0x00000000,0x00000000,0x00000000,0x00000000,19.03,3,0x00000000,96.484,97.647,-0.0,-0.014,-0.021,-0.008,-0.012,-0.555,0.456,-1.145,-0.874,0.155,0x00000003,0.0,0.0,0.0,-0.0,0.001,-0.001,-0.0,0.0,0.0,0.0,-0.002,0.0,0.0,-0.0,-0.75,0.0,0.0,0.0,-0.75,34.991,34.991,0.0,0.0,0.0,96.875,96.484,0.0,0.0,26.375,26.25,0.0,0.0,0.0,0.0,90.0,76.719,0.109,27.438,0x00000000,0x00000000,0x00000000,0.0,1246,1279,4.485,7.959,0.0,0.0,0.009,0.019,0.0,0.0,1.0,0.981,0.981,0.981,0.196,1.0,1.0,0.462,0.584,0.57,24.267,0x00000101,192.168.0.40,8080,255.255.255.0,192.168.0.1,0xFFFFFFFF,0xFFFFFFFF,0xFFFFFFFF,0x00000000,
2.62709498405,0x00000000,0x00000000,0x00000000,0x00000000,0x00000000,0x00000000,0x00000000,0x00000000,19.09,3,0x00000000,96.484,97.647,0.0,-0.014,-0.018,-0.025,-0.019,-0.557,-0.379,-1.107,0.382,-0.184,0x00000003,0.0,0.0,0.009,-0.0,0.002,-0.0,0.001,0.0,0.0,0.0,-0.002,0.0,0.0,-0.0,-0.636,0.089,0.0,0.0,-0.636,34.991,34.991,0.0,0.0,0.0,96.875,96.484,0.0,0.0,26.375,26.25,0.0,0.0,0.0,0.0,90.0,76.719,0.109,27.438,0x00000000,0x00000000,0x00000000,0.0,1246,1279,1.723,5.652,0.0,0.0,0.009,0.019,0.0,0.0,1.0,0.981,0.981,0.981,0.196,1.0,1.0,0.462,0.584,0.57,24.267,0x00000101,192.168.0.40,8080,255.255.255.0,192.168.0.1,0xFFFFFFFF,0xFFFFFFFF,0xFFFFFFFF,0x00000000,
2.6772210598,0x00000000,0x00000000,0x00000000,0x00000000,0x00000000,0x00000000,0x00000000,0x00000000,19.14,3,0x00000000,96.484,97.647,-0.0,-0.014,-0.024,-0.021,-0.031,-0.559,0.006,-1.105,0.381,-1.231,0x00000003,0.0,0.0,0.016,0.0,0.001,0.001,0.0,0.0,0.0,0.0,-0.002,0.0,0.0,-0.0,-0.75,0.089,0.0,0.0,-0.75,34.991,34.991,0.0,0.0,0.0,96.875,96.484,0.0,0.0,26.375,26.25,0.0,0.0,0.0,0.0,90.0,76.719,0.109,27.438,0x00000000,0x00000000,0x00000000,0.0,1246,1279,3.821,8.178,0.0,0.0,0.009,0.019,0.0,0.0,1.0,0.981,0.981,0.981,0.196,1.0,1.0,0.462,0.584,0.57,24.267,0x00000101,192.168.0.40,8080,255.255.255.0,192.168.0.1,0xFFFFFFFF,0xFFFFFFFF,0xFFFFFFFF,0x00000000,
2.72726106644,0x00000000,0x00000000,0x00000000,0x00000000,0x00000000,0x00000000,0x00000000,0x00000000,19.19,3,0x00000000,96.484,97.647,-0.0,-0.013,-0.011,-0.008,-0.006,-0.562,0.221,-1.092,-0.112,-0.537,0x00000003,0.0,0.0,-0.006,-0.0,0.001,-0.001,0.0,0.0,0.0,0.0,-0.002,0.0,0.0,-0.0,-0.242,-0.737,0.0,0.0,-0.737,34.991,34.991,0.0,0.0,0.0,96.875,96.484,0.0,0.0,26.375,26.25,0.0,0.0,0.0,0.0,90.0,76.719,0.109,27.438,0x00000000,0x00000000,0x00000000,0.0,1246,1279,2.568,5.431,0.0,0.0,0.009,0.019,0.0,0.0,1.0,0.981,0.981,0.981,0.196,1.0,1.0,0.462,0.584,0.57,24.267,0x00000101,192.168.0.40,8080,255.255.255.0,192.168.0.1,0xFFFFFFFF,0xFFFFFFFF,0xFFFFFFFF,0x00000000,
2.77737998962,0x00000000,0x00000000,0x00000000,0x00000000,0x00000000,0x00000000,0x00000000,0x00000000,19.24,3,0x00000000,96.484,97.647,-0.0,-0.014,-0.01,-0.008,-0.012,-0.571,-0.435,-1.09,-0.598,1.21,0x00000003,0.0,0.0,0.006,-0.0,0.001,-0.001,0.001,0.0,0.0,0.0,-0.002,0.0,0.0,-0.0,-0.687,-1.144,0.0,0.0,-1.144,34.991,34.991,0.0,0.0,0.0,96.875,96.484,0.0,0.0,26.375,26.25,0.0,0.0,0.0,0.0,90.0,76.719,0.109,27.438,0x00000000,0x00000000,0x00000000,0.0,1246,1279,0.111,6.318,0.0,0.0,0.009,0.019,0.0,0.0,1.0,0.981,0.981,0.981,0.196,1.0,1.0,0.462,0.584,0.57,24.267,0x00000101,192.168.0.40,8080,255.255.255.0,192.168.0.1,0xFFFFFFFF,0xFFFFFFFF,0xFFFFFFFF,0x00000000,
2.82742404938,0x00000000,0x00000000,0x00000000,0x00000000,0x00000000,0x00000000,0x00000000,0x00000000,19.29,3,0x00000000,96.484,97.647,0.0,-0.014,-0.013,-0.012,-0.019,-0.578,-0.137,-1.071,-0.103,-0.877,0x00000003,0.0,0.0,-0.012,0.0,0.002,-0.002,0.0,0.0,0.0,0.0,-0.002,0.0,0.0,-0.0,-0.674,-0.191,0.0,0.0,-0.674,34.991,34.991,0.0,0.0,0.0,96.875,96.484,0.0,0.0,26.375,26.25,0.0,0.0,0.0,0.0,90.0,76.719,0.109,27.438,0x00000000,0x00000000,0x00000000,0.0,1246,1279,0.185,8.422,0.0,0.0,0.009,0.019,0.0,0.0,1.0,0.981,0.981,0.981,0.196,1.0,1.0,0.462,0.584,0.57,24.267,0x00000101,192.168.0.40,8080,255.255.255.0,192.168.0.1,0xFFFFFFFF,0xFFFFFFFF,0xFFFFFFFF,0x00000000,
2.87755298615,0x00000000,0x00000000,0x00000000,0x00000000,0x00000000,0x00000000,0x00000000,0x00000000,19.34,3,0x00000000,96.484,97.647,0.0,-0.013,-0.002,-0.022,0.006,-0.576,0.593,-1.077,-0.852,0.504,0x00000003,0.0,0.0,-0.001,0.0,0.002,-0.0,0.0,0.0,0.0,0.0,-0.002,0.0,0.0,-0.0,-0.852,-0.114,0.0,0.0,-0.852,34.991,34.991,0.0,0.0,0.0,96.875,96.484,0.0,0.0,26.375,26.25,0.0,0.0,0.0,0.0,90.0,76.719,0.109,27.438,0x00000000,0x00000000,0x00000000,0.0,1246,1279,1.158,6.11,0.0,0.0,0.009,0.019,0.0,0.0,1.0,0.981,0.981,0.981,0.196,1.0,1.0,0.462,0.584,0.57,24.267,0x00000101,192.168.0.40,8080,255.255.255.0,192.168.0.1,0xFFFFFFFF,0xFFFFFFFF,0xFFFFFFFF,0x00000000,
2.92772102356,0x00000000,0x00000000,0x00000000,0x00000000,0x00000000,0x00000000,0x00000000,0x00000000,19.39,3,0x00000000,96.484,97.647,-0.0,-0.014,-0.011,-0.021,-0.025,-0.56,0.74,-1.051,-0.106,0.499,0x00000003,0.0,0.0,0.011,0.0,0.001,0.0,0.001,0.0,0.0,0.0,-0.002,0.0,0.0,-0.0,-0.852,-0.076,0.0,0.0,-0.852,34.991,34.991,0.0,0.0,0.0,96.875,96.484,0.0,0.0,26.375,26.25,0.0,0.0,0.0,0.0,90.0,76.727,0.109,27.438,0x00000000,0x00000000,0x00000000,0.0,1246,1279,2.749,8.017,0.0,0.0,0.009,0.019,0.0,0.0,1.0,0.981,0.981,0.981,0.196,1.0,1.0,0.462,0.584,0.57,24.267,0x00000101,192.168.0.40,8080,255.255.255.0,192.168.0.1,0xFFFFFFFF,0xFFFFFFFF,0xFFFFFFFF,0x00000000,
2.97798991203,0x00000000,0x00000000,0x00000000,0x00000000,0x00000000,0x00000000,0x00000000,0x00000000,19.44,3,0x00000000,96.484,97.647,-0.0,-0.014,-0.013,-0.03,-0.006,-0.567,-0.181,-1.043,0.158,-1.569,0x00000003,0.0,0.0,-0.008,-0.0,0.001,-0.001,0.0,0.0,0.0,0.0,-0.002,0.0,0.0,-0.0,-0.737,-0.076,0.0,0.0,-0.737,34.991,34.991,0.0,0.0,0.0,96.875,96.484,0.0,0.0,26.375,26.25,0.0,0.0,0.0,0.0,90.0,76.727,0.109,27.438,0x00000000,0x00000000,0x00000000,0.0,1246,1279,2.275,5.539,0.0,0.0,0.009,0.02,0.0,0.0,1.0,0.981,0.981,0.981,0.196,1.0,1.0,0.462,0.584,0.57,24.267,0x00000101,192.168.0.40,8080,255.255.255.0,192.168.0.1,0xFFFFFFFF,0xFFFFFFFF,0xFFFFFFFF,0x00000000,
3.02772808075,0x00000000,0x00000000,0x00000000,0x00000000,0x00000000,0x00000000,0x00000000,0x00000000,19.49,3,0x00000000,96.484,97.647,0.001,-0.014,-0.005,-0.008,-0.012,-0.553,0.648,-1.035,0.148,-1.572,0x00000003,0.0,0.0,-0.004,-0.0,0.001,-0.001,0.0,0.0,0.0,0.0,-0.002,0.0,0.0,-0.0,-0.636,-0.076,0.0,0.0,-0.636,34.991,34.991,0.0,0.0,0.0,96.875,96.484,0.0,0.0,26.375,26.25,0.0,0.0,0.0,0.0,90.0,76.727,0.109,27.438,0x00000000,0x00000000,0x00000000,0.0,1246,1279,4.15,4.799,0.0,0.0,0.009,0.02,0.0,0.0,1.0,0.981,0.981,0.981,0.196,1.0,1.0,0.462,0.584,0.57,24.267,0x00000101,192.168.0.40,8080,255.255.255.0,192.168.0.1,0xFFFFFFFF,0xFFFFFFFF,0xFFFFFFFF,0x00000000,
3.08788394928,0x00000000,0x00000000,0x00000000,0x00000000,0x00000000,0x00000000,0x00000000,0x00000000,19.55,3,0x00000000,96.484,97.647,-0.0,-0.014,-0.015,-0.012,-0.025,-0.554,-0.242,-1.023,-0.578,-0.523,0x00000003,0.0,0.0,0.001,-0.0,0.001,-0.0,0.0,0.0,0.0,0.0,-0.002,0.0,0.0,-0.0,-0.852,0.013,0.0,0.0,-0.852,34.991,34.991,0.0,0.0,0.0,96.875,96.484,0.0,0.0,26.375,26.25,0.0,0.0,0.0,0.0,90.0,76.727,0.109,27.438,0x00000000,0x00000000,0x00000000,0.0,1246,1279,2.348,5.043,0.0,0.0,0.009,0.02,0.0,0.0,1.0,0.981,0.981,0.981,0.196,1.0,1.0,0.462,0.584,0.57,24.267,0x00000101,192.168.0.40,8080,255.255.255.0,192.168.0.1,0xFFFFFFFF,0xFFFFFFFF,0xFFFFFFFF,0x00000000,
3.13791394234,0x00000000,0x00000000,0x00000000,0x00000000,0x00000000,0x00000000,0x00000000,0x00000000,19.6,3,0x00000000,96.484,97.647,-0.0,-0.014,-0.017,-0.008,-0.0,-0.558,0.461,-1.008,-0.091,-0.174,0x00000003,0.0,0.0,0.003,0.0,0.0,-0.0,0.001,0.0,0.0,0.0,-0.002,0.0,0.0,-0.0,-0.776,0.038,0.0,0.0,-0.776,34.991,34.991,0.0,0.0,0.0,96.875,96.484,0.0,0.0,26.375,26.25,0.0,0.0,0.0,0.0,90.0,76.727,0.109,27.438,0x00000000,0x00000000,0x00000000,0.0,1246,1279,2.849,4.958,0.0,0.0,0.009,0.02,0.0,0.0,1.0,0.981,0.981,0.981,0.196,1.0,1.0,0.462,0.584,0.57,24.267,0x00000101,192.168.0.40,8080,255.255.255.0,192.168.0.1,0xFFFFFFFF,0xFFFFFFFF,0xFFFFFFFF,0x00000000,
3.18803405762,0x00000000,0x00000000,0x00000000,0x00000000,0x00000000,0x00000000,0x00000000,0x00000000,19.65,3,0x00000000,96.484,97.647,0.0,-0.014,-0.006,-0.008,-0.024,-0.557,0.182,-1.002,-0.83,0.184,0x00000003,0.0,0.0,0.001,0.0,0.0,0.0,0.0,0.0,0.0,0.0,-0.002,0.0,0.0,-0.0,-0.737,0.013,0.0,0.0,-0.737,34.991,34.991,0.0,0.0,0.0,96.875,96.484,0.0,0.0,26.375,26.25,0.0,0.0,0.0,0.0,90.0,76.727,0.109,27.438,0x00000000,0x00000000,0x00000000,0.0,1246,1279,3.713,4.781,0.0,0.0,0.009,0.02,0.0,0.0,1.0,0.981,0.981,0.981,0.196,1.0,1.0,0.462,0.584,0.57,24.267,0x00000101,192.168.0.40,8080,255.255.255.0,192.168.0.1,0xFFFFFFFF,0xFFFFFFFF,0xFFFFFFFF,0x00000000,
3.23806500435,0x00000000,0x00000000,0x00000000,0x00000000,0x00000000,0x00000000,0x00000000,0x00000000,19.7,3,0x00000000,96.484,97.647,0.0,-0.014,0.0,-0.017,-0.03,-0.557,0.225,-0.984,-0.33,0.18,0x00000003,0.0,0.0,-0.0,0.0,0.001,-0.0,0.0,0.0,0.0,0.0,-0.002,0.0,0.0,-0.0,-0.75,-0.852,0.0,0.0,-0.852,34.991,34.991,0.0,0.0,0.0,96.875,96.484,0.0,0.0,26.375,26.25,0.0,0.0,0.0,0.0,90.0,76.727,0.109,27.438,0x00000000,0x00000000,0x00000000,0.0,1246,1279,1.53,2.74,0.0,0.0,0.009,0.02,0.0,0.0,1.0,0.981,0.981,0.981,0.196,1.0,1.0,0.462,0.584,0.57,24.267,0x00000101,192.168.0.40,8080,255.255.255.0,192.168.0.1,0xFFFFFFFF,0xFFFFFFFF,0xFFFFFFFF,0x00000000,
3.28821206093,0x00000000,0x00000000,0x00000000,0x00000000,0x00000000,0x00000000,0x00000000,0x00000000,19.75,3,0x00000000,96.484,97.647,-0.0,-0.015,-0.017,-0.026,-0.0,-0.549,0.372,-0.979,-0.577,-1.897,0x00000003,0.0,0.0,-0.001,0.0,0.001,-0.0,0.0,0.0,0.0,0.0,-0.002,0.0,0.0,-0.0,-1.437,0.0,0.0,0.0,-1.437,34.991,34.991,0.0,0.0,0.0,96.875,96.484,0.0,0.0,26.375,26.25,0.0,0.0,0.0,0.0,90.0,76.727,0.109,27.438,0x00000000,0x00000000,0x00000000,0.0,1246,1279,0.881,6.924,0.0,0.0,0.009,0.02,0.0,0.0,1.0,0.981,0.981,0.981,0.196,1.0,1.0,0.462,0.584,0.57,24.267,0x00000101,192.168.0.40,8080,255.255.255.0,192.168.0.1,0xFFFFFFFF,0xFFFFFFFF,0xFFFFFFFF,0x00000000,
3.33822107315,0x00000000,0x00000000,0x00000000,0x00000000,0x00000000,0x00000000,0x00000000,0x00000000,19.8,3,0x00000000,96.484,97.647,-0.0,-0.014,-0.014,-0.021,-0.0,-0.555,-0.104,-0.983,-0.568,-0.503,0x00000003,0.0,0.0,-0.014,-0.0,0.001,-0.001,0.0,0.0,0.0,0.0,-0.002,0.0,0.0,-0.0,0.318,0.534,0.0,0.0,0.534,34.991,34.991,0.0,0.0,0.0,96.875,96.484,0.0,0.0,26.375,26.25,0.0,0.0,0.0,0.0,90.0,76.727,0.109,27.438,0x00000000,0x00000000,0x00000000,0.0,1246,1279,1.192,4.872,0.0,0.0,0.009,0.02,0.0,0.0,1.0,0.981,0.981,0.981,0.196,1.0,1.0,0.462,0.584,0.57,24.267,0x00000101,192.168.0.40,8080,255.255.255.0,192.168.0.1,0xFFFFFFFF,0xFFFFFFFF,0xFFFFFFFF,0x00000000,
3.38835191727,0x00000000,0x00000000,0x00000000,0x00000000,0x00000000,0x00000000,0x00000000,0x00000000,19.85,3,0x00000000,96.484,97.647,-0.0,-0.013,-0.012,-0.025,-0.031,-0.555,-0.385,-0.98,-0.063,-0.16,0x00000003,0.0,0.0,0.002,-0.0,0.001,-0.0,0.0,0.0,0.0,0.0,-0.002,0.0,0.0,-0.0,-0.674,0.0,0.0,0.0,-0.674,34.991,34.991,0.0,0.0,0.0,96.875,96.484,0.0,0.0,26.375,26.25,0.0,0.0,0.0,0.0,90.0,76.727,0.109,27.438,0x00000000,0x00000000,0x00000000,0.0,1246,1279,0.866,5.975,0.0,0.0,0.009,0.02,0.0,0.0,1.0,0.981,0.981,0.981,0.196,1.0,1.0,0.462,0.584,0.57,24.267,0x00000101,192.168.0.40,8080,255.255.255.0,192.168.0.1,0xFFFFFFFF,0xFFFFFFFF,0xFFFFFFFF,0x00000000,
3.43841695786,0x00000000,0x00000000,0x00000000,0x00000000,0x00000000,0x00000000,0x00000000,0x00000000,19.9,3,0x00000000,96.484,97.647,-0.0,-0.014,0.0,-0.017,-0.03,-0.54,0.741,-0.983,-0.818,-1.9,0x00000003,0.0,0.0,0.004,-0.0,0.002,-0.0,0.0,0.0,0.0,0.0,-0.002,0.0,0.0,-0.0,-0.737,-0.076,0.0,0.0,-0.737,34.991,34.991,0.0,0.0,0.0,96.484,96.484,0.0,0.0,26.375,26.25,0.0,0.0,0.0,0.0,90.0,76.719,0.109,27.438,0x00000000,0x00000000,0x00000000,0.0,1246,1279,4.611,6.361,0.0,0.0,0.009,0.02,0.0,0.0,1.0,0.981,0.981,0.981,0.196,1.0,1.0,0.462,0.584,0.57,24.267,0x00000101,192.168.0.40,8080,255.255.255.0,192.168.0.1,0xFFFFFFFF,0xFFFFFFFF,0xFFFFFFFF,0x00000000,
3.48861908913,0x00000000,0x00000000,0x00000000,0x00000000,0x00000000,0x00000000,0x00000000,0x00000000,19.95,3,0x00000000,96.484,97.647,0.001,-0.014,-0.01,-0.025,-0.019,-0.536,0.289,-0.958,-0.314,-1.2,0x00000003,0.0,0.0,0.003,-0.0,0.001,-0.0,0.0,0.0,0.0,0.0,-0.002,0.0,0.0,-0.0,-0.737,0.089,0.0,0.0,-0.737,34.991,34.991,0.0,0.0,0.0,96.484,96.484,0.0,0.0,26.375,26.25,0.0,0.0,0.0,0.0,90.0,76.719,0.109,27.438,0x00000000,0x00000000,0x00000000,0.0,1246,1279,2.358,5.188,0.0,0.0,0.01,0.02,0.0,0.0,1.0,0.981,0.981,0.981,0.196,1.0,1.0,0.462,0.584,0.57,24.267,0x00000101,192.168.0.40,8080,255.255.255.0,192.168.0.1,0xFFFFFFFF,0xFFFFFFFF,0xFFFFFFFF,0x00000000,
3.54073810577,0x00000000,0x00000000,0x00000000,0x00000000,0x00000000,0x00000000,0x00000000,0x00000000,20.0,3,0x00000000,96.484,97.647,-0.0,-0.013,-0.017,-0.017,-0.0,-0.546,-0.109,-0.964,-1.546,-1.188,0x00000003,0.0,0.0,0.006,-0.0,0.002,-0.0,0.001,0.0,0.0,0.0,-0.002,0.0,0.0,-0.0,-0.737,0.089,0.0,0.0,-0.737,34.991,34.991,0.0,0.0,0.0,96.484,96.484,0.0,0.0,26.375,26.25,0.0,0.0,0.0,0.0,90.0,76.719,0.109,27.438,0x00000000,0x00000000,0x00000000,0.0,1246,1279,4.037,6.785,0.0,0.0,0.01,0.02,0.0,0.0,1.0,0.981,0.981,0.981,0.196,1.0,1.0,0.462,0.584,0.57,24.267,0x00000101,192.168.0.40,8080,255.255.255.0,192.168.0.1,0xFFFFFFFF,0xFFFFFFFF,0xFFFFFFFF,0x00000000,
3.58871102333,0x00000000,0x00000000,0x00000000,0x00000000,0x00000000,0x00000000,0x00000000,0x00000000,20.05,3,0x00000000,96.484,97.647,-0.0,-0.013,-0.011,-0.013,-0.0,-0.548,-0.085,-0.96,-0.552,-1.881,0x00000003,0.0,0.0,0.002,0.0,0.001,-0.0,0.0,0.0,0.0,0.0,-0.002,0.0,0.0,-0.0,-0.712,0.203,0.0,0.0,-0.712,34.991,34.991,0.0,0.0,0.0,96.484,96.484,0.0,0.0,26.375,26.25,0.0,0.0,0.0,0.0,90.0,76.719,0.109,27.438,0x00000000,0x00000000,0x00000000,0.0,1246,1279,3.584,5.203,0.0,0.0,0.01,0.021,0.0,0.0,1.0,0.981,0.981,0.981,0.196,1.0,1.0,0.462,0.584,0.57,24.267,0x00000101,192.168.0.40,8080,255.255.255.0,192.168.0.1,0xFFFFFFFF,0xFFFFFFFF,0xFFFFFFFF,0x00000000,
3.64877295494,0x00000000,0x00000000,0x00000000,0x00000000,0x00000000,0x00000000,0x00000000,0x00000000,20.11,3,0x00000000,96.484,97.647,0.0,-0.014,-0.015,-0.043,-0.006,-0.553,-0.491,-0.954,-0.539,0.197,0x00000003,0.0,0.0,-0.001,0.0,0.0,-0.0,0.0,0.0,0.0,0.0,-0.002,0.0,0.0,-0.0,-0.788,0.203,0.0,0.0,-0.788,34.991,34.991,0.0,0.0,0.0,96.484,96.484,0.0,0.0,26.375,26.25,0.0,0.0,0.0,0.0,90.0,76.719,0.109,27.438,0x00000000,0x00000000,0x00000000,0.0,1246,1279,4.561,5.751,0.0,0.0,0.01,0.021,0.0,0.0,1.0,0.981,0.981,0.981,0.196,1.0,1.0,0.462,0.584,0.57,24.267,0x00000101,192.168.0.40,8080,255.255.255.0,192.168.0.1,0xFFFFFFFF,0xFFFFFFFF,0xFFFFFFFF,0x00000000,
3.69898200035,0x00000000,0x00000000,0x00000000,0x00000000,0x00000000,0x00000000,0x00000000,0x00000000,20.16,3,0x00000000,96.484,97.647,-0.0,-0.014,-0.017,-0.017,0.024,-0.564,-0.208,-0.962,-0.048,-0.146,0x00000003,0.0,0.0,-0.002,-0.0,0.0,-0.0,0.0,0.0,0.0,0.0,-0.002,0.0,0.0,-0.0,-0.674,0.038,0.0,0.0,-0.674,34.991,34.991,0.0,0.0,0.0,96.484,96.484,0.0,0.0,26.375,26.25,0.0,0.0,0.0,0.0,90.0,76.719,0.109,27.438,0x00000000,0x00000000,0x00000000,0.0,1246,1279,3.572,6.807,0.0,0.0,0.01,0.021,0.0,0.0,1.0,0.981,0.981,0.981,0.196,1.0,1.0,0.462,0.584,0.57,24.267,0x00000101,192.168.0.40,8080,255.255.255.0,192.168.0.1,0xFFFFFFFF,0xFFFFFFFF,0xFFFFFFFF,0x00000000,
3.74893593788,0x00000000,0x00000000,0x00000000,0x00000000,0x00000000,0x00000000,0x00000000,0x00000000,20.21,3,0x00000000,96.484,97.647,0.0,-0.013,-0.02,-0.034,-0.0,-0.573,-0.649,-0.96,0.211,0.895,0x00000003,0.0,0.0,0.001,-0.0,0.0,-0.0,0.0,0.0,0.0,0.0,-0.002,0.0,0.0,-0.0,-0.776,0.203,0.0,0.0,-0.776,34.991,34.991,0.0,0.0,0.0,96.484,96.484,0.0,0.0,26.375,26.25,0.0,0.0,0.0,0.0,90.0,76.719,0.109,27.438,0x00000000,0x00000000,0x00000000,0.0,1246,1279,2.56,8.896,0.0,0.0,0.01,0.021,0.0,0.0,1.0,0.981,0.981,0.981,0.196,1.0,1.0,0.462,0.584,0.57,24.267,0x00000101,192.168.0.40,8080,255.255.255.0,192.168.0.1,0xFFFFFFFF,0xFFFFFFFF,0xFFFFFFFF,0x00000000,
3.79901003838,0x00000000,0x00000000,0x00000000,0x00000000,0x00000000,0x00000000,0x00000000,0x00000000,20.26,3,0x00000000,96.484,97.647,-0.001,-0.014,-0.017,0.005,-0.019,-0.586,0.099,-0.973,-0.29,-0.505,0x00000003,0.0,0.0,-0.006,-0.0,0.001,-0.001,0.0,0.0,0.0,0.0,-0.002,0.0,0.0,-0.0,-0.89,-0.636,0.0,0.0,-0.89,34.991,34.991,0.0,0.0,0.0,96.484,96.484,0.0,0.0,26.375,26.25,0.0,0.0,0.0,0.0,90.0,76.719,0.109,27.438,0x00000000,0x00000000,0x00000000,0.0,1246,1279,0.449,7.167,0.0,0.0,0.01,0.021,0.0,0.0,1.0,0.981,0.981,0.981,0.196,1.0,1.0,0.462,0.584,0.57,24.267,0x00000101,192.168.0.40,8080,255.255.255.0,192.168.0.1,0xFFFFFFFF,0xFFFFFFFF,0xFFFFFFFF,0x00000000,
3.84910106659,0x00000000,0x00000000,0x00000000,0x00000000,0x00000000,0x00000000,0x00000000,0x00000000,20.31,3,0x00000000,96.484,97.647,-0.0,-0.014,-0.009,-0.012,-0.031,-0.59,-0.106,-0.951,-0.784,-0.836,0x00000003,0.0,0.0,-0.011,-0.0,0.0,-0.001,-0.001,0.0,0.0,0.0,-0.002,0.0,0.0,-0.0,-1.017,-1.068,0.0,0.0,-1.068,34.991,34.991,0.0,0.0,0.0,96.484,96.484,0.0,0.0,26.375,26.25,0.0,0.0,0.0,0.0,90.0,76.719,0.109,27.438,0x00000000,0x00000000,0x00000000,0.0,1246,1279,0.199,7.112,0.0,0.0,0.01,0.021,0.0,0.0,1.0,0.981,0.981,0.981,0.196,1.0,1.0,0.462,0.584,0.57,24.267,0x00000101,192.168.0.40,8080,255.255.255.0,192.168.0.1,0xFFFFFFFF,0xFFFFFFFF,0xFFFFFFFF,0x00000000,
3.89917492867,0x00000000,0x00000000,0x00000000,0x00000000,0x00000000,0x00000000,0x00000000,0x00000000,20.36,3,0x00000000,96.484,97.647,0.001,-0.014,-0.014,-0.021,-0.03,-0.597,-0.132,-0.952,-0.033,-0.152,0x00000003,0.0,0.0,-0.004,-0.001,0.001,-0.001,-0.0,0.0,0.0,0.0,-0.002,0.0,0.0,-0.0,-0.89,-0.076,0.0,0.0,-0.89,34.991,34.991,0.0,0.0,0.0,96.484,96.484,0.0,0.0,26.375,26.25,0.0,0.0,0.0,0.0,90.0,76.719,0.109,27.438,0x00000000,0x00000000,0x00000000,0.0,1246,1279,1.828,9.117,0.0,0.0,0.01,0.021,0.0,0.0,1.0,0.981,0.981,0.981,0.196,1.0,1.0,0.462,0.584,0.57,24.267,0x00000101,192.168.0.40,8080,255.255.255.0,192.168.0.1,0xFFFFFFFF,0xFFFFFFFF,0xFFFFFFFF,0x00000000,
3.94924497604,0x00000000,0x00000000,0x00000000,0x00000000,0x00000000,0x00000000,0x00000000,0x00000000,20.41,3,0x00000000,96.484,97.647,-0.001,-0.014,-0.012,-0.012,-0.037,-0.6,-0.111,-0.939,-0.778,-0.831,0x00000003,0.0,0.0,0.004,-0.0,0.002,-0.001,0.001,0.0,0.0,0.0,-0.002,0.0,0.0,-0.0,-0.776,-0.114,0.0,0.0,-0.776,34.991,34.991,0.0,0.0,0.0,96.484,96.484,0.0,0.0,26.375,26.25,0.0,0.0,0.0,0.0,90.0,76.719,0.109,27.438,0x00000000,0x00000000,0x00000000,0.0,1246,1279,4.65,7.538,0.0,0.0,0.01,0.021,0.0,0.0,1.0,0.981,0.981,0.981,0.196,1.0,1.0,0.462,0.584,0.57,24.267,0x00000101,192.168.0.40,8080,255.255.255.0,192.168.0.1,0xFFFFFFFF,0xFFFFFFFF,0xFFFFFFFF,0x00000000,
3.99933195114,0x00000000,0x00000000,0x00000000,0x00000000,0x00000000,0x00000000,0x00000000,0x00000000,20.46,3,0x00000000,96.484,97.647,0.001,-0.014,-0.021,-0.025,-0.012,-0.602,0.622,-0.939,-0.539,-0.829,0x00000003,0.0,0.0,-0.002,-0.0,0.004,-0.002,0.001,0.0,0.0,0.0,-0.002,0.0,0.0,-0.0,-0.788,0.013,0.0,0.0,-0.788,34.991,34.991,0.0,0.0,0.0,96.484,96.484,0.0,0.0,26.375,26.25,0.0,0.0,0.0,0.0,90.0,76.719,0.109,27.438,0x00000000,0x00000000,0x00000000,0.0,1246,1279,3.396,5.081,0.0,0.0,0.01,0.021,0.0,0.0,1.0,0.981,0.981,0.981,0.196,1.0,1.0,0.462,0.584,0.57,24.267,0x00000101,192.168.0.40,8080,255.255.255.0,192.168.0.1,0xFFFFFFFF,0xFFFFFFFF,0xFFFFFFFF,0x00000000,
4.04941105843,0x00000000,0x00000000,0x00000000,0x00000000,0x00000000,0x00000000,0x00000000,0x00000000,20.51,3,0x00000000,96.484,97.647,-0.0,-0.014,-0.022,-0.016,-0.043,-0.604,0.3,-0.914,-0.03,-0.145,0x00000003,0.0,0.0,0.011,0.0,0.003,0.0,0.001,0.0,0.0,0.0,-0.002,0.0,0.0,-0.0,-0.877,-0.076,0.0,0.0,-0.877,34.991,34.991,0.0,0.0,0.0,96.484,96.484,0.0,0.0,26.375,26.25,0.0,0.0,0.0,0.0,90.0,76.719,0.109,27.438,0x00000000,0x00000000,0x00000000,0.0,1246,1279,3.006,4.794,0.0,0.0,0.01,0.021,0.0,0.0,1.0,0.981,0.981,0.981,0.196,1.0,1.0,0.462,0.584,0.57,24.267,0x00000101,192.168.0.40,8080,255.255.255.0,192.168.0.1,0xFFFFFFFF,0xFFFFFFFF,0xFFFFFFFF,0x00000000,
4.09951901436,0x00000000,0x00000000,0x00000000,0x00000000,0x00000000,0x00000000,0x00000000,0x00000000,20.56,3,0x00000000,96.484,97.647,0.001,-0.013,-0.018,-0.021,-0.031,-0.62,0.138,-0.902,-0.273,0.557,0x00000003,0.0,0.0,-0.015,0.0,0.005,-0.002,0.001,0.0,0.0,0.0,-0.002,0.0,0.0,-0.0,-0.636,0.089,0.0,0.0,-0.636,34.991,34.991,0.0,0.0,0.0,96.484,96.484,0.0,0.0,26.375,26.25,0.0,0.0,0.0,0.0,90.0,76.719,0.109,27.438,0x00000000,0x00000000,0x00000000,0.0,1246,1279,0.31,7.864,0.0,0.0,0.01,0.021,0.0,0.0,1.0,0.981,0.981,0.981,0.196,1.0,1.0,0.462,0.584,0.57,24.267,0x00000101,192.168.0.40,8080,255.255.255.0,192.168.0.1,0xFFFFFFFF,0xFFFFFFFF,0xFFFFFFFF,0x00000000,
4.14957499504,0x00000000,0x00000000,0x00000000,0x00000000,0x00000000,0x00000000,0x00000000,0x00000000,20.61,3,0x00000000,96.484,97.647,0.001,-0.014,-0.01,-0.017,-0.031,-0.626,-0.176,-0.886,-0.021,0.918,0x00000003,0.0,0.0,0.018,-0.0,0.004,0.001,0.001,0.0,0.0,0.0,-0.002,0.0,0.0,-0.0,-0.75,0.0,0.0,0.0,-0.75,34.991,34.991,0.0,0.0,0.0,96.484,96.484,0.0,0.0,26.375,26.25,0.0,0.0,0.0,0.0,90.0,76.719,0.109,27.438,0x00000000,0x00000000,0x00000000,0.0,1246,1279,3.76,6.803,0.0,0.0,0.01,0.021,0.0,0.0,1.0,0.981,0.981,0.981,0.196,1.0,1.0,0.462,0.584,0.57,24.267,0x00000101,192.168.0.40,8080,255.255.255.0,192.168.0.1,0xFFFFFFFF,0xFFFFFFFF,0xFFFFFFFF,0x00000000,
4.19964909554,0x00000000,0x00000000,0x00000000,0x00000000,0x00000000,0x00000000,0x00000000,0x00000000,20.66,3,0x00000000,96.484,97.647,0.0,-0.014,-0.015,-0.021,-0.012,-0.626,0.294,-0.884,-1.264,-0.124,0x00000003,0.0,0.0,-0.007,0.0,0.003,-0.001,0.001,0.0,0.0,0.0,-0.002,0.0,0.0,-0.0,-0.75,0.089,0.0,0.0,-0.75,34.991,34.991,0.0,0.0,0.0,96.484,96.484,0.0,0.0,26.375,26.25,0.0,0.0,0.0,0.0,90.0,76.719,0.109,27.438,0x00000000,0x00000000,0x00000000,0.0,1246,1279,3.537,4.861,0.0,0.0,0.01,0.022,0.0,0.0,1.0,0.981,0.981,0.981,0.196,1.0,1.0,0.462,0.584,0.57,24.267,0x00000101,192.168.0.40,8080,255.255.255.0,192.168.0.1,0xFFFFFFFF,0xFFFFFFFF,0xFFFFFFFF,0x00000000,
4.24973106384,0x00000000,0x00000000,0x00000000,0x00000000,0x00000000,0x00000000,0x00000000,0x00000000,20.71,3,0x00000000,96.484,97.647,-0.001,-0.014,-0.017,-0.034,-0.012,-0.629,-0.205,-0.865,-0.263,-0.468,0x00000003,0.0,0.0,0.001,0.0,0.003,-0.0,0.001,0.0,0.0,0.0,-0.002,0.0,0.0,-0.0,-0.852,-0.076,0.0,0.0,-0.852,34.991,34.991,0.0,0.0,0.0,96.484,96.484,0.0,0.0,26.375,26.25,0.0,0.0,0.0,0.0,90.0,76.719,0.109,27.438,0x00000000,0x00000000,0x00000000,0.0,1246,1279,3.194,6.312,0.0,0.0,0.01,0.022,0.0,0.0,1.0,0.981,0.981,0.981,0.196,1.0,1.0,0.462,0.584,0.57,24.267,0x00000101,192.168.0.40,8080,255.255.255.0,192.168.0.1,0xFFFFFFFF,0xFFFFFFFF,0xFFFFFFFF,0x00000000,
4.2998111248,0x00000000,0x00000000,0x00000000,0x00000000,0x00000000,0x00000000,0x00000000,0x00000000,20.76,3,0x00000000,96.484,97.647,-0.0,-0.014,-0.012,-0.026,-0.018,-0.622,0.555,-0.865,-0.272,-0.817,0x00000003,0.0,0.0,-0.01,0.0,0.002,-0.001,0.0,0.0,0.0,0.0,-0.002,0.0,0.0,-0.0,-0.394,-0.025,0.0,0.0,-0.394,34.991,34.991,0.0,0.0,0.0,96.484,96.484,0.0,0.0,26.375,26.25,0.0,0.0,0.0,0.0,90.0,76.719,0.109,27.438,0x00000000,0x00000000,0x00000000,0.0,1246,1279,1.325,8.606,0.0,0.0,0.01,0.022,0.0,0.0,1.0,0.981,0.981,0.981,0.196,1.0,1.0,0.462,0.584,0.57,24.267,0x00000101,192.168.0.40,8080,255.255.255.0,192.168.0.1,0xFFFFFFFF,0xFFFFFFFF,0xFFFFFFFF,0x00000000,
4.3498980999,0x00000000,0x00000000,0x00000000,0x00000000,0x00000000,0x00000000,0x00000000,0x00000000,20.81,3,0x00000000,96.484,97.647,-0.001,-0.014,-0.011,-0.013,-0.012,-0.61,0.857,-0.844,0.225,-1.518,0x00000003,0.0,0.0,0.004,0.0,0.003,-0.001,0.002,0.0,0.0,0.0,-0.002,0.0,0.0,-0.0,-1.144,-0.407,0.0,0.0,-1.144,34.991,34.991,0.0,0.0,0.0,96.484,96.484,0.0,0.0,26.375,26.25,0.0,0.0,0.0,0.0,90.0,76.719,0.109,27.438,0x00000000,0x00000000,0x00000000,0.0,1246,1279,2.396,8.706,0.0,0.0,0.01,0.022,0.0,0.0,1.0,0.981,0.981,0.981,0.196,1.0,1.0,0.462,0.584,0.57,24.267,0x00000101,192.168.0.40,8080,255.255.255.0,192.168.0.1,0xFFFFFFFF,0xFFFFFFFF,0xFFFFFFFF,0x00000000,
4.39996790886,0x00000000,0x00000000,0x00000000,0x00000000,0x00000000,0x00000000,0x00000000,0x00000000,20.86,3,0x00000000,96.484,97.647,-0.001,-0.014,-0.013,-0.008,-0.025,-0.619,-0.118,-0.807,0.982,0.231,0x00000003,0.0,0.0,0.004,0.0,0.002,-0.0,0.001,0.0,0.0,0.0,-0.002,0.0,0.0,-0.0,-0.674,0.191,0.0,0.0,-0.674,34.991,34.991,0.0,0.0,0.0,96.484,96.484,0.0,0.0,26.375,26.25,0.0,0.0,0.0,0.0,90.0,76.719,0.109,27.438,0x00000000,0x00000000,0x00000000,0.0,1246,1279,4.667,3.059,0.0,0.0,0.01,0.022,0.0,0.0,1.0,0.981,0.981,0.981,0.196,1.0,1.0,0.462,0.584,0.57,24.267,0x00000101,192.168.0.40,8080,255.255.255.0,192.168.0.1,0xFFFFFFFF,0xFFFFFFFF,0xFFFFFFFF,0x00000000,
4.45016407967,0x00000000,0x00000000,0x00000000,0x00000000,0x00000000,0x00000000,0x00000000,0x00000000,20.91,3,0x00000000,96.484,97.647,-0.002,-0.015,-0.016,-0.026,-0.006,-0.607,0.155,-0.765,1.48,0.917,0x00000003,0.0,0.0,-0.0,-0.0,0.001,-0.0,0.0,0.0,0.0,0.0,-0.002,0.0,0.0,-0.0,-0.788,0.203,0.0,0.0,-0.788,34.991,34.991,0.0,0.0,0.0,96.484,96.484,0.0,0.0,26.375,26.25,0.0,0.0,0.0,0.0,90.0,76.711,0.109,27.438,0x00000000,0x00000000,0x00000000,0.0,1246,1279,4.251,6.937,0.0,0.0,0.01,0.022,0.0,0.0,1.0,0.981,0.981,0.981,0.196,1.0,1.0,0.462,0.584,0.57,24.267,0x00000101,192.168.0.40,8080,255.255.255.0,192.168.0.1,0xFFFFFFFF,0xFFFFFFFF,0xFFFFFFFF,0x00000000,
4.50013804436,0x00000000,0x00000000,0x00000000,0x00000000,0x00000000,0x00000000,0x00000000,0x00000000,20.96,3,0x00000000,96.484,97.647,0.0,-0.013,-0.018,-0.012,-0.013,-0.612,0.371,-0.754,0.737,0.572,0x00000003,0.0,0.0,0.014,0.0,0.002,-0.0,0.002,0.0,0.0,0.0,-0.002,0.0,0.0,-0.0,-0.636,-0.076,0.0,0.0,-0.636,34.991,34.991,0.0,0.0,0.0,96.484,96.484,0.0,0.0,26.375,26.25,0.0,0.0,0.0,0.0,90.0,76.711,0.109,27.438,0x00000000,0x00000000,0x00000000,0.0,1246,1279,4.406,5.509,0.0,0.0,0.01,0.022,0.0,0.0,1.0,0.981,0.981,0.981,0.196,1.0,1.0,0.462,0.584,0.57,24.267,0x00000101,192.168.0.40,8080,255.255.255.0,192.168.0.1,0xFFFFFFFF,0xFFFFFFFF,0xFFFFFFFF,0x00000000,
