Time_stamp,fault_status_word_1,fault_status_word_2,fault_status_word_3,fault_status_word_4,mcu_0_fault_status,mcu_1_fault_status,mcu_2_fault_status,mcu_3_fault_status,operational_time,operational_state,dynamic_response,min_propulsion_batt_soc,aux_batt_soc,inertial_x_acc_g,inertial_y_acc_g,inertial_x_rate_rps,inertial_y_rate_rps,inertial_z_rate_rps,pse_pitch_deg,pse_pitch_rate_dps,pse_roll_deg,pse_roll_rate_dps,pse_yaw_rate_dps,pse_data_is_valid,yaw_rate_limit_rps,vel_limit_mps,linear_accel_mps2,linear_vel_mps,differential_wheel_vel_rps,right_front_vel_mps,left_front_vel_mps,right_rear_vel_mps,left_rear_vel_mps,right_front_pos_m,left_front_pos_m,right_rear_pos_m,left_rear_pos_m,linear_pos_m,right_front_current_A0pk,left_front_current_A0pk,right_rear_current_A0pk,left_rear_current_A0pk,max_motor_current_A0pk,right_front_current_limit_A0pk,left_front_current_limit_A0pk,right_rear_current_limit_A0pk,left_rear_current_limit_A0pk,min_motor_current_limit_A0pk,front_base_batt_1_soc,front_base_batt_2_soc,rear_base_batt_1_soc,rear_base_batt_2_soc,front_base_batt_1_temp_degC,front_base_batt_2_temp_degC,rear_base_batt_1_temp_degC,rear_base_batt_2_temp_degC,vel_target_mps,yaw_rate_target_rps,angle_target_deg,aux_batt_voltage_V,aux_batt_current_A,aux_batt_temp_degC,abb_system_status,aux_batt_status,aux_batt_faults,7p2V_battery_voltage,ccu_sp_sw_build_id,ccu_uip_sw_build_id,mcu_0_inst_power_W,mcu_1_inst_power_W,mcu_2_inst_power_W,mcu_3_inst_power_W,mcu_0_total_energy_Wh,mcu_1_total_energy_Wh,mcu_2_total_energy_Wh,mcu_3_total_energy_Wh,fram_vel_limit_mps,fram_accel_limit_mps2,fram_decel_limit_mps2,fram_dtz_decel_limit_mps2,fram_coastdown_decel_mps2,fram_yaw_rate_limit_rps,fram_yaw_accel_limit_rps2,fram_tire_diameter_m,fram_wheelbase_length_m,fram_wheel_track_width_m,fram_transmission_ratio,fram_config_bitmap,fram_eth_ip_address,fram_eth_port_number,fram_eth_subnet_mask,fram_eth_gateway,user_feedback_bitmap_1,user_feedback_bitmap_2,user_feedback_bitmap_3,user_feedback_bitmap_4,
0.0771040916443,0x00000000,0x00000000,0x00000000,0x00000000,0x00000000,0x00000000,0x00000000,0x00000000,18.93,3,0x00000000,96.875,97.647,-0.0,-0.006,-0.017,-0.03,-0.031,-0.092,0.184,-1.233,-0.393,-0.67,0x00000003,0.0,0.0,0.003,-0.0,0.001,-0.0,0.001,0.0,0.0,-0.002,-0.009,0.0,0.0,-0.006,0.356,0.102,0.0,0.0,0.356,34.991,34.991,0.0,0.0,0.0,96.875,96.875,0.0,0.0,26.375,26.25,0.0,0.0,0.0,0.0,90.0,76.703,0.109,27.375,0x00000000,0x00000000,0x00000000,0.0,1246,1279,4.991,13.672,0.0,0.0,0.021,0.035,0.0,0.0,1.0,0.981,0.981,0.981,0.196,1.0,1.0,0.462,0.584,0.57,24.267,0x00000101,192.168.0.40,8080,255.255.255.0,192.168.0.1,0xFFFFFFFF,0xFFFFFFFF,0xFFFFFFFF,0x00000000,
0.12713599205,0x00000000,0x00000000,0x00000000,0x00000000,0x00000000,0x00000000,0x00000000,0x00000000,18.98,5,0x00000000,96.875,97.647,-0.001,-0.006,-0.016,-0.03,-0.019,-0.093,0.065,-1.243,-0.145,0.025,0x00000003,0.01,0.01,-0.002,-0.0,0.002,-0.001,0.0,0.0,0.0,-0.002,-0.009,0.0,0.0,-0.006,0.254,0.127,0.0,0.0,0.254,34.991,34.991,0.0,0.0,0.0,96.875,96.875,0.0,0.0,26.375,26.25,0.0,0.0,0.0,0.0,90.0,76.703,0.109,27.375,0x00000000,0x00000000,0x00000000,0.0,1246,1279,5.408,11.085,0.0,0.0,0.021,0.035,0.0,0.0,1.0,0.981,0.981,0.981,0.196,1.0,1.0,0.462,0.584,0.57,24.267,0x00000101,192.168.0.40,8080,255.255.255.0,192.168.0.1,0xFFFFFFFF,0xFFFFFFFF,0xFFFFFFFF,0x00000000,
0.177219152451,0x00000000,0x00000000,0x00000000,0x00000000,0x00000000,0x00000000,0x00000000,0x00000000,19.03,5,0x00000000,96.875,97.647,-0.0,-0.005,-0.02,-0.017,-0.037,-0.101,0.251,-1.237,0.611,-1.366,0x00000003,0.06,0.059,0.005,-0.0,0.001,-0.0,0.0,0.0,0.0,-0.002,-0.009,0.0,0.0,-0.006,0.254,0.127,0.0,0.0,0.254,34.991,34.991,0.0,0.0,0.0,96.875,96.875,0.0,0.0,26.375,26.25,0.0,0.0,0.002,0.0,90.0,76.703,0.109,27.375,0x00000000,0x00000000,0x00000000,0.0,1246,1279,7.649,14.158,0.0,0.0,0.021,0.035,0.0,0.0,1.0,0.981,0.981,0.981,0.196,1.0,1.0,0.462,0.584,0.57,24.267,0x00000101,192.168.0.40,8080,255.255.255.0,192.168.0.1,0xFFFFFFFF,0xFFFFFFFF,0xFFFFFFFF,0x00000000,
0.227239131927,0x00000000,0x00000000,0x00000000,0x00000000,0x00000000,0x00000000,0x00000000,0x00000000,19.08,5,0x00000000,96.875,97.647,-0.001,-0.003,-0.012,-0.03,-0.007,-0.097,0.404,-1.228,-0.63,-1.012,0x00000003,0.11,0.108,-0.001,-0.0,0.001,0.0,-0.0,0.0,0.0,-0.002,-0.009,0.0,0.0,-0.006,-0.776,-0.903,0.0,0.0,-0.903,34.991,34.991,0.0,0.0,0.0,96.875,96.875,0.0,0.0,26.375,26.25,0.0,0.0,0.008,0.0,90.0,76.703,0.109,27.375,0x00000000,0x00000000,0x00000000,0.0,1246,1279,8.084,11.097,0.0,0.0,0.021,0.035,0.0,0.0,1.0,0.981,0.981,0.981,0.196,1.0,1.0,0.462,0.584,0.57,24.267,0x00000101,192.168.0.40,8080,255.255.255.0,192.168.0.1,0xFFFFFFFF,0xFFFFFFFF,0xFFFFFFFF,0x00000000,
0.277401208878,0x00000000,0x00000000,0x00000000,0x00000000,0x00000000,0x00000000,0x00000000,0x00000000,19.13,5,0x00000000,96.875,97.647,-0.001,0.004,0.004,-0.013,-0.024,-0.076,0.985,-1.241,-1.131,-0.677,0x00000003,0.16,0.157,-0.042,-0.003,-0.006,-0.003,-0.006,0.0,0.0,-0.002,-0.01,0.0,0.0,-0.006,-1.806,-1.462,0.0,0.0,-1.806,34.991,34.991,0.0,0.0,0.0,96.875,96.875,0.0,0.0,26.375,26.25,0.0,0.0,0.009,0.0,90.0,76.703,0.109,27.375,0x00000000,0x00000000,0x00000000,0.0,1246,1279,4.909,13.641,0.0,0.0,0.021,0.036,0.0,0.0,1.0,0.981,0.981,0.981,0.196,1.0,1.0,0.462,0.584,0.57,24.267,0x00000101,192.168.0.40,8080,255.255.255.0,192.168.0.1,0xFFFFFFFF,0xFFFFFFFF,0xFFFFFFFF,0x00000000,
0.327438116074,0x00000000,0x00000000,0x00000000,0x00000000,0x00000000,0x00000000,0x00000000,0x00000000,19.18,5,0x00000000,96.875,97.647,-0.001,0.014,0.031,-0.035,-0.018,0.025,3.184,-1.245,-1.15,-1.4,0x00000003,0.21,0.206,-0.372,-0.014,-0.017,-0.024,-0.039,0.0,0.0,-0.002,-0.011,0.0,0.0,-0.006,-1.119,-0.534,0.0,0.0,-1.119,34.991,34.991,0.0,0.0,0.0,96.875,96.875,0.0,0.0,26.375,26.25,0.0,0.0,0.01,0.0,90.0,76.703,0.109,27.375,0x00000000,0x00000000,0x00000000,0.0,1246,1279,5.109,12.902,0.0,0.0,0.022,0.036,0.0,0.0,1.0,0.981,0.981,0.981,0.196,1.0,1.0,0.462,0.584,0.57,24.267,0x00000101,192.168.0.40,8080,255.255.255.0,192.168.0.1,0xFFFFFFFF,0xFFFFFFFF,0xFFFFFFFF,0x00000000,
0.37754201889,0x00000000,0x00000000,0x00000000,0x00000000,0x00000000,0x00000000,0x00000000,0x00000000,19.23,5,0x00000000,96.875,97.647,-0.001,0.013,0.051,-0.009,-0.042,0.175,4.187,-1.245,0.349,-2.811,0x00000003,0.26,0.255,-0.157,-0.026,-0.023,-0.023,-0.044,0.0,0.0,-0.003,-0.012,0.0,0.0,-0.008,-0.381,-0.203,0.0,0.0,-0.381,34.991,34.991,0.0,0.0,0.0,96.875,96.875,0.0,0.0,26.375,26.25,0.0,0.0,0.01,0.0,90.0,76.703,0.109,27.375,0x00000000,0x00000000,0x00000000,0.0,1246,1279,6.779,13.719,0.0,0.0,0.022,0.036,0.0,0.0,1.0,0.981,0.981,0.981,0.196,1.0,1.0,0.462,0.584,0.57,24.267,0x00000101,192.168.0.40,8080,255.255.255.0,192.168.0.1,0xFFFFFFFF,0xFFFFFFFF,0xFFFFFFFF,0x00000000,
0.42756819725,0x00000000,0x00000000,0x00000000,0x00000000,0x00000000,0x00000000,0x00000000,0x00000000,19.28,5,0x00000000,96.875,97.647,0.0,0.002,0.033,-0.031,-0.006,0.372,3.623,-1.236,-0.666,-0.024,0x00000003,0.31,0.304,0.24,-0.023,-0.032,-0.005,-0.017,0.0,0.0,-0.004,-0.014,0.0,0.0,-0.009,-0.165,0.229,0.0,0.0,0.229,34.991,34.991,0.0,0.0,0.0,96.875,96.875,0.0,0.0,26.375,26.25,0.0,0.0,0.01,0.0,90.0,76.703,0.109,27.375,0x00000000,0x00000000,0x00000000,0.0,1246,1279,5.19,12.906,0.0,0.0,0.022,0.036,0.0,0.0,1.0,0.981,0.981,0.981,0.196,1.0,1.0,0.462,0.584,0.57,24.267,0x00000101,192.168.0.40,8080,255.255.255.0,192.168.0.1,0xFFFFFFFF,0xFFFFFFFF,0xFFFFFFFF,0x00000000,
0.477711200714,0x00000000,0x00000000,0x00000000,0x00000000,0x00000000,0x00000000,0x00000000,0x00000000,19.33,5,0x00000000,96.875,97.647,-0.001,-0.014,0.0,-0.017,-0.006,0.512,1.331,-1.224,0.355,0.347,0x00000003,0.36,0.353,0.212,-0.01,-0.013,-0.001,0.001,0.0,0.0,-0.004,-0.014,0.0,0.0,-0.009,0.343,0.572,0.0,0.0,0.572,34.991,34.991,0.0,0.0,0.0,96.875,96.875,0.0,0.0,26.375,26.25,0.0,0.0,0.01,0.0,90.0,76.703,0.109,27.375,0x00000000,0x00000000,0x00000000,0.0,1246,1279,9.344,13.086,0.0,0.0,0.022,0.036,0.0,0.0,1.0,0.981,0.981,0.981,0.196,1.0,1.0,0.462,0.584,0.57,24.267,0x00000101,192.168.0.40,8080,255.255.255.0,192.168.0.1,0xFFFFFFFF,0xFFFFFFFF,0xFFFFFFFF,0x00000000,
0.52779006958,0x00000000,0x00000000,0x00000000,0x00000000,0x00000000,0x00000000,0x00000000,0x00000000,19.38,5,0x00000000,96.875,97.647,-0.001,-0.023,-0.043,-0.021,-0.013,0.501,-0.833,-1.241,-1.818,-0.998,0x00000003,0.41,0.402,0.108,-0.004,-0.003,0.0,0.003,0.0,0.0,-0.004,-0.014,0.0,0.0,-0.009,0.954,1.373,0.0,0.0,1.373,34.991,34.991,0.0,0.0,0.0,96.875,96.875,0.0,0.0,26.375,26.25,0.0,0.0,0.01,0.0,90.0,76.703,0.109,27.375,0x00000000,0x00000000,0x00000000,0.0,1246,1279,7.12,12.426,0.0,0.0,0.022,0.036,0.0,0.0,1.0,0.981,0.981,0.981,0.196,1.0,1.0,0.462,0.584,0.57,24.267,0x00000101,192.168.0.40,8080,255.255.255.0,192.168.0.1,0xFFFFFFFF,0xFFFFFFFF,0xFFFFFFFF,0x00000000,
0.587876081467,0x00000000,0x00000000,0x00000000,0x00000000,0x00000000,0x00000000,0x00000000,0x00000000,19.44,5,0x00000000,96.875,97.647,-0.001,-0.013,-0.028,-0.008,-0.025,0.392,-1.164,-1.248,-0.352,0.731,0x00000003,0.47,0.461,0.016,-0.0,0.002,-0.0,0.001,0.0,0.0,-0.004,-0.014,0.0,0.0,-0.009,0.47,-0.114,0.0,0.0,0.47,34.991,34.991,0.0,0.0,0.0,96.875,96.875,0.0,0.0,26.375,26.25,0.0,0.0,0.01,0.0,90.0,76.703,0.109,27.375,0x00000000,0x00000000,0x00000000,0.0,1246,1279,8.663,12.435,0.0,0.0,0.022,0.037,0.0,0.0,1.0,0.981,0.981,0.981,0.196,1.0,1.0,0.462,0.584,0.57,24.267,0x00000101,192.168.0.40,8080,255.255.255.0,192.168.0.1,0xFFFFFFFF,0xFFFFFFFF,0xFFFFFFFF,0x00000000,
0.637966156006,0x00000000,0x00000000,0x00000000,0x00000000,0x00000000,0x00000000,0x00000000,0x00000000,19.49,5,0x00000000,96.875,97.647,-0.001,0.005,0.015,-0.039,-0.0,0.37,0.885,-1.211,0.648,-1.709,0x00000003,0.52,0.51,0.006,0.0,0.002,-0.0,0.001,0.0,0.0,-0.004,-0.014,0.0,0.0,-0.009,-0.064,-0.534,0.0,0.0,-0.534,34.991,34.991,0.0,0.0,0.0,96.875,96.875,0.0,0.0,26.375,26.25,0.0,0.0,0.01,0.0,90.0,76.703,0.109,27.375,0x00000000,0x00000000,0x00000000,0.0,1246,1279,8.976,11.813,0.0,0.0,0.022,0.037,0.0,0.0,1.0,0.981,0.981,0.981,0.196,1.0,1.0,0.462,0.584,0.57,24.267,0x00000101,192.168.0.40,8080,255.255.255.0,192.168.0.1,0xFFFFFFFF,0xFFFFFFFF,0xFFFFFFFF,0x00000000,
0.688040018082,0x00000000,0x00000000,0x00000000,0x00000000,0x00000000,0x00000000,0x00000000,0x00000000,19.54,5,0x00000000,96.875,97.647,-0.001,0.016,0.027,-0.017,-0.018,0.485,2.499,-1.21,-1.093,-2.082,0x00000003,0.57,0.559,-0.008,-0.0,0.002,-0.001,0.0,0.0,0.0,-0.004,-0.014,0.0,0.0,-0.009,0.979,0.648,0.0,0.0,0.979,34.991,34.991,0.0,0.0,0.0,96.875,96.875,0.0,0.0,26.375,26.25,0.0,0.0,0.01,0.0,90.0,76.703,0.109,27.375,0x00000000,0x00000000,0x00000000,0.0,1246,1279,7.522,10.6,0.0,0.0,0.022,0.037,0.0,0.0,1.0,0.981,0.981,0.981,0.196,1.0,1.0,0.462,0.584,0.57,24.267,0x00000101,192.168.0.40,8080,255.255.255.0,192.168.0.1,0xFFFFFFFF,0xFFFFFFFF,0xFFFFFFFF,0x00000000,
0.738284111023,0x00000000,0x00000000,0x00000000,0x00000000,0x00000000,0x00000000,0x00000000,0x00000000,19.59,5,0x00000000,96.875,97.647,-0.001,-0.003,-0.033,-0.034,-0.0,0.539,-0.103,-1.22,-1.035,-2.738,0x00000003,0.62,0.608,0.071,0.001,0.003,0.003,0.006,0.0,0.0,-0.004,-0.014,0.0,0.0,-0.009,2.276,1.78,0.0,0.0,2.276,34.991,34.991,0.0,0.0,0.0,96.875,96.875,0.0,0.0,26.375,26.25,0.0,0.0,0.01,0.0,90.0,76.703,0.109,27.375,0x00000000,0x00000000,0x00000000,0.0,1246,1279,5.065,13.619,0.0,0.0,0.022,0.037,0.0,0.0,1.0,0.981,0.981,0.981,0.196,1.0,1.0,0.462,0.584,0.57,24.267,0x00000101,192.168.0.40,8080,255.255.255.0,192.168.0.1,0xFFFFFFFF,0xFFFFFFFF,0xFFFFFFFF,0x00000000,
0.788321018219,0x00000000,0x00000000,0x00000000,0x00000000,0x00000000,0x00000000,0x00000000,0x00000000,19.64,5,0x00000000,96.875,97.647,-0.002,-0.018,-0.056,-0.012,-0.007,0.481,-2.357,-1.22,0.712,-1.659,0x00000003,0.67,0.657,0.398,0.017,0.006,0.033,0.04,0.0,0.0,-0.003,-0.013,0.0,0.0,-0.008,0.941,0.521,0.0,0.0,0.941,34.991,34.991,0.0,0.0,0.0,96.875,96.875,0.0,0.0,26.375,26.25,0.0,0.0,0.01,0.0,90.0,76.703,0.109,27.375,0x00000000,0x00000000,0x00000000,0.0,1246,1279,7.339,11.707,0.0,0.0,0.022,0.037,0.0,0.0,1.0,0.981,0.981,0.981,0.196,1.0,1.0,0.462,0.584,0.57,24.267,0x00000101,192.168.0.40,8080,255.255.255.0,192.168.0.1,0xFFFFFFFF,0xFFFFFFFF,0xFFFFFFFF,0x00000000,
0.838294029236,0x00000000,0x00000000,0x00000000,0x00000000,0x00000000,0x00000000,0x00000000,0x00000000,19.69,5,0x00000000,96.875,97.647,-0.002,-0.01,-0.039,-0.012,-0.007,0.344,-2.492,-1.208,-0.041,-0.963,0x00000003,0.72,0.706,-0.04,0.021,-0.016,0.024,0.014,0.0,0.0,-0.001,-0.012,0.0,0.0,-0.007,0.661,0.839,0.0,0.0,0.839,34.991,34.991,0.0,0.0,0.0,96.875,96.875,0.0,0.0,26.375,26.25,0.0,0.0,0.01,0.0,90.0,76.703,0.109,27.375,0x00000000,0x00000000,0x00000000,0.0,1246,1279,5.395,9.655,0.0,0.0,0.023,0.037,0.0,0.0,1.0,0.981,0.981,0.981,0.196,1.0,1.0,0.462,0.584,0.57,24.267,0x00000101,192.168.0.40,8080,255.255.255.0,192.168.0.1,0xFFFFFFFF,0xFFFFFFFF,0xFFFFFFFF,0x00000000,
0.888351202011,0x00000000,0x00000000,0x00000000,0x00000000,0x00000000,0x00000000,0x00000000,0x00000000,19.74,5,0x00000000,96.875,97.647,-0.001,0.006,-0.022,-0.025,-0.007,0.252,-0.384,-1.208,-0.315,-0.994,0x00000003,0.77,0.755,-0.219,0.013,-0.001,0.001,0.003,0.0,0.0,-0.001,-0.012,0.0,0.0,-0.006,0.559,0.42,0.0,0.0,0.559,34.991,34.991,0.0,0.0,0.0,96.875,96.875,0.0,0.0,26.375,26.25,0.0,0.0,0.01,0.0,90.0,76.703,0.109,27.375,0x00000000,0x00000000,0x00000000,0.0,1246,1279,6.797,11.273,0.0,0.0,0.023,0.038,0.0,0.0,1.0,0.981,0.981,0.981,0.196,1.0,1.0,0.462,0.584,0.57,24.267,0x00000101,192.168.0.40,8080,255.255.255.0,192.168.0.1,0xFFFFFFFF,0xFFFFFFFF,0xFFFFFFFF,0x00000000,
0.938472032547,0x00000000,0x00000000,0x00000000,0x00000000,0x00000000,0x00000000,0x00000000,0x00000000,19.79,5,0x00000000,96.875,97.647,0.001,0.019,0.008,-0.026,-0.018,0.243,1.265,-1.208,-0.834,-0.671,0x00000003,0.82,0.804,-0.107,0.005,0.001,0.0,0.0,0.0,0.0,-0.001,-0.012,0.0,0.0,-0.006,0.559,0.47,0.0,0.0,0.559,34.991,34.991,0.0,0.0,0.0,96.875,96.875,0.0,0.0,26.375,26.25,0.0,0.0,0.01,0.0,90.0,76.703,0.109,27.375,0x00000000,0x00000000,0x00000000,0.0,1246,1279,6.674,12.381,0.0,0.0,0.023,0.038,0.0,0.0,1.0,0.981,0.981,0.981,0.196,1.0,1.0,0.462,0.584,0.57,24.267,0x00000101,192.168.0.40,8080,255.255.255.0,192.168.0.1,0xFFFFFFFF,0xFFFFFFFF,0xFFFFFFFF,0x00000000,
0.988517045975,0x00000000,0x00000000,0x00000000,0x00000000,0x00000000,0x00000000,0x00000000,0x00000000,19.84,5,0x00000000,96.875,97.647,-0.0,0.022,0.022,-0.013,-0.03,0.336,1.715,-1.184,-0.341,-0.676,0x00000003,0.87,0.853,-0.043,0.002,0.001,-0.0,0.0,0.0,0.0,-0.001,-0.012,0.0,0.0,-0.006,1.373,0.954,0.0,0.0,1.373,34.991,34.991,0.0,0.0,0.0,96.875,96.875,0.0,0.0,26.375,26.25,0.0,0.0,0.01,0.0,90.0,76.703,0.109,27.375,0x00000000,0x00000000,0x00000000,0.0,1246,1279,7.607,13.586,0.0,0.0,0.023,0.038,0.0,0.0,1.0,0.981,0.981,0.981,0.196,1.0,1.0,0.462,0.584,0.57,24.267,0x00000101,192.168.0.40,8080,255.255.255.0,192.168.0.1,0xFFFFFFFF,0xFFFFFFFF,0xFFFFFFFF,0x00000000,
1.03858709335,0x00000000,0x00000000,0x00000000,0x00000000,0x00000000,0x00000000,0x00000000,0x00000000,19.89,5,0x00000000,96.875,97.647,-0.001,0.003,-0.02,-0.008,-0.037,0.397,0.136,-1.163,0.464,-2.731,0x00000003,0.92,0.903,0.018,0.001,0.002,0.0,0.004,0.0,0.0,-0.001,-0.012,0.0,0.0,-0.006,1.831,1.424,0.0,0.0,1.831,34.991,34.991,0.0,0.0,0.0,96.875,96.875,0.0,0.0,26.375,26.25,0.0,0.0,0.01,0.0,90.0,76.703,0.109,27.375,0x00000000,0x00000000,0x00000000,0.0,1246,1279,5.522,10.91,0.0,0.0,0.023,0.038,0.0,0.0,1.0,0.981,0.981,0.981,0.196,1.0,1.0,0.462,0.584,0.57,24.267,0x00000101,192.168.0.40,8080,255.255.255.0,192.168.0.1,0xFFFFFFFF,0xFFFFFFFF,0xFFFFFFFF,0x00000000,
1.08868312836,0x00000000,0x00000000,0x00000000,0x00000000,0x00000000,0x00000000,0x00000000,0x00000000,19.94,5,0x00000000,96.875,97.647,-0.001,-0.008,-0.04,-0.017,-0.001,0.358,-0.993,-1.164,-0.814,0.758,0x00000003,0.97,0.952,0.04,0.002,0.004,0.001,0.007,0.0,0.0,-0.001,-0.012,0.0,0.0,-0.006,1.348,0.852,0.0,0.0,1.348,34.991,34.991,0.0,0.0,0.0,96.875,96.875,0.0,0.0,26.375,26.25,0.0,0.0,0.01,0.0,90.0,76.703,0.109,27.375,0x00000000,0x00000000,0x00000000,0.0,1246,1279,7.202,11.962,0.0,0.0,0.023,0.038,0.0,0.0,1.0,0.981,0.981,0.981,0.196,1.0,1.0,0.462,0.584,0.57,24.267,0x00000101,192.168.0.40,8080,255.255.255.0,192.168.0.1,0xFFFFFFFF,0xFFFFFFFF,0xFFFFFFFF,0x00000000,
1.13876008987,0x00000000,0x00000000,0x00000000,0x00000000,0x00000000,0x00000000,0x00000000,0x00000000,19.99,5,0x00000000,96.875,97.647,-0.002,-0.0,-0.025,-0.025,-0.012,0.284,-1.335,-1.16,-0.062,0.763,0x00000003,1.0,1.0,-0.019,0.002,0.004,-0.0,0.002,0.0,0.0,-0.001,-0.012,0.0,0.0,-0.006,0.572,0.127,0.0,0.0,0.572,34.991,34.991,0.0,0.0,0.0,96.875,96.875,0.0,0.0,26.375,26.25,0.0,0.0,0.01,0.0,90.0,76.703,0.109,27.375,0x00000000,0x00000000,0x00000000,0.0,1246,1279,8.281,14.054,0.0,0.0,0.023,0.039,0.0,0.0,1.0,0.981,0.981,0.981,0.196,1.0,1.0,0.462,0.584,0.57,24.267,0x00000101,192.168.0.40,8080,255.255.255.0,192.168.0.1,0xFFFFFFFF,0xFFFFFFFF,0xFFFFFFFF,0x00000000,
1.1888320446,0x00000000,0x00000000,0x00000000,0x00000000,0x00000000,0x00000000,0x00000000,0x00000000,20.04,5,0x00000000,96.875,97.647,-0.001,0.015,0.018,-0.017,-0.024,0.298,1.11,-1.142,0.432,-1.01,0x00000003,1.0,1.0,-0.012,0.001,0.002,-0.0,0.0,0.0,0.0,-0.001,-0.012,0.0,0.0,-0.006,-0.14,-0.598,0.0,0.0,-0.598,34.991,34.991,0.0,0.0,0.0,96.875,96.875,0.0,0.0,26.375,26.25,0.0,0.0,0.01,0.0,90.0,76.703,0.109,27.375,0x00000000,0x00000000,0x00000000,0.0,1246,1279,5.89,11.581,0.0,0.0,0.023,0.039,0.0,0.0,1.0,0.981,0.981,0.981,0.196,1.0,1.0,0.462,0.584,0.57,24.267,0x00000101,192.168.0.40,8080,255.255.255.0,192.168.0.1,0xFFFFFFFF,0xFFFFFFFF,0xFFFFFFFF,0x00000000,
1.23892617226,0x00000000,0x00000000,0x00000000,0x00000000,0x00000000,0x00000000,0x00000000,0x00000000,20.09,5,0x00000000,96.875,97.647,0.001,0.019,0.016,-0.013,-0.036,0.406,1.675,-1.133,-0.555,-1.691,0x00000003,1.0,1.0,-0.002,-0.0,0.002,-0.001,0.0,0.0,0.0,-0.001,-0.012,0.0,0.0,-0.006,1.004,0.941,0.0,0.0,1.004,34.991,34.991,0.0,0.0,0.0,96.875,96.875,0.0,0.0,26.375,26.25,0.0,0.0,0.01,0.0,90.0,76.703,0.109,27.375,0x00000000,0x00000000,0x00000000,0.0,1246,1279,5.796,13.058,0.0,0.0,0.023,0.039,0.0,0.0,1.0,0.981,0.981,0.981,0.196,1.0,1.0,0.462,0.584,0.57,24.267,0x00000101,192.168.0.40,8080,255.255.255.0,192.168.0.1,0xFFFFFFFF,0xFFFFFFFF,0xFFFFFFFF,0x00000000,
1.28899216652,0x00000000,0x00000000,0x00000000,0x00000000,0x00000000,0x00000000,0x00000000,0x00000000,20.14,5,0x00000000,96.875,97.647,-0.001,-0.001,-0.03,-0.017,-0.007,0.446,-0.175,-1.135,-0.54,-0.629,0x00000003,1.0,1.0,0.008,0.0,0.002,-0.0,0.001,0.0,0.0,-0.001,-0.012,0.0,0.0,-0.006,1.933,1.564,0.0,0.0,1.933,34.991,34.991,0.0,0.0,0.0,96.875,96.875,0.0,0.0,26.375,26.25,0.0,0.0,0.01,0.0,90.0,76.703,0.109,27.375,0x00000000,0x00000000,0x00000000,0.0,1246,1279,5.443,11.714,0.0,0.0,0.023,0.039,0.0,0.0,1.0,0.981,0.981,0.981,0.196,1.0,1.0,0.462,0.584,0.57,24.267,0x00000101,192.168.0.40,8080,255.255.255.0,192.168.0.1,0xFFFFFFFF,0xFFFFFFFF,0xFFFFFFFF,0x00000000,
1.33906817436,0x00000000,0x00000000,0x00000000,0x00000000,0x00000000,0x00000000,0x00000000,0x00000000,20.19,5,0x00000000,96.875,97.647,-0.002,-0.011,-0.048,-0.021,-0.001,0.369,-1.706,-1.137,-0.758,-0.957,0x00000003,1.0,1.0,0.016,0.001,0.002,0.001,0.003,0.0,0.0,-0.001,-0.012,0.0,0.0,-0.006,0.801,0.521,0.0,0.0,0.801,34.991,34.991,0.0,0.0,0.0,96.875,96.875,0.0,0.0,26.375,26.25,0.0,0.0,0.01,0.0,90.0,76.703,0.109,27.375,0x00000000,0x00000000,0x00000000,0.0,1246,1279,6.319,13.595,0.0,0.0,0.023,0.039,0.0,0.0,1.0,0.981,0.981,0.981,0.196,1.0,1.0,0.462,0.584,0.57,24.267,0x00000101,192.168.0.40,8080,255.255.255.0,192.168.0.1,0xFFFFFFFF,0xFFFFFFFF,0xFFFFFFFF,0x00000000,
1.38915920258,0x00000000,0x00000000,0x00000000,0x00000000,0x00000000,0x00000000,0x00000000,0x00000000,20.24,5,0x00000000,96.875,97.647,-0.003,-0.001,-0.037,-0.012,-0.019,0.264,-1.322,-1.138,-0.764,-0.954,0x00000003,1.0,1.0,-0.013,0.001,0.001,0.0,0.0,0.0,0.0,-0.001,-0.012,0.0,0.0,-0.006,-0.064,-0.509,0.0,0.0,-0.509,34.991,34.991,0.0,0.0,0.0,96.875,96.875,0.0,0.0,26.375,26.25,0.0,0.0,0.01,0.0,90.0,76.703,0.109,27.375,0x00000000,0x00000000,0x00000000,0.0,1246,1279,6.02,10.356,0.0,0.0,0.024,0.039,0.0,0.0,1.0,0.981,0.981,0.981,0.196,1.0,1.0,0.462,0.584,0.57,24.267,0x00000101,192.168.0.40,8080,255.255.255.0,192.168.0.1,0xFFFFFFFF,0xFFFFFFFF,0xFFFFFFFF,0x00000000,
1.43924498558,0x00000000,0x00000000,0x00000000,0x00000000,0x00000000,0x00000000,0x00000000,0x00000000,20.29,5,0x00000000,96.875,97.647,0.0,0.017,0.014,-0.009,-0.012,0.243,0.594,-1.133,-0.764,-2.707,0x00000003,1.0,1.0,-0.054,-0.001,0.0,-0.003,-0.004,0.0,0.0,-0.001,-0.012,0.0,0.0,-0.006,-0.903,-1.106,0.0,0.0,-1.106,34.991,34.991,0.0,0.0,0.0,96.875,96.875,0.0,0.0,26.375,26.25,0.0,0.0,0.01,0.0,90.0,76.703,0.109,27.375,0x00000000,0x00000000,0x00000000,0.0,1246,1279,7.381,14.148,0.0,0.0,0.024,0.04,0.0,0.0,1.0,0.981,0.981,0.981,0.196,1.0,1.0,0.462,0.584,0.57,24.267,0x00000101,192.168.0.40,8080,255.255.255.0,192.168.0.1,0xFFFFFFFF,0xFFFFFFFF,0xFFFFFFFF,0x00000000,
1.48931503296,0x00000000,0x00000000,0x00000000,0x00000000,0x00000000,0x00000000,0x00000000,0x00000000,20.34,5,0x00000000,96.875,97.647,0.001,0.026,0.042,-0.044,-0.012,0.366,2.775,-1.107,-0.089,0.383,0x00000003,1.0,1.0,-0.089,-0.004,-0.003,-0.006,-0.01,0.0,0.0,-0.001,-0.012,0.0,0.0,-0.006,-0.076,-0.292,0.0,0.0,-0.292,34.991,34.991,0.0,0.0,0.0,96.875,96.875,0.0,0.0,26.375,26.25,0.0,0.0,0.01,0.0,90.0,76.703,0.109,27.375,0x00000000,0x00000000,0x00000000,0.0,1246,1279,7.218,11.922,0.0,0.0,0.024,0.04,0.0,0.0,1.0,0.981,0.981,0.981,0.196,1.0,1.0,0.462,0.584,0.57,24.267,0x00000101,192.168.0.40,8080,255.255.255.0,192.168.0.1,0xFFFFFFFF,0xFFFFFFFF,0xFFFFFFFF,0x00000000,
1.53941011429,0x00000000,0x00000000,0x00000000,0x00000000,0x00000000,0x00000000,0x00000000,0x00000000,20.39,5,0x00000000,96.875,97.647,0.002,0.013,0.006,-0.021,-0.018,0.506,1.98,-1.121,-0.313,-0.296,0x00000003,1.0,1.0,0.065,-0.004,-0.004,-0.001,-0.0,0.0,0.0,-0.001,-0.012,0.0,0.0,-0.007,2.251,1.717,0.0,0.0,2.251,34.991,34.991,0.0,0.0,0.0,96.875,96.875,0.0,0.0,26.375,26.25,0.0,0.0,0.01,0.0,90.0,76.711,0.109,27.375,0x00000000,0x00000000,0x00000000,0.0,1246,1279,5.052,11.188,0.0,0.0,0.024,0.04,0.0,0.0,1.0,0.981,0.981,0.981,0.196,1.0,1.0,0.462,0.584,0.57,24.267,0x00000101,192.168.0.40,8080,255.255.255.0,192.168.0.1,0xFFFFFFFF,0xFFFFFFFF,0xFFFFFFFF,0x00000000,
1.58952713013,0x00000000,0x00000000,0x00000000,0x00000000,0x00000000,0x00000000,0x00000000,0x00000000,20.44,5,0x00000000,96.875,97.647,-0.003,-0.015,-0.058,-0.034,-0.007,0.48,-1.923,-1.095,0.232,0.437,0x00000003,1.0,1.0,0.164,0.001,0.003,0.004,0.015,0.0,0.0,-0.001,-0.012,0.0,0.0,-0.006,1.678,0.941,0.0,0.0,1.678,34.991,34.991,0.0,0.0,0.0,96.875,96.875,0.0,0.0,26.375,26.25,0.0,0.0,0.01,0.0,90.0,76.711,0.109,27.375,0x00000000,0x00000000,0x00000000,0.0,1246,1279,4.778,13.234,0.0,0.0,0.024,0.04,0.0,0.0,1.0,0.981,0.981,0.981,0.196,1.0,1.0,0.462,0.584,0.57,24.267,0x00000101,192.168.0.40,8080,255.255.255.0,192.168.0.1,0xFFFFFFFF,0xFFFFFFFF,0xFFFFFFFF,0x00000000,
1.64956307411,0x00000000,0x00000000,0x00000000,0x00000000,0x00000000,0x00000000,0x00000000,0x00000000,20.5,5,0x00000000,96.875,97.647,-0.004,-0.013,-0.053,-0.004,0.023,0.274,-3.519,-1.089,-0.744,1.149,0x00000003,1.0,1.0,-0.042,0.004,0.001,0.001,0.002,0.0,0.0,-0.001,-0.012,0.0,0.0,-0.006,-0.203,-1.31,0.0,0.0,-1.31,34.991,34.991,0.0,0.0,0.0,96.875,96.875,0.0,0.0,26.375,26.25,0.0,0.0,0.01,0.0,90.0,76.711,0.109,27.375,0x00000000,0x00000000,0x00000000,0.0,1246,1279,8.693,13.243,0.0,0.0,0.024,0.04,0.0,0.0,1.0,0.981,0.981,0.981,0.196,1.0,1.0,0.462,0.584,0.57,24.267,0x00000101,192.168.0.40,8080,255.255.255.0,192.168.0.1,0xFFFFFFFF,0xFFFFFFFF,0xFFFFFFFF,0x00000000,
1.69966411591,0x00000000,0x00000000,0x00000000,0x00000000,0x00000000,0x00000000,0x00000000,0x00000000,20.55,5,0x00000000,96.875,97.647,-0.001,0.014,0.003,-0.013,-0.018,0.207,0.607,-1.064,-0.026,-0.979,0x00000003,1.0,1.0,-0.256,-0.002,-0.004,-0.009,-0.02,0.0,0.0,-0.001,-0.012,0.0,0.0,-0.006,-1.678,-1.793,0.0,0.0,-1.793,34.991,34.991,0.0,0.0,0.0,96.875,96.875,0.0,0.0,26.375,26.25,0.0,0.0,0.01,0.0,90.0,76.711,0.109,27.375,0x00000000,0x00000000,0x00000000,0.0,1246,1279,5.273,13.475,0.0,0.0,0.024,0.04,0.0,0.0,1.0,0.981,0.981,0.981,0.196,1.0,1.0,0.462,0.584,0.57,24.267,0x00000101,192.168.0.40,8080,255.255.255.0,192.168.0.1,0xFFFFFFFF,0xFFFFFFFF,0xFFFFFFFF,0x00000000,
1.74972915649,0x00000000,0x00000000,0x00000000,0x00000000,0x00000000,0x00000000,0x00000000,0x00000000,20.6,5,0x00000000,96.875,97.647,0.0,0.034,0.069,-0.027,-0.024,0.276,2.913,-1.043,-0.319,0.045,0x00000003,1.0,1.0,-0.564,-0.027,-0.004,-0.053,-0.056,0.0,0.0,-0.003,-0.014,0.0,0.0,-0.008,-0.572,-0.42,0.0,0.0,-0.572,34.991,34.991,0.0,0.0,0.0,96.875,96.875,0.0,0.0,26.375,26.25,0.0,0.0,0.01,0.0,90.0,76.711,0.109,27.375,0x00000000,0x00000000,0x00000000,0.0,1246,1279,9.347,11.895,0.0,0.0,0.024,0.041,0.0,0.0,1.0,0.981,0.981,0.981,0.196,1.0,1.0,0.462,0.584,0.57,24.267,0x00000101,192.168.0.40,8080,255.255.255.0,192.168.0.1,0xFFFFFFFF,0xFFFFFFFF,0xFFFFFFFF,0x00000000,
1.79981207848,0x00000000,0x00000000,0x00000000,0x00000000,0x00000000,0x00000000,0x00000000,0x00000000,20.65,5,0x00000000,96.875,97.647,0.001,0.03,0.059,-0.018,-0.006,0.506,5.228,-1.052,0.152,-0.328,0x00000003,1.0,1.0,-0.157,-0.041,-0.001,-0.049,-0.049,0.0,0.0,-0.005,-0.016,0.0,0.0,-0.01,-0.064,-0.636,0.0,0.0,-0.636,34.991,34.991,0.0,0.0,0.0,96.875,96.875,0.0,0.0,26.375,26.25,0.0,0.0,0.01,0.0,90.0,76.711,0.109,27.375,0x00000000,0x00000000,0x00000000,0.0,1246,1279,5.949,12.199,0.0,0.0,0.024,0.041,0.0,0.0,1.0,0.981,0.981,0.981,0.196,1.0,1.0,0.462,0.584,0.57,24.267,0x00000101,192.168.0.40,8080,255.255.255.0,192.168.0.1,0xFFFFFFFF,0xFFFFFFFF,0xFFFFFFFF,0x00000000,
1.8498980999,0x00000000,0x00000000,0x00000000,0x00000000,0x00000000,0x00000000,0x00000000,0x00000000,20.7,5,0x00000000,96.875,97.647,-0.003,0.013,0.052,-0.039,-0.006,0.733,3.326,-1.045,-0.28,-1.694,0x00000003,1.0,1.0,0.14,-0.04,0.002,-0.036,-0.031,0.0,0.0,-0.007,-0.018,0.0,0.0,-0.012,0.572,-0.305,0.0,0.0,0.572,34.991,34.991,0.0,0.0,0.0,96.875,96.875,0.0,0.0,26.375,26.25,0.0,0.0,0.01,0.0,90.0,76.711,0.109,27.375,0x00000000,0x00000000,0x00000000,0.0,1246,1279,8.859,10.194,0.0,0.0,0.024,0.041,0.0,0.0,1.0,0.981,0.981,0.981,0.196,1.0,1.0,0.462,0.584,0.57,24.267,0x00000101,192.168.0.40,8080,255.255.255.0,192.168.0.1,0xFFFFFFFF,0xFFFFFFFF,0xFFFFFFFF,0x00000000,
1.89996814728,0x00000000,0x00000000,0x00000000,0x00000000,0x00000000,0x00000000,0x00000000,0x00000000,20.75,5,0x00000000,96.875,97.647,-0.003,-0.004,0.023,-0.026,-0.03,0.935,2.62,-1.045,-0.012,-1.69,0x00000003,1.0,1.0,0.389,-0.023,-0.003,-0.003,-0.005,0.0,0.0,-0.007,-0.018,0.0,0.0,-0.013,0.737,-0.089,0.0,0.0,0.737,34.991,34.991,0.0,0.0,0.0,96.875,96.875,0.0,0.0,26.375,26.25,0.0,0.0,0.01,0.0,90.0,76.711,0.109,27.375,0x00000000,0x00000000,0x00000000,0.0,1246,1279,8.69,11.578,0.0,0.0,0.025,0.041,0.0,0.0,1.0,0.981,0.981,0.981,0.196,1.0,1.0,0.462,0.584,0.57,24.267,0x00000101,192.168.0.40,8080,255.255.255.0,192.168.0.1,0xFFFFFFFF,0xFFFFFFFF,0xFFFFFFFF,0x00000000,
1.95005607605,0x00000000,0x00000000,0x00000000,0x00000000,0x00000000,0x00000000,0x00000000,0x00000000,20.8,5,0x00000000,96.875,97.647,-0.001,-0.017,-0.014,-0.017,-0.04,0.999,0.218,-1.027,-0.217,-1.825,0x00000003,1.0,1.0,0.204,-0.009,-0.001,-0.0,0.002,0.0,0.0,-0.007,-0.018,0.0,0.0,-0.013,1.996,1.144,0.0,0.0,1.996,34.991,34.991,0.0,0.0,0.0,96.875,96.875,0.0,0.0,26.375,26.25,0.0,0.0,0.01,0.0,90.0,76.711,0.109,27.375,0x00000000,0x00000000,0x00000000,0.0,1246,1279,6.121,9.969,0.0,0.0,0.025,0.041,0.0,0.0,1.0,0.981,0.981,0.981,0.196,1.0,1.0,0.462,0.584,0.57,24.267,0x00000101,192.168.0.40,8080,255.255.255.0,192.168.0.1,0xFFFFFFFF,0xFFFFFFFF,0xFFFFFFFF,0x00000000,
2.00012397766,0x00000000,0x00000000,0x00000000,0x00000000,0x00000000,0x00000000,0x00000000,0x00000000,20.85,5,0x00000000,96.875,97.647,0.001,-0.016,-0.045,-0.01,-0.01,0.934,-1.543,-1.024,-0.47,-0.59,0x00000003,1.0,1.0,0.121,-0.002,0.003,0.004,0.004,0.0,0.0,-0.007,-0.018,0.0,0.0,-0.013,1.933,0.61,0.0,0.0,1.933,34.991,34.991,0.0,0.0,0.0,96.875,96.875,0.0,0.0,26.375,26.25,0.0,0.0,0.01,0.0,90.0,76.711,0.109,27.375,0x00000000,0x00000000,0x00000000,0.0,1246,1279,7.565,10.54,0.0,0.0,0.025,0.041,0.0,0.0,1.0,0.981,0.981,0.981,0.196,1.0,1.0,0.462,0.584,0.57,24.267,0x00000101,192.168.0.40,8080,255.255.255.0,192.168.0.1,0xFFFFFFFF,0xFFFFFFFF,0xFFFFFFFF,0x00000000,
2.0502140522,0x00000000,0x00000000,0x00000000,0x00000000,0x00000000,0x00000000,0x00000000,0x00000000,20.9,5,0x00000000,96.875,97.647,0.001,-0.005,-0.025,-0.025,-0.006,0.845,-0.784,-1.006,-0.367,-0.079,0x00000003,1.0,1.0,0.04,0.001,0.001,0.003,0.003,0.0,0.0,-0.007,-0.018,0.0,0.0,-0.013,0.763,-0.458,0.0,0.0,0.763,34.991,34.991,0.0,0.0,0.0,96.875,96.875,0.0,0.0,26.375,26.25,0.0,0.0,0.01,0.0,90.0,76.711,0.109,27.438,0x00000000,0x00000000,0x00000000,0.0,1246,1279,6.41,11.42,0.0,0.0,0.025,0.042,0.0,0.0,1.0,0.981,0.981,0.981,0.196,1.0,1.0,0.462,0.584,0.57,24.267,0x00000101,192.168.0.40,8080,255.255.255.0,192.168.0.1,0xFFFFFFFF,0xFFFFFFFF,0xFFFFFFFF,0x00000000,
2.10028910637,0x00000000,0x00000000,0x00000000,0x00000000,0x00000000,0x00000000,0x00000000,0x00000000,20.95,5,0x00000000,96.875,97.647,-0.002,0.015,-0.005,-0.017,-0.031,0.827,0.36,-0.991,-0.001,-0.434,0x00000003,1.0,1.0,-0.02,0.001,0.001,-0.001,0.0,0.0,0.0,-0.007,-0.018,0.0,0.0,-0.013,0.877,-0.114,0.0,0.0,0.877,34.991,34.991,0.0,0.0,0.0,96.875,96.875,0.0,0.0,26.375,26.25,0.0,0.0,0.01,0.0,90.0,76.711,0.109,27.438,0x00000000,0x00000000,0x00000000,0.0,1246,1279,8.218,13.402,0.0,0.0,0.025,0.042,0.0,0.0,1.0,0.981,0.981,0.981,0.196,1.0,1.0,0.462,0.584,0.57,24.267,0x00000101,192.168.0.40,8080,255.255.255.0,192.168.0.1,0xFFFFFFFF,0xFFFFFFFF,0xFFFFFFFF,0x00000000,
2.15035915375,0x00000000,0x00000000,0x00000000,0x00000000,0x00000000,0x00000000,0x00000000,0x00000000,21.0,5,0x00000000,96.875,97.647,-0.002,0.02,0.018,-0.017,-0.027,0.89,1.468,-0.984,-0.494,-0.967,0x00000003,1.0,1.0,0.006,0.0,0.001,0.0,0.001,0.0,0.0,-0.007,-0.018,0.0,0.0,-0.013,2.06,0.648,0.0,0.0,2.06,34.991,34.991,0.0,0.0,0.0,96.875,96.875,0.0,0.0,26.375,26.25,0.0,0.0,0.01,0.0,90.0,76.711,0.109,27.438,0x00000000,0x00000000,0x00000000,0.0,1246,1279,9.294,9.905,0.0,0.0,0.025,0.042,0.0,0.0,1.0,0.981,0.981,0.981,0.196,1.0,1.0,0.462,0.584,0.57,24.267,0x00000101,192.168.0.40,8080,255.255.255.0,192.168.0.1,0xFFFFFFFF,0xFFFFFFFF,0xFFFFFFFF,0x00000000,
2.20045113564,0x00000000,0x00000000,0x00000000,0x00000000,0x00000000,0x00000000,0x00000000,0x00000000,21.05,5,0x00000000,96.875,97.647,-0.001,0.008,-0.013,-0.017,-0.027,0.961,0.854,-0.975,-0.365,-0.778,0x00000003,1.0,1.0,0.05,0.001,0.001,0.004,0.004,0.0,0.0,-0.007,-0.018,0.0,0.0,-0.013,2.759,2.06,0.0,0.0,2.759,34.991,34.991,0.0,0.0,0.0,96.875,96.875,0.0,0.0,26.375,26.25,0.0,0.0,0.01,0.0,90.0,76.711,0.109,27.438,0x00000000,0x00000000,0x00000000,0.0,1246,1279,5.299,11.973,0.0,0.0,0.025,0.042,0.0,0.0,1.0,0.981,0.981,0.981,0.196,1.0,1.0,0.462,0.584,0.57,24.267,0x00000101,192.168.0.40,8080,255.255.255.0,192.168.0.1,0xFFFFFFFF,0xFFFFFFFF,0xFFFFFFFF,0x00000000,
2.25052118301,0x00000000,0x00000000,0x00000000,0x00000000,0x00000000,0x00000000,0x00000000,0x00000000,21.1,5,0x00000000,96.875,97.647,-0.001,-0.011,-0.061,-0.012,-0.007,0.942,-2.08,-0.951,0.049,-0.577,0x00000003,1.0,1.0,0.549,0.022,0.006,0.046,0.05,0.0,0.0,-0.006,-0.017,0.0,0.0,-0.011,1.907,0.915,0.0,0.0,1.907,34.991,34.991,0.0,0.0,0.0,96.875,96.875,0.0,0.0,26.375,26.25,0.0,0.0,0.01,0.0,90.0,76.711,0.109,27.438,0x00000000,0x00000000,0x00000000,0.0,1246,1279,5.421,10.185,0.0,0.0,0.025,0.042,0.0,0.0,1.0,0.981,0.981,0.981,0.196,1.0,1.0,0.462,0.584,0.57,24.267,0x00000101,192.168.0.40,8080,255.255.255.0,192.168.0.1,0xFFFFFFFF,0xFFFFFFFF,0xFFFFFFFF,0x00000000,
2.30061411858,0x00000000,0x00000000,0x00000000,0x00000000,0x00000000,0x00000000,0x00000000,0x00000000,21.15,5,0x00000000,96.875,97.647,0.0,-0.008,-0.068,-0.018,0.005,0.812,-2.801,-0.932,0.024,0.987,0x00000003,1.0,1.0,0.263,0.039,0.021,0.04,0.064,0.0,0.0,-0.004,-0.014,0.0,0.0,-0.009,2.454,1.36,0.0,0.0,2.454,34.991,34.991,0.0,0.0,0.0,96.875,96.875,0.0,0.0,26.375,26.25,0.0,0.0,0.01,0.0,90.0,76.711,0.109,27.438,0x00000000,0x00000000,0x00000000,0.0,1246,1279,8.203,10.725,0.0,0.0,0.025,0.042,0.0,0.0,1.0,0.981,0.981,0.981,0.196,1.0,1.0,0.462,0.584,0.57,24.267,0x00000101,192.168.0.40,8080,255.255.255.0,192.168.0.1,0xFFFFFFFF,0xFFFFFFFF,0xFFFFFFFF,0x00000000,
2.3506770134,0x00000000,0x00000000,0x00000000,0x00000000,0x00000000,0x00000000,0x00000000,0x00000000,21.2,5,0x00000000,96.875,97.647,-0.001,-0.005,-0.084,-0.014,0.002,0.645,-3.705,-0.931,-0.688,0.309,0x00000003,1.0,1.0,0.183,0.051,0.02,0.058,0.062,0.0,0.0,-0.002,-0.011,0.0,0.0,-0.006,2.276,0.928,0.0,0.0,2.276,34.991,34.991,0.0,0.0,0.0,96.875,96.875,0.0,0.0,26.375,26.25,0.0,0.0,0.01,0.0,90.0,76.711,0.109,27.438,0x00000000,0x00000000,0x00000000,0.0,1246,1279,7.317,10.573,0.0,0.0,0.025,0.043,0.0,0.0,1.0,0.981,0.981,0.981,0.196,1.0,1.0,0.462,0.584,0.57,24.267,0x00000101,192.168.0.40,8080,255.255.255.0,192.168.0.1,0xFFFFFFFF,0xFFFFFFFF,0xFFFFFFFF,0x00000000,
2.40078210831,0x00000000,0x00000000,0x00000000,0x00000000,0x00000000,0x00000000,0x00000000,0x00000000,21.25,5,0x00000000,96.875,97.647,-0.0,0.002,-0.088,-0.02,-0.013,0.433,-4.167,-0.907,0.058,0.827,0x00000003,1.0,1.0,0.068,0.057,0.01,0.062,0.059,0.0,0.0,0.001,-0.009,0.0,0.0,-0.004,1.64,0.826,0.0,0.0,1.64,34.991,34.991,0.0,0.0,0.0,96.875,96.875,0.0,0.0,26.375,26.25,0.0,0.0,0.01,0.0,90.0,76.711,0.109,27.438,0x00000000,0x00000000,0x00000000,0.0,1246,1279,7.912,10.119,0.0,0.0,0.025,0.043,0.0,0.0,1.0,0.981,0.981,0.981,0.196,1.0,1.0,0.462,0.584,0.57,24.267,0x00000101,192.168.0.40,8080,255.255.255.0,192.168.0.1,0xFFFFFFFF,0xFFFFFFFF,0xFFFFFFFF,0x00000000,
2.45084905624,0x00000000,0x00000000,0x00000000,0x00000000,0x00000000,0x00000000,0x00000000,0x00000000,21.3,5,0x00000000,96.875,97.647,-0.002,0.008,-0.08,-0.003,-0.037,0.229,-3.857,-0.888,0.081,-0.902,0x00000003,1.0,1.0,-0.217,0.054,0.01,0.034,0.053,0.0,0.0,0.003,-0.006,0.0,0.0,-0.001,1.068,0.75,0.0,0.0,1.068,34.991,34.991,0.0,0.0,0.0,96.875,96.875,0.0,0.0,26.375,26.25,0.0,0.0,0.01,0.0,90.0,76.711,0.109,27.438,0x00000000,0x00000000,0x00000000,0.0,1246,1279,6.052,11.931,0.0,0.0,0.026,0.043,0.0,0.0,1.0,0.981,0.981,0.981,0.196,1.0,1.0,0.462,0.584,0.57,24.267,0x00000101,192.168.0.40,8080,255.255.255.0,192.168.0.1,0xFFFFFFFF,0xFFFFFFFF,0xFFFFFFFF,0x00000000,
2.50092601776,0x00000000,0x00000000,0x00000000,0x00000000,0x00000000,0x00000000,0x00000000,0x00000000,21.35,5,0x00000000,96.875,97.647,-0.001,0.021,-0.054,-0.012,-0.013,0.03,-1.891,-0.866,1.022,1.159,0x00000003,1.0,1.0,-0.509,0.033,0.013,0.006,0.01,0.0,0.0,0.004,-0.005,0.0,0.0,-0.0,0.458,0.407,0.0,0.0,0.458,34.991,34.991,0.0,0.0,0.0,96.875,96.875,0.0,0.0,26.375,26.25,0.0,0.0,0.01,0.0,90.0,76.711,0.109,27.438,0x00000000,0x00000000,0x00000000,0.0,1246,1279,7.857,11.895,0.0,0.0,0.026,0.043,0.0,0.0,1.0,0.981,0.981,0.981,0.196,1.0,1.0,0.462,0.584,0.57,24.267,0x00000101,192.168.0.40,8080,255.255.255.0,192.168.0.1,0xFFFFFFFF,0xFFFFFFFF,0xFFFFFFFF,0x00000000,
2.55100607872,0x00000000,0x00000000,0x00000000,0x00000000,0x00000000,0x00000000,0x00000000,0x00000000,21.4,5,0x00000000,96.875,97.647,-0.001,0.035,0.027,-0.022,-0.036,-0.029,0.135,-0.844,-0.223,-0.59,0x00000003,1.0,1.0,-0.307,0.014,0.007,-0.003,0.001,0.0,0.0,0.004,-0.005,0.0,0.0,-0.0,-0.814,-0.852,0.0,0.0,-0.852,34.991,34.991,0.0,0.0,0.0,96.875,96.875,0.0,0.0,26.375,26.25,0.0,0.0,0.01,0.0,90.0,76.703,0.102,27.375,0x00000000,0x00000000,0x00000000,0.0,1246,1279,5.532,12.413,0.0,0.0,0.026,0.043,0.0,0.0,1.0,0.981,0.981,0.981,0.196,1.0,1.0,0.462,0.584,0.57,24.267,0x00000101,192.168.0.40,8080,255.255.255.0,192.168.0.1,0xFFFFFFFF,0xFFFFFFFF,0xFFFFFFFF,0x00000000,
2.60107517242,0x00000000,0x00000000,0x00000000,0x00000000,0x00000000,0x00000000,0x00000000,0x00000000,21.45,5,0x00000000,96.875,97.647,-0.0,0.038,0.04,-0.013,-0.036,0.111,3.182,-0.833,0.476,-0.258,0x00000003,1.0,1.0,-0.101,0.002,0.009,-0.005,-0.002,0.0,0.0,0.003,-0.005,0.0,0.0,-0.0,-0.763,-0.496,0.0,0.0,-0.763,34.991,34.991,0.0,0.0,0.0,96.875,96.875,0.0,0.0,26.375,26.25,0.0,0.0,0.01,0.0,90.0,76.703,0.102,27.375,0x00000000,0x00000000,0x00000000,0.0,1246,1279,8.841,10.657,0.0,0.0,0.026,0.043,0.0,0.0,1.0,0.981,0.981,0.981,0.196,1.0,1.0,0.462,0.584,0.57,24.267,0x00000101,192.168.0.40,8080,255.255.255.0,192.168.0.1,0xFFFFFFFF,0xFFFFFFFF,0xFFFFFFFF,0x00000000,
2.65115404129,0x00000000,0x00000000,0x00000000,0x00000000,0x00000000,0x00000000,0x00000000,0x00000000,21.5,5,0x00000000,96.875,97.647,0.0,0.021,0.013,-0.03,-0.018,0.283,2.025,-0.841,-0.76,0.797,0x00000003,1.0,1.0,0.006,-0.004,0.004,-0.004,-0.004,0.0,0.0,0.003,-0.005,0.0,0.0,-0.001,1.081,1.144,0.0,0.0,1.144,34.991,34.991,0.0,0.0,0.0,96.875,96.875,0.0,0.0,26.375,26.25,0.0,0.0,0.01,0.0,90.0,76.703,0.102,27.375,0x00000000,0x00000000,0x00000000,0.0,1246,1279,7.278,11.308,0.0,0.0,0.026,0.044,0.0,0.0,1.0,0.981,0.981,0.981,0.196,1.0,1.0,0.462,0.584,0.57,24.267,0x00000101,192.168.0.40,8080,255.255.255.0,192.168.0.1,0xFFFFFFFF,0xFFFFFFFF,0xFFFFFFFF,0x00000000,
2.70126819611,0x00000000,0x00000000,0x00000000,0x00000000,0x00000000,0x00000000,0x00000000,0x00000000,21.55,5,0x00000000,96.875,97.647,-0.002,-0.01,-0.055,-0.016,-0.013,0.278,-1.642,-0.812,-0.199,0.128,0x00000003,1.0,1.0,0.04,-0.002,0.001,-0.0,-0.0,0.0,0.0,0.003,-0.005,0.0,0.0,-0.001,0.331,0.432,0.0,0.0,0.432,34.991,34.991,0.0,0.0,0.0,96.875,96.875,0.0,0.0,26.375,26.25,0.0,0.0,0.01,0.0,90.0,76.703,0.102,27.375,0x00000000,0x00000000,0x00000000,0.0,1246,1279,4.874,13.023,0.0,0.0,0.026,0.044,0.0,0.0,1.0,0.981,0.981,0.981,0.196,1.0,1.0,0.462,0.584,0.57,24.267,0x00000101,192.168.0.40,8080,255.255.255.0,192.168.0.1,0xFFFFFFFF,0xFFFFFFFF,0xFFFFFFFF,0x00000000,
2.75132513046,0x00000000,0x00000000,0x00000000,0x00000000,0x00000000,0x00000000,0x00000000,0x00000000,21.6,5,0x00000000,96.875,97.647,-0.002,-0.006,-0.033,-0.012,-0.031,0.169,-1.488,-0.802,0.555,-0.905,0x00000003,1.0,1.0,0.009,-0.001,0.001,-0.001,-0.0,0.0,0.0,0.003,-0.005,0.0,0.0,-0.001,-2.251,-1.513,0.0,0.0,-2.251,34.991,34.991,0.0,0.0,0.0,96.875,96.875,0.0,0.0,26.375,26.25,0.0,0.0,0.01,0.0,90.0,76.703,0.102,27.375,0x00000000,0x00000000,0x00000000,0.0,1246,1279,8.144,11.53,0.0,0.0,0.026,0.044,0.0,0.0,1.0,0.981,0.981,0.981,0.196,1.0,1.0,0.462,0.584,0.57,24.267,0x00000101,192.168.0.40,8080,255.255.255.0,192.168.0.1,0xFFFFFFFF,0xFFFFFFFF,0xFFFFFFFF,0x00000000,
2.80142807961,0x00000000,0x00000000,0x00000000,0x00000000,0x00000000,0x00000000,0x00000000,0x00000000,21.65,5,0x00000000,96.875,97.647,-0.002,0.018,0.056,-0.031,-0.006,0.18,2.402,-0.78,-0.011,0.792,0x00000003,1.0,1.0,-0.523,-0.012,0.004,-0.038,-0.037,0.0,0.0,0.003,-0.006,0.0,0.0,-0.001,-2.149,-2.047,0.0,0.0,-2.149,34.991,34.991,0.0,0.0,0.0,96.875,96.875,0.0,0.0,26.375,26.25,0.0,0.0,0.01,0.0,90.0,76.703,0.102,27.375,0x00000000,0x00000000,0x00000000,0.0,1246,1279,7.315,14.036,0.0,0.0,0.026,0.044,0.0,0.0,1.0,0.981,0.981,0.981,0.196,1.0,1.0,0.462,0.584,0.57,24.267,0x00000101,192.168.0.40,8080,255.255.255.0,192.168.0.1,0xFFFFFFFF,0xFFFFFFFF,0xFFFFFFFF,0x00000000,
2.85148406029,0x00000000,0x00000000,0x00000000,0x00000000,0x00000000,0x00000000,0x00000000,0x00000000,21.7,5,0x00000000,96.875,97.647,0.0,0.038,0.082,-0.027,-0.006,0.354,5.558,-0.777,-0.284,-0.608,0x00000003,1.0,1.0,-0.412,-0.04,0.002,-0.062,-0.057,0.0,0.0,0.0,-0.008,0.0,0.0,-0.004,-0.102,-0.585,0.0,0.0,-0.585,34.991,34.991,0.0,0.0,0.0,96.875,96.875,0.0,0.0,26.375,26.25,0.0,0.0,0.01,0.0,90.0,76.703,0.102,27.375,0x00000000,0x00000000,0x00000000,0.0,1246,1279,7.617,13.782,0.0,0.0,0.026,0.044,0.0,0.0,1.0,0.981,0.981,0.981,0.196,1.0,1.0,0.462,0.584,0.57,24.267,0x00000101,192.168.0.40,8080,255.255.255.0,192.168.0.1,0xFFFFFFFF,0xFFFFFFFF,0xFFFFFFFF,0x00000000,
2.90157604218,0x00000000,0x00000000,0x00000000,0x00000000,0x00000000,0x00000000,0x00000000,0x00000000,21.75,5,0x00000000,96.875,97.647,0.0,0.021,0.037,-0.022,-0.018,0.622,4.686,-0.795,-1.245,-1.295,0x00000003,1.0,1.0,-0.106,-0.053,-0.005,-0.051,-0.064,0.0,0.0,-0.003,-0.011,0.0,0.0,-0.007,0.381,0.318,0.0,0.0,0.381,34.991,34.991,0.0,0.0,0.0,96.875,96.875,0.0,0.0,26.375,26.25,0.0,0.0,0.01,0.0,90.0,76.703,0.102,27.375,0x00000000,0x00000000,0x00000000,0.0,1246,1279,6.593,13.339,0.0,0.0,0.027,0.044,0.0,0.0,1.0,0.981,0.981,0.981,0.196,1.0,1.0,0.462,0.584,0.57,24.267,0x00000101,192.168.0.40,8080,255.255.255.0,192.168.0.1,0xFFFFFFFF,0xFFFFFFFF,0xFFFFFFFF,0x00000000,
2.95163702965,0x00000000,0x00000000,0x00000000,0x00000000,0x00000000,0x00000000,0x00000000,0x00000000,21.8,5,0x00000000,96.875,97.647,-0.001,-0.0,0.025,-0.017,-0.012,0.784,2.732,-0.783,0.292,-1.974,0x00000003,1.0,1.0,0.128,-0.05,-0.018,-0.035,-0.053,0.0,0.0,-0.005,-0.014,0.0,0.0,-0.009,-0.47,-0.636,0.0,0.0,-0.636,34.991,34.991,0.0,0.0,0.0,96.875,96.875,0.0,0.0,26.375,26.25,0.0,0.0,0.01,0.0,90.0,76.703,0.102,27.375,0x00000000,0x00000000,0x00000000,0.0,1246,1279,6.368,12.591,0.0,0.0,0.027,0.045,0.0,0.0,1.0,0.981,0.981,0.981,0.196,1.0,1.0,0.462,0.584,0.57,24.267,0x00000101,192.168.0.40,8080,255.255.255.0,192.168.0.1,0xFFFFFFFF,0xFFFFFFFF,0xFFFFFFFF,0x00000000,
3.00172114372,0x00000000,0x00000000,0x00000000,0x00000000,0x00000000,0x00000000,0x00000000,0x00000000,21.85,5,0x00000000,96.875,97.647,-0.002,0.0,0.031,-0.022,0.0,0.9,2.48,-0.787,-0.74,0.105,0x00000003,1.0,1.0,0.078,-0.045,-0.019,-0.039,-0.043,0.0,0.0,-0.006,-0.016,0.0,0.0,-0.011,-1.017,-0.941,0.0,0.0,-1.017,34.991,34.991,0.0,0.0,0.0,96.875,96.875,0.0,0.0,26.375,26.25,0.0,0.0,0.01,0.0,90.0,76.703,0.102,27.375,0x00000000,0x00000000,0x00000000,0.0,1246,1279,8.028,10.831,0.0,0.0,0.027,0.045,0.0,0.0,1.0,0.981,0.981,0.981,0.196,1.0,1.0,0.462,0.584,0.57,24.267,0x00000101,192.168.0.40,8080,255.255.255.0,192.168.0.1,0xFFFFFFFF,0xFFFFFFFF,0xFFFFFFFF,0x00000000,
3.05181097984,0x00000000,0x00000000,0x00000000,0x00000000,0x00000000,0x00000000,0x00000000,0x00000000,21.9,5,0x00000000,96.875,97.647,-0.003,0.013,0.055,-0.026,-0.042,1.069,4.354,-0.776,-0.481,-1.292,0x00000003,1.0,1.0,-0.093,-0.045,-0.005,-0.051,-0.048,0.0,0.0,-0.008,-0.018,0.0,0.0,-0.013,-0.292,-0.903,0.0,0.0,-0.903,34.991,34.991,0.0,0.0,0.0,96.875,96.875,0.0,0.0,26.375,26.25,0.0,0.0,0.01,0.0,90.0,76.703,0.102,27.375,0x00000000,0x00000000,0x00000000,0.0,1246,1279,6.273,10.988,0.0,0.0,0.027,0.045,0.0,0.0,1.0,0.981,0.981,0.981,0.196,1.0,1.0,0.462,0.584,0.57,24.267,0x00000101,192.168.0.40,8080,255.255.255.0,192.168.0.1,0xFFFFFFFF,0xFFFFFFFF,0xFFFFFFFF,0x00000000,
3.10189914703,0x00000000,0x00000000,0x00000000,0x00000000,0x00000000,0x00000000,0x00000000,0x00000000,21.95,5,0x00000000,96.875,97.647,-0.0,0.015,0.066,-0.018,-0.042,1.287,4.094,-0.779,-0.277,0.444,0x00000003,1.0,1.0,0.071,-0.045,0.013,-0.046,-0.037,0.0,0.0,-0.01,-0.019,0.0,0.0,-0.015,1.373,-0.102,0.0,0.0,1.373,34.991,34.991,0.0,0.0,0.0,96.875,96.875,0.0,0.0,26.375,26.25,0.0,0.0,0.01,0.0,90.0,76.703,0.109,27.375,0x00000000,0x00000000,0x00000000,0.0,1246,1279,4.833,10.581,0.0,0.0,0.027,0.045,0.0,0.0,1.0,0.981,0.981,0.981,0.196,1.0,1.0,0.462,0.584,0.57,24.267,0x00000101,192.168.0.40,8080,255.255.255.0,192.168.0.1,0xFFFFFFFF,0xFFFFFFFF,0xFFFFFFFF,0x00000000,
3.15197706223,0x00000000,0x00000000,0x00000000,0x00000000,0x00000000,0x00000000,0x00000000,0x00000000,22.0,5,0x00000000,96.875,97.647,0.0,-0.006,-0.005,-0.021,-0.055,1.467,1.295,-0.766,-0.164,-1.612,0x00000003,1.0,1.0,0.449,-0.024,0.002,-0.002,-0.003,0.0,0.0,-0.011,-0.02,0.0,0.0,-0.015,1.475,1.004,0.0,0.0,1.475,34.991,34.991,0.0,0.0,0.0,96.875,96.875,0.0,0.0,26.375,26.25,0.0,0.0,0.01,0.0,90.0,76.703,0.109,27.375,0x00000000,0x00000000,0x00000000,0.0,1246,1279,8.515,12.791,0.0,0.0,0.027,0.045,0.0,0.0,1.0,0.981,0.981,0.981,0.196,1.0,1.0,0.462,0.584,0.57,24.267,0x00000101,192.168.0.40,8080,255.255.255.0,192.168.0.1,0xFFFFFFFF,0xFFFFFFFF,0xFFFFFFFF,0x00000000,
3.20204901695,0x00000000,0x00000000,0x00000000,0x00000000,0x00000000,0x00000000,0x00000000,0x00000000,22.05,5,0x00000000,96.875,97.647,0.0,-0.016,-0.035,-0.034,-0.019,1.456,-0.324,-0.77,-1.226,1.179,0x00000003,1.0,1.0,0.3,-0.007,0.007,0.002,0.013,0.0,0.0,-0.011,-0.02,0.0,0.0,-0.015,2.187,1.221,0.0,0.0,2.187,34.991,34.991,0.0,0.0,0.0,96.875,96.875,0.0,0.0,26.375,26.25,0.0,0.0,0.01,0.0,90.0,76.703,0.109,27.375,0x00000000,0x00000000,0x00000000,0.0,1246,1279,8.302,14.081,0.0,0.0,0.027,0.045,0.0,0.0,1.0,0.981,0.981,0.981,0.196,1.0,1.0,0.462,0.584,0.57,24.267,0x00000101,192.168.0.40,8080,255.255.255.0,192.168.0.1,0xFFFFFFFF,0xFFFFFFFF,0xFFFFFFFF,0x00000000,
3.25211119652,0x00000000,0x00000000,0x00000000,0x00000000,0x00000000,0x00000000,0x00000000,0x00000000,22.1,5,0x00000000,96.875,97.647,-0.003,-0.007,-0.038,-0.021,-0.025,1.367,-1.997,-0.768,0.596,-0.547,0x00000003,1.0,1.0,0.419,0.013,0.021,0.023,0.042,0.0,0.0,-0.01,-0.018,0.0,0.0,-0.014,1.933,0.394,0.0,0.0,1.933,34.991,34.991,0.0,0.0,0.0,96.875,96.875,0.0,0.0,26.375,26.25,0.0,0.0,0.01,0.0,90.0,76.703,0.109,27.375,0x00000000,0x00000000,0x00000000,0.0,1246,1279,6.069,12.959,0.0,0.0,0.027,0.046,0.0,0.0,1.0,0.981,0.981,0.981,0.196,1.0,1.0,0.462,0.584,0.57,24.267,0x00000101,192.168.0.40,8080,255.255.255.0,192.168.0.1,0xFFFFFFFF,0xFFFFFFFF,0xFFFFFFFF,0x00000000,
3.30220198631,0x00000000,0x00000000,0x00000000,0x00000000,0x00000000,0x00000000,0x00000000,0x00000000,22.15,5,0x00000000,96.875,97.647,-0.002,0.006,-0.034,-0.008,-0.001,1.295,-1.366,-0.742,0.587,-0.544,0x00000003,1.0,1.0,0.189,0.023,0.011,0.03,0.035,0.0,0.0,-0.009,-0.017,0.0,0.0,-0.013,2.861,0.928,0.0,0.0,2.861,34.991,34.991,0.0,0.0,0.0,96.875,96.875,0.0,0.0,26.375,26.25,0.0,0.0,0.01,0.0,90.0,76.703,0.109,27.375,0x00000000,0x00000000,0x00000000,0.0,1246,1279,6.978,14.078,0.0,0.0,0.027,0.046,0.0,0.0,1.0,0.981,0.981,0.981,0.196,1.0,1.0,0.462,0.584,0.57,24.267,0x00000101,192.168.0.40,8080,255.255.255.0,192.168.0.1,0xFFFFFFFF,0xFFFFFFFF,0xFFFFFFFF,0x00000000,
3.35227012634,0x00000000,0x00000000,0x00000000,0x00000000,0x00000000,0x00000000,0x00000000,0x00000000,22.2,5,0x00000000,96.875,97.647,-0.0,0.003,-0.048,-0.016,-0.025,1.224,-2.01,-0.725,-1.104,-1.577,0x00000003,1.0,1.0,0.348,0.037,-0.006,0.057,0.051,0.0,0.0,-0.007,-0.015,0.0,0.0,-0.011,2.556,2.073,0.0,0.0,2.556,34.991,34.991,0.0,0.0,0.0,96.875,96.875,0.0,0.0,26.375,26.25,0.0,0.0,0.01,0.0,90.0,76.703,0.109,27.375,0x00000000,0x00000000,0x00000000,0.0,1246,1279,6.68,12.085,0.0,0.0,0.027,0.046,0.0,0.0,1.0,0.981,0.981,0.981,0.196,1.0,1.0,0.462,0.584,0.57,24.267,0x00000101,192.168.0.40,8080,255.255.255.0,192.168.0.1,0xFFFFFFFF,0xFFFFFFFF,0xFFFFFFFF,0x00000000,
3.4023501873,0x00000000,0x00000000,0x00000000,0x00000000,0x00000000,0x00000000,0x00000000,0x00000000,22.25,5,0x00000000,96.875,97.647,0.0,-0.006,-0.101,-0.003,-0.019,1.069,-4.691,-0.703,0.853,0.517,0x00000003,1.0,1.0,0.352,0.054,-0.004,0.069,0.074,0.0,0.0,-0.004,-0.013,0.0,0.0,-0.008,3.077,2.543,0.0,0.0,3.077,34.991,34.991,0.0,0.0,0.0,96.875,96.875,0.0,0.0,26.375,26.25,0.0,0.0,0.01,0.0,90.0,76.703,0.109,27.375,0x00000000,0x00000000,0x00000000,0.0,1246,1279,8.89,13.585,0.0,0.0,0.027,0.046,0.0,0.0,1.0,0.981,0.981,0.981,0.196,1.0,1.0,0.462,0.584,0.57,24.267,0x00000101,192.168.0.40,8080,255.255.255.0,192.168.0.1,0xFFFFFFFF,0xFFFFFFFF,0xFFFFFFFF,0x00000000,
3.45244812965,0x00000000,0x00000000,0x00000000,0x00000000,0x00000000,0x00000000,0x00000000,0x00000000,22.3,5,0x00000000,96.875,97.647,0.0,-0.015,-0.132,-0.011,0.017,0.803,-6.713,-0.698,-1.13,1.914,0x00000003,1.0,1.0,0.37,0.075,0.02,0.082,0.105,0.0,0.0,-0.0,-0.008,0.0,0.0,-0.004,1.64,1.017,0.0,0.0,1.64,34.991,34.991,0.0,0.0,0.0,96.875,96.875,0.0,0.0,26.375,26.25,0.0,0.0,0.01,0.0,90.0,76.703,0.109,27.375,0x00000000,0x00000000,0x00000000,0.0,1246,1279,6.31,12.065,0.0,0.0,0.028,0.046,0.0,0.0,1.0,0.981,0.981,0.981,0.196,1.0,1.0,0.462,0.584,0.57,24.267,0x00000101,192.168.0.40,8080,255.255.255.0,192.168.0.1,0xFFFFFFFF,0xFFFFFFFF,0xFFFFFFFF,0x00000000,
3.50252604485,0x00000000,0x00000000,0x00000000,0x00000000,0x00000000,0x00000000,0x00000000,0x00000000,22.35,5,0x00000000,96.875,97.647,-0.003,-0.001,-0.112,-0.02,0.011,0.458,-6.403,-0.671,1.636,0.174,0x00000003,1.0,1.0,-0.175,0.078,0.028,0.068,0.07,0.0,0.0,0.003,-0.004,0.0,0.0,-0.0,1.399,0.75,0.0,0.0,1.399,34.991,34.991,0.0,0.0,0.0,96.875,96.875,0.0,0.0,26.375,26.25,0.0,0.0,0.01,0.0,90.0,76.703,0.109,27.375,0x00000000,0x00000000,0x00000000,0.0,1246,1279,9.054,10.825,0.0,0.0,0.028,0.046,0.0,0.0,1.0,0.981,0.981,0.981,0.196,1.0,1.0,0.462,0.584,0.57,24.267,0x00000101,192.168.0.40,8080,255.255.255.0,192.168.0.1,0xFFFFFFFF,0xFFFFFFFF,0xFFFFFFFF,0x00000000,
3.55258512497,0x00000000,0x00000000,0x00000000,0x00000000,0x00000000,0x00000000,0x00000000,0x00000000,22.4,5,0x00000000,96.875,97.647,-0.003,0.021,-0.071,-0.016,-0.001,0.181,-3.715,-0.655,-0.396,1.202,0x00000003,1.0,1.0,-0.263,0.068,0.02,0.051,0.059,0.0,0.0,0.006,-0.001,0.0,0.0,0.003,0.636,-0.674,0.0,0.0,-0.674,34.991,34.991,0.0,0.0,0.0,96.875,96.875,0.0,0.0,26.375,26.25,0.0,0.0,0.01,0.0,90.0,76.703,0.109,27.375,0x00000000,0x00000000,0x00000000,0.0,1246,1279,7.99,11.442,0.0,0.0,0.028,0.047,0.0,0.0,1.0,0.981,0.981,0.981,0.196,1.0,1.0,0.462,0.584,0.57,24.267,0x00000101,192.168.0.40,8080,255.255.255.0,192.168.0.1,0xFFFFFFFF,0xFFFFFFFF,0xFFFFFFFF,0x00000000,
3.602684021,0x00000000,0x00000000,0x00000000,0x00000000,0x00000000,0x00000000,0x00000000,0x00000000,22.45,5,0x00000000,96.875,97.647,-0.003,0.045,0.001,-0.013,-0.037,0.067,0.389,-0.643,-0.15,-3.661,0x00000003,1.0,1.0,-0.692,0.039,0.004,0.006,0.005,0.0,0.0,0.007,0.0,0.0,0.0,0.004,0.547,0.038,0.0,0.0,0.547,34.991,34.991,0.0,0.0,0.0,96.875,96.875,0.0,0.0,26.375,26.25,0.0,0.0,0.01,0.0,90.0,76.711,0.109,27.375,0x00000000,0x00000000,0x00000000,0.0,1246,1279,6.609,13.697,0.0,0.0,0.028,0.047,0.0,0.0,1.0,0.981,0.981,0.981,0.196,1.0,1.0,0.462,0.584,0.57,24.267,0x00000101,192.168.0.40,8080,255.255.255.0,192.168.0.1,0xFFFFFFFF,0xFFFFFFFF,0xFFFFFFFF,0x00000000,
3.65276098251,0x00000000,0x00000000,0x00000000,0x00000000,0x00000000,0x00000000,0x00000000,0x00000000,22.5,5,0x00000000,96.875,97.647,0.001,0.05,0.036,-0.026,-0.042,0.156,2.811,-0.626,-0.437,-2.628,0x00000003,1.0,1.0,-0.328,0.016,0.001,-0.0,-0.0,0.0,0.0,0.007,0.0,0.0,0.0,0.004,0.648,0.839,0.0,0.0,0.839,34.991,34.991,0.0,0.0,0.0,96.875,96.875,0.0,0.0,26.375,26.25,0.0,0.0,0.01,0.0,90.0,76.711,0.109,27.375,0x00000000,0x00000000,0x00000000,0.0,1246,1279,5.658,10.931,0.0,0.0,0.028,0.047,0.0,0.0,1.0,0.981,0.981,0.981,0.196,1.0,1.0,0.462,0.584,0.57,24.267,0x00000101,192.168.0.40,8080,255.255.255.0,192.168.0.1,0xFFFFFFFF,0xFFFFFFFF,0xFFFFFFFF,0x00000000,
3.7028260231,0x00000000,0x00000000,0x00000000,0x00000000,0x00000000,0x00000000,0x00000000,0x00000000,22.55,5,0x00000000,96.875,97.647,0.001,0.023,-0.011,-0.008,-0.019,0.261,0.18,-0.635,-0.438,0.842,0x00000003,1.0,1.0,-0.128,0.006,0.001,-0.0,0.0,0.0,0.0,0.007,0.0,0.0,0.0,0.004,0.547,0.458,0.0,0.0,0.547,34.991,34.991,0.0,0.0,0.0,96.875,96.875,0.0,0.0,26.375,26.25,0.0,0.0,0.01,0.0,90.0,76.711,0.109,27.375,0x00000000,0x00000000,0x00000000,0.0,1246,1279,5.99,12.03,0.0,0.0,0.028,0.047,0.0,0.0,1.0,0.981,0.981,0.981,0.196,1.0,1.0,0.462,0.584,0.57,24.267,0x00000101,192.168.0.40,8080,255.255.255.0,192.168.0.1,0xFFFFFFFF,0xFFFFFFFF,0xFFFFFFFF,0x00000000,
3.7529001236,0x00000000,0x00000000,0x00000000,0x00000000,0x00000000,0x00000000,0x00000000,0x00000000,22.6,5,0x00000000,96.875,97.647,-0.003,0.01,0.002,0.0,-0.012,0.281,0.698,-0.627,-1.17,-0.537,0x00000003,1.0,1.0,-0.055,0.002,0.0,-0.0,-0.001,0.0,0.0,0.007,0.0,0.0,0.0,0.004,-0.381,-0.178,0.0,0.0,-0.381,34.991,34.991,0.0,0.0,0.0,96.875,96.875,0.0,0.0,26.375,26.25,0.0,0.0,0.01,0.0,90.0,76.711,0.109,27.375,0x00000000,0x00000000,0x00000000,0.0,1246,1279,5.451,13.266,0.0,0.0,0.028,0.047,0.0,0.0,1.0,0.981,0.981,0.981,0.196,1.0,1.0,0.462,0.584,0.57,24.267,0x00000101,192.168.0.40,8080,255.255.255.0,192.168.0.1,0xFFFFFFFF,0xFFFFFFFF,0xFFFFFFFF,0x00000000,
3.81295704842,0x00000000,0x00000000,0x00000000,0x00000000,0x00000000,0x00000000,0x00000000,0x00000000,22.66,5,0x00000000,96.875,97.647,-0.002,0.019,0.014,-0.013,-0.006,0.347,1.155,-0.598,0.808,-0.541,0x00000003,1.0,1.0,-0.035,-0.001,-0.002,-0.003,-0.003,0.0,0.0,0.007,0.0,0.0,0.0,0.004,-0.89,-0.661,0.0,0.0,-0.89,34.991,34.991,0.0,0.0,0.0,96.875,96.875,0.0,0.0,26.375,26.25,0.0,0.0,0.01,0.0,90.0,76.711,0.109,27.375,0x00000000,0x00000000,0x00000000,0.0,1246,1279,8.804,12.054,0.0,0.0,0.028,0.047,0.0,0.0,1.0,0.981,0.981,0.981,0.196,1.0,1.0,0.462,0.584,0.57,24.267,0x00000101,192.168.0.40,8080,255.255.255.0,192.168.0.1,0xFFFFFFFF,0xFFFFFFFF,0xFFFFFFFF,0x00000000,
3.86308217049,0x00000000,0x00000000,0x00000000,0x00000000,0x00000000,0x00000000,0x00000000,0x00000000,22.71,5,0x00000000,96.875,97.647,-0.0,0.023,0.028,-0.013,-0.024,0.465,2.822,-0.587,-0.957,0.145,0x00000003,1.0,1.0,-0.139,-0.007,-0.003,-0.014,-0.014,0.0,0.0,0.007,-0.0,0.0,0.0,0.004,-0.191,0.331,0.0,0.0,0.331,34.991,34.991,0.0,0.0,0.0,96.875,96.875,0.0,0.0,26.375,26.25,0.0,0.0,0.01,0.0,90.0,76.711,0.109,27.375,0x00000000,0x00000000,0x00000000,0.0,1246,1279,9.164,12.012,0.0,0.0,0.028,0.048,0.0,0.0,1.0,0.981,0.981,0.981,0.196,1.0,1.0,0.462,0.584,0.57,24.267,0x00000101,192.168.0.40,8080,255.255.255.0,192.168.0.1,0xFFFFFFFF,0xFFFFFFFF,0xFFFFFFFF,0x00000000,
3.91312408447,0x00000000,0x00000000,0x00000000,0x00000000,0x00000000,0x00000000,0x00000000,0x00000000,22.76,5,0x00000000,96.875,97.647,0.001,0.011,-0.005,-0.008,-0.012,0.569,1.36,-0.587,-0.435,-0.192,0x00000003,1.0,1.0,0.09,-0.009,-0.001,-0.006,-0.004,0.0,0.0,0.006,-0.0,0.0,0.0,0.003,0.394,0.941,0.0,0.0,0.941,34.991,34.991,0.0,0.0,0.0,96.875,96.875,0.0,0.0,26.375,26.25,0.0,0.0,0.01,0.0,90.0,76.711,0.109,27.375,0x00000000,0x00000000,0x00000000,0.0,1246,1279,5.137,12.012,0.0,0.0,0.029,0.048,0.0,0.0,1.0,0.981,0.981,0.981,0.196,1.0,1.0,0.462,0.584,0.57,24.267,0x00000101,192.168.0.40,8080,255.255.255.0,192.168.0.1,0xFFFFFFFF,0xFFFFFFFF,0xFFFFFFFF,0x00000000,
3.9632370472,0x00000000,0x00000000,0x00000000,0x00000000,0x00000000,0x00000000,0x00000000,0x00000000,22.81,5,0x00000000,96.875,97.647,0.001,-0.004,-0.025,-0.012,-0.006,0.58,-0.393,-0.572,-1.131,-1.226,0x00000003,1.0,1.0,0.091,-0.004,0.002,-0.001,0.001,0.0,0.0,0.006,-0.0,0.0,0.0,0.003,-0.318,0.0,0.0,0.0,-0.318,34.991,34.991,0.0,0.0,0.0,96.875,96.875,0.0,0.0,26.375,26.25,0.0,0.0,0.01,0.0,90.0,76.711,0.109,27.375,0x00000000,0x00000000,0x00000000,0.0,1246,1279,9.341,9.661,0.0,0.0,0.029,0.048,0.0,0.0,1.0,0.981,0.981,0.981,0.196,1.0,1.0,0.462,0.584,0.57,24.267,0x00000101,192.168.0.40,8080,255.255.255.0,192.168.0.1,0xFFFFFFFF,0xFFFFFFFF,0xFFFFFFFF,0x00000000,
4.01329898834,0x00000000,0x00000000,0x00000000,0x00000000,0x00000000,0x00000000,0x00000000,0x00000000,22.86,5,0x00000000,96.875,97.647,-0.003,0.004,-0.021,-0.013,-0.006,0.535,-0.622,-0.552,0.092,-0.186,0x00000003,1.0,1.0,-0.007,-0.002,0.005,-0.006,0.0,0.0,0.0,0.006,-0.0,0.0,0.0,0.003,-0.407,-0.28,0.0,0.0,-0.407,34.991,34.991,0.0,0.0,0.0,96.875,96.875,0.0,0.0,26.375,26.25,0.0,0.0,0.01,0.0,90.0,76.711,0.109,27.375,0x00000000,0x00000000,0x00000000,0.0,1246,1279,7.367,10.748,0.0,0.0,0.029,0.048,0.0,0.0,1.0,0.981,0.981,0.981,0.196,1.0,1.0,0.462,0.584,0.57,24.267,0x00000101,192.168.0.40,8080,255.255.255.0,192.168.0.1,0xFFFFFFFF,0xFFFFFFFF,0xFFFFFFFF,0x00000000,
4.06344413757,0x00000000,0x00000000,0x00000000,0x00000000,0x00000000,0x00000000,0x00000000,0x00000000,22.91,5,0x00000000,96.875,97.647,-0.002,0.016,-0.002,-0.03,0.018,0.518,0.443,-0.548,0.559,0.839,0x00000003,1.0,1.0,-0.021,-0.003,0.006,-0.006,-0.002,0.0,0.0,0.006,-0.0,0.0,0.0,0.003,-1.093,-0.699,0.0,0.0,-1.093,34.991,34.991,0.0,0.0,0.0,96.875,96.875,0.0,0.0,26.375,26.25,0.0,0.0,0.01,0.0,90.0,76.711,0.109,27.375,0x00000000,0x00000000,0x00000000,0.0,1246,1279,6.582,10.801,0.0,0.0,0.029,0.048,0.0,0.0,1.0,0.981,0.981,0.981,0.196,1.0,1.0,0.462,0.584,0.57,24.267,0x00000101,192.168.0.40,8080,255.255.255.0,192.168.0.1,0xFFFFFFFF,0xFFFFFFFF,0xFFFFFFFF,0x00000000,
4.11344313622,0x00000000,0x00000000,0x00000000,0x00000000,0x00000000,0x00000000,0x00000000,0x00000000,22.96,5,0x00000000,96.875,97.647,-0.0,0.026,0.018,-0.013,-0.03,0.62,1.954,-0.549,0.309,-0.198,0x00000003,1.0,1.0,-0.051,-0.004,0.003,-0.005,-0.008,0.0,0.0,0.006,-0.0,0.0,0.0,0.003,-0.877,-0.572,0.0,0.0,-0.877,34.991,34.991,0.0,0.0,0.0,96.875,96.875,0.0,0.0,26.375,26.25,0.0,0.0,0.01,0.0,90.0,76.703,0.109,27.375,0x00000000,0x00000000,0x00000000,0.0,1246,1279,7.585,13.668,0.0,0.0,0.029,0.048,0.0,0.0,1.0,0.981,0.981,0.981,0.196,1.0,1.0,0.462,0.584,0.57,24.267,0x00000101,192.168.0.40,8080,255.255.255.0,192.168.0.1,0xFFFFFFFF,0xFFFFFFFF,0xFFFFFFFF,0x00000000,
4.16355419159,0x00000000,0x00000000,0x00000000,0x00000000,0x00000000,0x00000000,0x00000000,0x00000000,23.01,5,0x00000000,96.875,97.647,0.001,0.015,-0.009,-0.017,-0.037,0.74,1.121,-0.54,0.327,-0.533,0x00000003,1.0,1.0,0.067,-0.006,-0.002,-0.002,-0.004,0.0,0.0,0.006,-0.001,0.0,0.0,0.003,1.03,1.144,0.0,0.0,1.144,34.991,34.991,0.0,0.0,0.0,96.875,96.875,0.0,0.0,26.375,26.25,0.0,0.0,0.01,0.0,90.0,76.703,0.109,27.375,0x00000000,0x00000000,0x00000000,0.0,1246,1279,4.887,12.141,0.0,0.0,0.029,0.049,0.0,0.0,1.0,0.981,0.981,0.981,0.196,1.0,1.0,0.462,0.584,0.57,24.267,0x00000101,192.168.0.40,8080,255.255.255.0,192.168.0.1,0xFFFFFFFF,0xFFFFFFFF,0xFFFFFFFF,0x00000000,
4.21360516548,0x00000000,0x00000000,0x00000000,0x00000000,0x00000000,0x00000000,0x00000000,0x00000000,23.06,5,0x00000000,96.875,97.647,0.0,-0.009,-0.061,-0.021,-0.001,0.686,-1.678,-0.526,-0.365,-0.879,0x00000003,1.0,1.0,0.065,-0.002,0.001,0.0,0.002,0.0,0.0,0.006,-0.001,0.0,0.0,0.003,0.572,1.017,0.0,0.0,1.017,34.991,34.991,0.0,0.0,0.0,96.875,96.875,0.0,0.0,26.375,26.25,0.0,0.0,0.01,0.0,90.0,76.703,0.109,27.375,0x00000000,0x00000000,0x00000000,0.0,1246,1279,7.639,10.192,0.0,0.0,0.029,0.049,0.0,0.0,1.0,0.981,0.981,0.981,0.196,1.0,1.0,0.462,0.584,0.57,24.267,0x00000101,192.168.0.40,8080,255.255.255.0,192.168.0.1,0xFFFFFFFF,0xFFFFFFFF,0xFFFFFFFF,0x00000000,
4.26375317574,0x00000000,0x00000000,0x00000000,0x00000000,0x00000000,0x00000000,0x00000000,0x00000000,23.11,5,0x00000000,96.875,97.647,-0.003,-0.0,-0.027,-0.025,-0.043,0.565,-1.517,-0.509,0.581,1.202,0x00000003,1.0,1.0,0.0,-0.001,0.002,-0.001,-0.0,0.0,0.0,0.006,-0.001,0.0,0.0,0.003,-1.437,-1.221,0.0,0.0,-1.437,34.991,34.991,0.0,0.0,0.0,96.875,96.875,0.0,0.0,26.375,26.25,0.0,0.0,0.01,0.0,90.0,76.703,0.109,27.375,0x00000000,0x00000000,0x00000000,0.0,1246,1279,8.932,10.727,0.0,0.0,0.029,0.049,0.0,0.0,1.0,0.981,0.981,0.981,0.196,1.0,1.0,0.462,0.584,0.57,24.267,0x00000101,192.168.0.40,8080,255.255.255.0,192.168.0.1,0xFFFFFFFF,0xFFFFFFFF,0xFFFFFFFF,0x00000000,
4.31374812126,0x00000000,0x00000000,0x00000000,0x00000000,0x00000000,0x00000000,0x00000000,0x00000000,23.16,5,0x00000000,96.875,97.647,-0.002,0.021,0.017,-0.013,-0.012,0.573,1.914,-0.526,-0.652,-1.574,0x00000003,1.0,1.0,-0.232,-0.004,0.001,-0.015,-0.016,0.0,0.0,0.006,-0.001,0.0,0.0,0.003,-1.64,-1.449,0.0,0.0,-1.64,34.991,34.991,0.0,0.0,0.0,96.875,96.875,0.0,0.0,26.375,26.25,0.0,0.0,0.01,0.0,90.0,76.703,0.109,27.375,0x00000000,0x00000000,0x00000000,0.0,1246,1279,4.946,11.937,0.0,0.0,0.029,0.049,0.0,0.0,1.0,0.981,0.981,0.981,0.196,1.0,1.0,0.462,0.584,0.57,24.267,0x00000101,192.168.0.40,8080,255.255.255.0,192.168.0.1,0xFFFFFFFF,0xFFFFFFFF,0xFFFFFFFF,0x00000000,
4.36387705803,0x00000000,0x00000000,0x00000000,0x00000000,0x00000000,0x00000000,0x00000000,0x00000000,23.21,5,0x00000000,96.875,97.647,-0.002,0.038,0.068,-0.014,-0.006,0.687,3.725,-0.506,-0.189,-0.891,0x00000003,1.0,1.0,-0.14,-0.02,-0.003,-0.03,-0.024,0.0,0.0,0.005,-0.002,0.0,0.0,0.002,-0.025,-0.407,0.0,0.0,-0.407,34.991,34.991,0.0,0.0,0.0,96.875,96.875,0.0,0.0,26.375,26.25,0.0,0.0,0.01,0.0,90.0,76.703,0.109,27.375,0x00000000,0x00000000,0x00000000,0.0,1246,1279,8.999,11.37,0.0,0.0,0.029,0.049,0.0,0.0,1.0,0.981,0.981,0.981,0.196,1.0,1.0,0.462,0.584,0.57,24.267,0x00000101,192.168.0.40,8080,255.255.255.0,192.168.0.1,0xFFFFFFFF,0xFFFFFFFF,0xFFFFFFFF,0x00000000,
4.41392803192,0x00000000,0x00000000,0x00000000,0x00000000,0x00000000,0x00000000,0x00000000,0x00000000,23.26,5,0x00000000,96.875,97.647,0.001,0.024,0.022,-0.017,-0.012,0.879,3.206,-0.5,0.311,-0.547,0x00000003,1.0,1.0,0.154,-0.031,-0.008,-0.018,-0.029,0.0,0.0,0.003,-0.004,0.0,0.0,-0.0,1.322,0.966,0.0,0.0,1.322,34.991,34.991,0.0,0.0,0.0,96.875,96.875,0.0,0.0,26.375,26.25,0.0,0.0,0.01,0.0,90.0,76.703,0.109,27.375,0x00000000,0x00000000,0x00000000,0.0,1246,1279,5.129,12.845,0.0,0.0,0.029,0.049,0.0,0.0,1.0,0.981,0.981,0.981,0.196,1.0,1.0,0.462,0.584,0.57,24.267,0x00000101,192.168.0.40,8080,255.255.255.0,192.168.0.1,0xFFFFFFFF,0xFFFFFFFF,0xFFFFFFFF,0x00000000,
