Time_stamp,fault_status_word_1,fault_status_word_2,fault_status_word_3,fault_status_word_4,mcu_0_fault_status,mcu_1_fault_status,mcu_2_fault_status,mcu_3_fault_status,operational_time,operational_state,dynamic_response,min_propulsion_batt_soc,aux_batt_soc,inertial_x_acc_g,inertial_y_acc_g,inertial_x_rate_rps,inertial_y_rate_rps,inertial_z_rate_rps,pse_pitch_deg,pse_pitch_rate_dps,pse_roll_deg,pse_roll_rate_dps,pse_yaw_rate_dps,pse_data_is_valid,yaw_rate_limit_rps,vel_limit_mps,linear_accel_mps2,linear_vel_mps,differential_wheel_vel_rps,right_front_vel_mps,left_front_vel_mps,right_rear_vel_mps,left_rear_vel_mps,right_front_pos_m,left_front_pos_m,right_rear_pos_m,left_rear_pos_m,linear_pos_m,right_front_current_A0pk,left_front_current_A0pk,right_rear_current_A0pk,left_rear_current_A0pk,max_motor_current_A0pk,right_front_current_limit_A0pk,left_front_current_limit_A0pk,right_rear_current_limit_A0pk,left_rear_current_limit_A0pk,min_motor_current_limit_A0pk,front_base_batt_1_soc,front_base_batt_2_soc,rear_base_batt_1_soc,rear_base_batt_2_soc,front_base_batt_1_temp_degC,front_base_batt_2_temp_degC,rear_base_batt_1_temp_degC,rear_base_batt_2_temp_degC,vel_target_mps,yaw_rate_target_rps,angle_target_deg,aux_batt_voltage_V,aux_batt_current_A,aux_batt_temp_degC,abb_system_status,aux_batt_status,aux_batt_faults,7p2V_battery_voltage,ccu_sp_sw_build_id,ccu_uip_sw_build_id,mcu_0_inst_power_W,mcu_1_inst_power_W,mcu_2_inst_power_W,mcu_3_inst_power_W,mcu_0_total_energy_Wh,mcu_1_total_energy_Wh,mcu_2_total_energy_Wh,mcu_3_total_energy_Wh,fram_vel_limit_mps,fram_accel_limit_mps2,fram_decel_limit_mps2,fram_dtz_decel_limit_mps2,fram_coastdown_decel_mps2,fram_yaw_rate_limit_rps,fram_yaw_accel_limit_rps2,fram_tire_diameter_m,fram_wheelbase_length_m,fram_wheel_track_width_m,fram_transmission_ratio,fram_config_bitmap,fram_eth_ip_address,fram_eth_port_number,fram_eth_subnet_mask,fram_eth_gateway,user_feedback_bitmap_1,user_feedback_bitmap_2,user_feedback_bitmap_3,user_feedback_bitmap_4,
0.0724191665649,0x00000000,0x00000000,0x00000000,0x00000000,0x00000000,0x00000000,0x00000000,0x00000000,17.35,3,0x00000000,96.094,97.255,0.005,-0.072,-0.012,0.001,-0.025,-4.135,0.649,-1.037,-0.429,-1.026,0x00000003,0.0,0.0,-0.002,-0.0,0.001,-0.001,0.0,0.0,0.0,0.001,0.0,0.0,0.0,0.0,-0.763,-0.661,0.0,0.0,-0.763,34.991,34.991,0.0,0.0,0.0,96.484,96.094,0.0,0.0,26.375,26.25,0.0,0.0,0.0,0.0,90.0,76.711,0.109,27.438,0x00000000,0x00000000,0x00000000,0.0,1246,1279,5.285,1.73,0.0,0.0,0.016,0.009,0.0,0.0,1.0,0.981,0.981,0.981,0.196,1.0,1.0,0.462,0.584,0.57,24.267,0x00000101,192.168.0.40,8080,255.255.255.0,192.168.0.1,0xFFFFFFFF,0xFFFFFFFF,0xFFFFFFFF,0x00000000,
0.122538089752,0x00000000,0x00000000,0x00000000,0x00000000,0x00000000,0x00000000,0x00000000,0x00000000,17.4,3,0x00000000,96.094,97.255,0.004,-0.072,-0.018,-0.026,0.012,-4.12,0.101,-1.004,-0.559,0.726,0x00000003,0.0,0.0,-0.008,-0.0,0.002,-0.001,0.0,0.0,0.0,0.001,0.0,0.0,0.0,0.0,-0.699,-0.509,0.0,0.0,-0.699,34.991,34.991,0.0,0.0,0.0,96.484,96.094,0.0,0.0,26.375,26.25,0.0,0.0,0.0,0.0,90.0,76.711,0.109,27.438,0x00000000,0x00000000,0x00000000,0.0,1246,1279,4.968,4.297,0.0,0.0,0.016,0.009,0.0,0.0,1.0,0.981,0.981,0.981,0.196,1.0,1.0,0.462,0.584,0.57,24.267,0x00000101,192.168.0.40,8080,255.255.255.0,192.168.0.1,0xFFFFFFFF,0xFFFFFFFF,0xFFFFFFFF,0x00000000,
0.172455072403,0x00000000,0x00000000,0x00000000,0x00000000,0x00000000,0x00000000,0x00000000,0x00000000,17.45,3,0x00000000,96.094,97.255,0.006,-0.072,-0.009,0.0,-0.0,-4.112,0.199,-0.98,0.906,0.38,0x00000003,0.0,0.0,0.004,-0.001,0.002,-0.001,0.0,0.0,0.0,0.001,0.0,0.0,0.0,0.0,-0.712,-0.534,0.0,0.0,-0.712,34.991,34.991,0.0,0.0,0.0,96.484,96.094,0.0,0.0,26.375,26.25,0.0,0.0,0.0,0.0,90.0,76.711,0.109,27.438,0x00000000,0x00000000,0x00000000,0.0,1246,1279,8.148,4.559,0.0,0.0,0.016,0.009,0.0,0.0,1.0,0.981,0.981,0.981,0.196,1.0,1.0,0.462,0.584,0.57,24.267,0x00000101,192.168.0.40,8080,255.255.255.0,192.168.0.1,0xFFFFFFFF,0xFFFFFFFF,0xFFFFFFFF,0x00000000,
0.222550153732,0x00000000,0x00000000,0x00000000,0x00000000,0x00000000,0x00000000,0x00000000,0x00000000,17.5,3,0x00000000,96.094,97.255,0.005,-0.074,-0.004,-0.013,-0.024,-4.104,0.046,-0.959,0.602,-0.664,0x00000003,0.0,0.0,0.004,-0.0,0.001,-0.0,0.0,0.0,0.0,0.001,0.0,0.0,0.0,0.0,-0.699,-0.534,0.0,0.0,-0.699,34.991,34.991,0.0,0.0,0.0,96.484,96.094,0.0,0.0,26.375,26.25,0.0,0.0,0.0,0.0,90.0,76.711,0.109,27.438,0x00000000,0x00000000,0x00000000,0.0,1246,1279,8.501,4.239,0.0,0.0,0.016,0.009,0.0,0.0,1.0,0.981,0.981,0.981,0.196,1.0,1.0,0.462,0.584,0.57,24.267,0x00000101,192.168.0.40,8080,255.255.255.0,192.168.0.1,0xFFFFFFFF,0xFFFFFFFF,0xFFFFFFFF,0x00000000,
0.272567033768,0x00000000,0x00000000,0x00000000,0x00000000,0x00000000,0x00000000,0x00000000,0x00000000,17.55,3,0x00000000,96.094,97.255,0.005,-0.073,-0.022,-0.017,-0.0,-4.091,0.349,-0.935,-0.185,-1.354,0x00000003,0.0,0.0,0.004,-0.001,0.002,-0.001,0.0,0.0,0.0,0.001,0.0,0.0,0.0,0.0,-0.623,-0.572,0.0,0.0,-0.623,34.991,34.991,0.0,0.0,0.0,96.484,96.094,0.0,0.0,26.375,26.25,0.0,0.0,0.0,0.0,90.0,76.711,0.109,27.438,0x00000000,0x00000000,0x00000000,0.0,1246,1279,3.741,3.377,0.0,0.0,0.016,0.009,0.0,0.0,1.0,0.981,0.981,0.981,0.196,1.0,1.0,0.462,0.584,0.57,24.267,0x00000101,192.168.0.40,8080,255.255.255.0,192.168.0.1,0xFFFFFFFF,0xFFFFFFFF,0xFFFFFFFF,0x00000000,
0.322688102722,0x00000000,0x00000000,0x00000000,0x00000000,0x00000000,0x00000000,0x00000000,0x00000000,17.6,3,0x00000000,96.094,97.255,0.005,-0.072,-0.012,-0.03,-0.024,-4.087,0.259,-0.935,-0.34,0.033,0x00000003,0.0,0.0,0.005,-0.0,0.001,-0.0,0.0,0.0,0.0,0.001,0.0,0.0,0.0,0.0,-0.788,-0.509,0.0,0.0,-0.788,34.991,34.991,0.0,0.0,0.0,96.484,96.094,0.0,0.0,26.375,26.25,0.0,0.0,0.0,0.0,90.0,76.711,0.109,27.438,0x00000000,0x00000000,0x00000000,0.0,1246,1279,4.721,4.073,0.0,0.0,0.016,0.009,0.0,0.0,1.0,0.981,0.981,0.981,0.196,1.0,1.0,0.462,0.584,0.57,24.267,0x00000101,192.168.0.40,8080,255.255.255.0,192.168.0.1,0xFFFFFFFF,0xFFFFFFFF,0xFFFFFFFF,0x00000000,
1.12399411201,0x00000000,0x00000000,0x00000000,0x00000000,0x00000000,0x00000000,0x00000000,0x00000000,18.4,3,0x00000000,96.094,97.255,0.005,-0.073,-0.012,-0.021,-0.0,-4.02,-0.614,-0.851,-0.538,-0.275,0x00000003,0.0,0.0,0.003,-0.0,0.002,-0.001,0.001,0.0,0.0,0.001,0.0,0.0,0.0,0.0,-0.674,-0.623,0.0,0.0,-0.674,34.991,34.991,0.0,0.0,0.0,96.484,96.094,0.0,0.0,26.375,26.25,0.0,0.0,0.0,0.0,90.0,76.719,0.109,27.438,0x00000000,0x00000000,0x00000000,0.0,1246,1279,5.954,3.19,0.0,0.0,0.018,0.01,0.0,0.0,1.0,0.981,0.981,0.981,0.196,1.0,1.0,0.462,0.584,0.57,24.267,0x00000101,192.168.0.40,8080,255.255.255.0,192.168.0.1,0xFFFFFFFF,0xFFFFFFFF,0xFFFFFFFF,0x00000000,
1.17400693893,0x00000000,0x00000000,0x00000000,0x00000000,0x00000000,0x00000000,0x00000000,0x00000000,18.45,3,0x00000000,96.094,97.255,0.005,-0.072,-0.003,-0.043,-0.018,-4.015,0.445,-0.857,-0.921,-2.369,0x00000003,0.0,0.0,-0.005,-0.001,0.003,-0.002,0.0,0.0,0.0,0.001,0.0,0.0,0.0,0.0,-2.136,-1.004,0.0,0.0,-2.136,34.991,34.991,0.0,0.0,0.0,96.484,96.094,0.0,0.0,26.375,26.25,0.0,0.0,0.0,0.0,90.0,76.719,0.109,27.438,0x00000000,0x00000000,0x00000000,0.0,1246,1279,7.22,0.656,0.0,0.0,0.018,0.01,0.0,0.0,1.0,0.981,0.981,0.981,0.196,1.0,1.0,0.462,0.584,0.57,24.267,0x00000101,192.168.0.40,8080,255.255.255.0,192.168.0.1,0xFFFFFFFF,0xFFFFFFFF,0xFFFFFFFF,0x00000000,
1.22412514687,0x00000000,0x00000000,0x00000000,0x00000000,0x00000000,0x00000000,0x00000000,0x00000000,18.5,3,0x00000000,96.094,97.255,0.005,-0.073,-0.017,-0.004,-0.019,-3.994,0.279,-0.861,-0.088,-0.971,0x00000003,0.0,0.0,0.007,-0.0,0.003,0.0,0.001,0.0,0.0,0.001,0.0,0.0,0.0,0.0,-2.174,-0.661,0.0,0.0,-2.174,34.991,34.991,0.0,0.0,0.0,96.484,96.094,0.0,0.0,26.375,26.25,0.0,0.0,0.0,0.0,90.0,76.719,0.109,27.438,0x00000000,0x00000000,0x00000000,0.0,1246,1279,9.251,3.409,0.0,0.0,0.018,0.01,0.0,0.0,1.0,0.981,0.981,0.981,0.196,1.0,1.0,0.462,0.584,0.57,24.267,0x00000101,192.168.0.40,8080,255.255.255.0,192.168.0.1,0xFFFFFFFF,0xFFFFFFFF,0xFFFFFFFF,0x00000000,
1.27416300774,0x00000000,0x00000000,0x00000000,0x00000000,0x00000000,0x00000000,0x00000000,0x00000000,18.55,3,0x00000000,96.094,97.255,0.005,-0.073,-0.017,-0.03,0.012,-4.0,0.206,-0.827,0.494,0.425,0x00000003,0.0,0.0,0.001,-0.0,0.002,-0.001,0.001,0.0,0.0,0.001,0.0,0.0,0.0,0.0,-0.674,-0.572,0.0,0.0,-0.674,34.991,34.991,0.0,0.0,0.0,96.484,96.094,0.0,0.0,26.375,26.25,0.0,0.0,0.0,0.0,90.0,76.719,0.109,27.438,0x00000000,0x00000000,0x00000000,0.0,1246,1279,6.335,3.183,0.0,0.0,0.018,0.01,0.0,0.0,1.0,0.981,0.981,0.981,0.196,1.0,1.0,0.462,0.584,0.57,24.267,0x00000101,192.168.0.40,8080,255.255.255.0,192.168.0.1,0xFFFFFFFF,0xFFFFFFFF,0xFFFFFFFF,0x00000000,
1.32428407669,0x00000000,0x00000000,0x00000000,0x00000000,0x00000000,0x00000000,0x00000000,0x00000000,18.6,3,0x00000000,96.094,97.255,0.005,-0.072,-0.019,-0.017,-0.006,-3.985,0.061,-0.837,-1.278,-0.262,0x00000003,0.0,0.0,0.003,0.0,0.001,0.0,0.0,0.0,0.0,0.001,0.0,0.0,0.0,0.0,-0.699,-0.623,0.0,0.0,-0.699,34.991,34.991,0.0,0.0,0.0,96.484,96.094,0.0,0.0,26.375,26.25,0.0,0.0,0.0,0.0,90.0,76.719,0.109,27.438,0x00000000,0x00000000,0x00000000,0.0,1246,1279,5.013,1.959,0.0,0.0,0.018,0.01,0.0,0.0,1.0,0.981,0.981,0.981,0.196,1.0,1.0,0.462,0.584,0.57,24.267,0x00000101,192.168.0.40,8080,255.255.255.0,192.168.0.1,0xFFFFFFFF,0xFFFFFFFF,0xFFFFFFFF,0x00000000,
2.12558698654,0x00000000,0x00000000,0x00000000,0x00000000,0x00000000,0x00000000,0x00000000,0x00000000,19.4,3,0x00000000,96.094,97.255,0.005,-0.072,-0.015,-0.025,-0.018,-3.961,-0.165,-0.76,-0.54,-1.267,0x00000003,0.0,0.0,0.002,-0.0,0.001,-0.0,0.0,0.0,0.0,0.001,0.0,0.0,0.0,0.0,-0.788,-0.547,0.0,0.0,-0.788,34.991,34.991,0.0,0.0,0.0,96.484,96.094,0.0,0.0,26.375,26.25,0.0,0.0,0.0,0.0,90.0,76.711,0.109,27.438,0x00000000,0x00000000,0x00000000,0.0,1246,1279,4.78,5.994,0.0,0.0,0.02,0.011,0.0,0.0,1.0,0.981,0.981,0.981,0.196,1.0,1.0,0.462,0.584,0.57,24.267,0x00000101,192.168.0.40,8080,255.255.255.0,192.168.0.1,0xFFFFFFFF,0xFFFFFFFF,0xFFFFFFFF,0x00000000,
2.17559313774,0x00000000,0x00000000,0x00000000,0x00000000,0x00000000,0x00000000,0x00000000,0x00000000,19.45,3,0x00000000,96.094,97.255,0.005,-0.072,-0.013,-0.017,-0.012,-3.95,0.294,-0.745,0.408,-1.962,0x00000003,0.0,0.0,-0.009,-0.0,0.002,-0.002,0.0,0.0,0.0,0.001,0.0,0.0,0.0,0.0,-0.801,-0.661,0.0,0.0,-0.801,34.991,34.991,0.0,0.0,0.0,96.484,96.094,0.0,0.0,26.375,26.25,0.0,0.0,0.0,0.0,90.0,76.711,0.109,27.438,0x00000000,0x00000000,0x00000000,0.0,1246,1279,7.985,2.084,0.0,0.0,0.02,0.011,0.0,0.0,1.0,0.981,0.981,0.981,0.196,1.0,1.0,0.462,0.584,0.57,24.267,0x00000101,192.168.0.40,8080,255.255.255.0,192.168.0.1,0xFFFFFFFF,0xFFFFFFFF,0xFFFFFFFF,0x00000000,
2.22571206093,0x00000000,0x00000000,0x00000000,0x00000000,0x00000000,0x00000000,0x00000000,0x00000000,19.5,3,0x00000000,96.094,97.255,0.005,-0.073,-0.022,0.001,-0.019,-3.949,-0.231,-0.734,0.254,-0.573,0x00000003,0.0,0.0,-0.001,0.0,0.002,-0.0,0.001,0.0,0.0,0.001,0.0,0.0,0.0,0.0,-0.674,-0.534,0.0,0.0,-0.674,34.991,34.991,0.0,0.0,0.0,96.484,96.094,0.0,0.0,26.375,26.25,0.0,0.0,0.0,0.0,90.0,76.711,0.109,27.438,0x00000000,0x00000000,0x00000000,0.0,1246,1279,6.744,3.511,0.0,0.0,0.02,0.011,0.0,0.0,1.0,0.981,0.981,0.981,0.196,1.0,1.0,0.462,0.584,0.57,24.267,0x00000101,192.168.0.40,8080,255.255.255.0,192.168.0.1,0xFFFFFFFF,0xFFFFFFFF,0xFFFFFFFF,0x00000000,
2.27577495575,0x00000000,0x00000000,0x00000000,0x00000000,0x00000000,0x00000000,0x00000000,0x00000000,19.55,3,0x00000000,96.094,97.255,0.004,-0.073,-0.001,0.001,-0.055,-3.965,-0.202,-0.705,0.955,-1.257,0x00000003,0.0,0.0,-0.005,0.0,0.001,-0.0,-0.0,0.0,0.0,0.001,0.0,0.0,0.0,0.0,-0.788,-0.623,0.0,0.0,-0.788,34.991,34.991,0.0,0.0,0.0,96.484,96.094,0.0,0.0,26.375,26.25,0.0,0.0,0.0,0.0,90.0,76.711,0.109,27.438,0x00000000,0x00000000,0x00000000,0.0,1246,1279,7.266,3.526,0.0,0.0,0.02,0.011,0.0,0.0,1.0,0.981,0.981,0.981,0.196,1.0,1.0,0.462,0.584,0.57,24.267,0x00000101,192.168.0.40,8080,255.255.255.0,192.168.0.1,0xFFFFFFFF,0xFFFFFFFF,0xFFFFFFFF,0x00000000,
2.32587504387,0x00000000,0x00000000,0x00000000,0x00000000,0x00000000,0x00000000,0x00000000,0x00000000,19.6,3,0x00000000,96.094,97.255,0.005,-0.073,-0.004,-0.026,-0.03,-3.949,0.638,-0.682,0.249,-0.572,0x00000003,0.0,0.0,0.001,0.0,0.002,-0.001,0.001,0.0,0.0,0.001,0.0,0.0,0.0,0.0,-0.788,-0.547,0.0,0.0,-0.788,34.991,34.991,0.0,0.0,0.0,96.484,96.094,0.0,0.0,26.375,26.25,0.0,0.0,0.0,0.0,90.0,76.711,0.109,27.438,0x00000000,0x00000000,0x00000000,0.0,1246,1279,4.881,4.381,0.0,0.0,0.02,0.011,0.0,0.0,1.0,0.981,0.981,0.981,0.196,1.0,1.0,0.462,0.584,0.57,24.267,0x00000101,192.168.0.40,8080,255.255.255.0,192.168.0.1,0xFFFFFFFF,0xFFFFFFFF,0xFFFFFFFF,0x00000000,
3.12717413902,0x00000000,0x00000000,0x00000000,0x00000000,0x00000000,0x00000000,0x00000000,0x00000000,20.4,3,0x00000000,96.094,97.255,0.006,-0.073,-0.011,-0.004,-0.037,-3.951,0.444,-0.543,-0.162,0.162,0x00000003,0.0,0.0,-0.004,0.0,0.003,-0.001,0.001,0.0,0.0,0.001,0.0,0.0,0.0,0.0,-0.699,-0.661,0.0,0.0,-0.699,34.991,34.991,0.0,0.0,0.0,96.484,96.094,0.0,0.0,26.375,26.25,0.0,0.0,0.0,0.0,90.0,76.711,0.109,27.438,0x00000000,0x00000000,0x00000000,0.0,1246,1279,7.832,4.131,0.0,0.0,0.021,0.012,0.0,0.0,1.0,0.981,0.981,0.981,0.196,1.0,1.0,0.462,0.584,0.57,24.267,0x00000101,192.168.0.40,8080,255.255.255.0,192.168.0.1,0xFFFFFFFF,0xFFFFFFFF,0xFFFFFFFF,0x00000000,
3.17718601227,0x00000000,0x00000000,0x00000000,0x00000000,0x00000000,0x00000000,0x00000000,0x00000000,20.45,3,0x00000000,96.094,97.255,0.005,-0.073,-0.023,-0.021,-0.037,-3.958,-0.199,-0.527,-0.25,-1.585,0x00000003,0.0,0.0,-0.002,0.0,0.001,-0.0,0.0,0.0,0.0,0.001,0.0,0.0,0.0,0.0,-0.788,-0.547,0.0,0.0,-0.788,34.991,34.991,0.0,0.0,0.0,96.484,96.094,0.0,0.0,26.375,26.25,0.0,0.0,0.0,0.0,90.0,76.711,0.109,27.438,0x00000000,0x00000000,0x00000000,0.0,1246,1279,4.913,4.118,0.0,0.0,0.021,0.012,0.0,0.0,1.0,0.981,0.981,0.981,0.196,1.0,1.0,0.462,0.584,0.57,24.267,0x00000101,192.168.0.40,8080,255.255.255.0,192.168.0.1,0xFFFFFFFF,0xFFFFFFFF,0xFFFFFFFF,0x00000000,
3.22730302811,0x00000000,0x00000000,0x00000000,0x00000000,0x00000000,0x00000000,0x00000000,0x00000000,20.5,3,0x00000000,96.094,97.255,0.005,-0.072,-0.019,-0.008,-0.018,-3.956,-0.011,-0.532,-1.427,-0.537,0x00000003,0.0,0.0,-0.0,0.0,0.002,-0.001,0.001,0.0,0.0,0.001,0.0,0.0,0.0,0.0,-0.254,-1.513,0.0,0.0,-1.513,34.991,34.991,0.0,0.0,0.0,96.484,96.094,0.0,0.0,26.375,26.25,0.0,0.0,0.0,0.0,90.0,76.711,0.109,27.438,0x00000000,0x00000000,0x00000000,0.0,1246,1279,5.306,3.937,0.0,0.0,0.022,0.012,0.0,0.0,1.0,0.981,0.981,0.981,0.196,1.0,1.0,0.462,0.584,0.57,24.267,0x00000101,192.168.0.40,8080,255.255.255.0,192.168.0.1,0xFFFFFFFF,0xFFFFFFFF,0xFFFFFFFF,0x00000000,
3.27734303474,0x00000000,0x00000000,0x00000000,0x00000000,0x00000000,0x00000000,0x00000000,0x00000000,20.55,3,0x00000000,96.094,97.255,0.005,-0.073,-0.022,-0.017,-0.019,-3.951,0.516,-0.515,0.595,0.147,0x00000003,0.0,0.0,-0.001,0.0,0.001,-0.0,0.0,0.0,0.0,0.001,0.0,0.0,0.0,0.0,-0.712,-0.572,0.0,0.0,-0.712,34.991,34.991,0.0,0.0,0.0,96.484,96.094,0.0,0.0,26.375,26.25,0.0,0.0,0.0,0.0,90.0,76.711,0.109,27.438,0x00000000,0x00000000,0x00000000,0.0,1246,1279,4.985,9.206,0.0,0.0,0.022,0.012,0.0,0.0,1.0,0.981,0.981,0.981,0.196,1.0,1.0,0.462,0.584,0.57,24.267,0x00000101,192.168.0.40,8080,255.255.255.0,192.168.0.1,0xFFFFFFFF,0xFFFFFFFF,0xFFFFFFFF,0x00000000,
3.32746195793,0x00000000,0x00000000,0x00000000,0x00000000,0x00000000,0x00000000,0x00000000,0x00000000,20.6,3,0x00000000,96.094,97.255,0.005,-0.073,-0.01,-0.017,-0.012,-3.962,0.891,-0.504,0.137,0.849,0x00000003,0.0,0.0,0.003,0.0,0.001,-0.0,0.0,0.0,0.0,0.001,0.0,0.0,0.0,0.0,-0.483,-0.559,0.0,0.0,-0.559,34.991,34.991,0.0,0.0,0.0,96.484,96.094,0.0,0.0,26.375,26.25,0.0,0.0,0.0,0.0,90.0,76.711,0.109,27.438,0x00000000,0x00000000,0x00000000,0.0,1246,1279,5.309,4.972,0.0,0.0,0.022,0.012,0.0,0.0,1.0,0.981,0.981,0.981,0.196,1.0,1.0,0.462,0.584,0.57,24.267,0x00000101,192.168.0.40,8080,255.255.255.0,192.168.0.1,0xFFFFFFFF,0xFFFFFFFF,0xFFFFFFFF,0x00000000,
4.12876605988,0x00000000,0x00000000,0x00000000,0x00000000,0x00000000,0x00000000,0x00000000,0x00000000,21.4,3,0x00000000,96.094,97.255,0.006,-0.073,-0.007,-0.017,-0.018,-4.022,-0.564,-0.417,0.498,-2.25,0x00000003,0.0,0.0,0.005,0.0,0.002,-0.0,0.001,0.0,0.0,0.001,0.0,0.0,0.0,0.0,-0.737,-0.547,0.0,0.0,-0.737,34.991,34.991,0.0,0.0,0.0,96.484,96.094,0.0,0.0,26.375,26.25,0.0,0.0,0.0,0.0,90.0,76.711,0.109,27.438,0x00000000,0x00000000,0x00000000,0.0,1246,1279,7.061,5.141,0.0,0.0,0.023,0.013,0.0,0.0,1.0,0.981,0.981,0.981,0.196,1.0,1.0,0.462,0.584,0.57,24.267,0x00000101,192.168.0.40,8080,255.255.255.0,192.168.0.1,0xFFFFFFFF,0xFFFFFFFF,0xFFFFFFFF,0x00000000,
4.178784132,0x00000000,0x00000000,0x00000000,0x00000000,0x00000000,0x00000000,0x00000000,0x00000000,21.45,3,0x00000000,96.094,97.255,0.006,-0.072,-0.017,-0.012,-0.055,-4.014,0.152,-0.425,-0.395,-0.506,0x00000003,0.0,0.0,-0.001,0.0,0.001,-0.001,0.001,0.0,0.0,0.001,0.0,0.0,0.0,0.0,-0.699,-0.661,0.0,0.0,-0.699,34.991,34.991,0.0,0.0,0.0,96.484,96.094,0.0,0.0,26.375,26.25,0.0,0.0,0.0,0.0,90.0,76.711,0.109,27.438,0x00000000,0x00000000,0x00000000,0.0,1246,1279,6.07,4.797,0.0,0.0,0.023,0.013,0.0,0.0,1.0,0.981,0.981,0.981,0.196,1.0,1.0,0.462,0.584,0.57,24.267,0x00000101,192.168.0.40,8080,255.255.255.0,192.168.0.1,0xFFFFFFFF,0xFFFFFFFF,0xFFFFFFFF,0x00000000,
4.22889614105,0x00000000,0x00000000,0x00000000,0x00000000,0x00000000,0x00000000,0x00000000,0x00000000,21.5,3,0x00000000,96.094,97.255,0.005,-0.072,-0.01,-0.021,-0.037,-4.016,-0.027,-0.413,-0.12,-0.159,0x00000003,0.0,0.0,0.001,0.0,0.002,-0.0,0.001,0.0,0.0,0.001,0.0,0.0,0.0,0.0,-0.75,-0.661,0.0,0.0,-0.75,34.991,34.991,0.0,0.0,0.0,96.484,96.094,0.0,0.0,26.375,26.25,0.0,0.0,0.0,0.0,90.0,76.711,0.109,27.438,0x00000000,0x00000000,0x00000000,0.0,1246,1279,7.623,3.75,0.0,0.0,0.023,0.013,0.0,0.0,1.0,0.981,0.981,0.981,0.196,1.0,1.0,0.462,0.584,0.57,24.267,0x00000101,192.168.0.40,8080,255.255.255.0,192.168.0.1,0xFFFFFFFF,0xFFFFFFFF,0xFFFFFFFF,0x00000000,
4.27893304825,0x00000000,0x00000000,0x00000000,0x00000000,0x00000000,0x00000000,0x00000000,0x00000000,21.55,3,0x00000000,96.094,97.255,0.005,-0.073,-0.008,-0.019,-0.015,-4.021,0.164,-0.405,-0.277,-0.676,0x00000003,0.0,0.0,-0.001,-0.0,0.002,-0.0,0.0,0.0,0.0,0.001,0.0,0.0,0.0,0.0,-0.699,-0.509,0.0,0.0,-0.699,34.991,34.991,0.0,0.0,0.0,96.484,96.094,0.0,0.0,26.375,26.25,0.0,0.0,0.0,0.0,90.0,76.711,0.109,27.438,0x00000000,0x00000000,0x00000000,0.0,1246,1279,5.085,4.737,0.0,0.0,0.023,0.013,0.0,0.0,1.0,0.981,0.981,0.981,0.196,1.0,1.0,0.462,0.584,0.57,24.267,0x00000101,192.168.0.40,8080,255.255.255.0,192.168.0.1,0xFFFFFFFF,0xFFFFFFFF,0xFFFFFFFF,0x00000000,
4.32905507088,0x00000000,0x00000000,0x00000000,0x00000000,0x00000000,0x00000000,0x00000000,0x00000000,21.6,3,0x00000000,96.094,97.255,0.005,-0.073,-0.002,-0.03,-0.006,-4.02,0.084,-0.399,-0.023,1.41,0x00000003,0.0,0.0,0.007,0.0,0.001,-0.0,0.001,0.0,0.0,0.001,0.0,0.0,0.0,0.0,-0.788,-0.572,0.0,0.0,-0.788,34.991,34.991,0.0,0.0,0.0,96.484,96.094,0.0,0.0,26.375,26.25,0.0,0.0,0.0,0.0,90.0,76.711,0.109,27.438,0x00000000,0x00000000,0x00000000,0.0,1246,1279,4.794,4.144,0.0,0.0,0.023,0.013,0.0,0.0,1.0,0.981,0.981,0.981,0.196,1.0,1.0,0.462,0.584,0.57,24.267,0x00000101,192.168.0.40,8080,255.255.255.0,192.168.0.1,0xFFFFFFFF,0xFFFFFFFF,0xFFFFFFFF,0x00000000,
5.13037514687,0x00000000,0x00000000,0x00000000,0x00000000,0x00000000,0x00000000,0x00000000,0x00000000,22.4,3,0x00000000,96.094,97.255,0.005,-0.072,0.002,-0.026,-0.024,-4.1,0.052,-0.284,0.162,-0.132,0x00000003,0.0,0.0,-0.008,0.0,0.002,-0.001,0.0,0.0,0.0,0.001,0.0,0.0,0.0,0.0,-0.598,-0.509,0.0,0.0,-0.598,34.991,34.991,0.0,0.0,0.0,96.484,96.094,0.0,0.0,26.375,26.25,0.0,0.0,0.0,0.0,90.0,76.719,0.109,27.438,0x00000000,0x00000000,0x00000000,0.0,1246,1279,7.658,4.727,0.0,0.0,0.025,0.014,0.0,0.0,1.0,0.981,0.981,0.981,0.196,1.0,1.0,0.462,0.584,0.57,24.267,0x00000101,192.168.0.40,8080,255.255.255.0,192.168.0.1,0xFFFFFFFF,0xFFFFFFFF,0xFFFFFFFF,0x00000000,
5.18037009239,0x00000000,0x00000000,0x00000000,0x00000000,0x00000000,0x00000000,0x00000000,0x00000000,22.45,3,0x00000000,96.094,97.255,0.005,-0.073,-0.021,-0.008,-0.025,-4.08,0.391,-0.286,0.408,-0.132,0x00000003,0.0,0.0,-0.009,-0.0,0.002,-0.001,0.0,0.0,0.0,0.001,0.0,0.0,0.0,0.0,-0.674,-0.623,0.0,0.0,-0.674,34.991,34.991,0.0,0.0,0.0,96.484,96.094,0.0,0.0,26.375,26.25,0.0,0.0,0.0,0.0,90.0,76.711,0.109,27.438,0x00000000,0x00000000,0x00000000,0.0,1246,1279,7.136,4.144,0.0,0.0,0.025,0.014,0.0,0.0,1.0,0.981,0.981,0.981,0.196,1.0,1.0,0.462,0.584,0.57,24.267,0x00000101,192.168.0.40,8080,255.255.255.0,192.168.0.1,0xFFFFFFFF,0xFFFFFFFF,0xFFFFFFFF,0x00000000,
5.23048710823,0x00000000,0x00000000,0x00000000,0x00000000,0x00000000,0x00000000,0x00000000,0x00000000,22.5,3,0x00000000,96.094,97.255,0.004,-0.072,-0.007,-0.008,-0.006,-4.092,-0.176,-0.274,-0.057,0.218,0x00000003,0.0,0.0,-0.001,-0.0,0.001,-0.001,0.0,0.0,0.0,0.001,0.0,0.0,0.0,0.0,-0.788,-0.661,0.0,0.0,-0.788,34.991,34.991,0.0,0.0,0.0,96.484,96.094,0.0,0.0,26.375,26.25,0.0,0.0,0.0,0.0,90.0,76.711,0.109,27.438,0x00000000,0x00000000,0x00000000,0.0,1246,1279,8.642,2.523,0.0,0.0,0.025,0.014,0.0,0.0,1.0,0.981,0.981,0.981,0.196,1.0,1.0,0.462,0.584,0.57,24.267,0x00000101,192.168.0.40,8080,255.255.255.0,192.168.0.1,0xFFFFFFFF,0xFFFFFFFF,0xFFFFFFFF,0x00000000,
5.28054714203,0x00000000,0x00000000,0x00000000,0x00000000,0x00000000,0x00000000,0x00000000,0x00000000,22.55,3,0x00000000,96.094,97.255,0.005,-0.073,-0.016,-0.008,-0.043,-4.095,-0.479,-0.265,-0.794,0.214,0x00000003,0.0,0.0,0.003,-0.0,0.002,-0.001,0.001,0.0,0.0,0.001,0.0,0.0,0.0,0.0,-0.737,-0.737,0.0,0.0,-0.737,34.991,34.991,0.0,0.0,0.0,96.484,96.094,0.0,0.0,26.375,26.25,0.0,0.0,0.0,0.0,90.0,76.711,0.109,27.438,0x00000000,0x00000000,0x00000000,0.0,1246,1279,7.813,4.684,0.0,0.0,0.025,0.014,0.0,0.0,1.0,0.981,0.981,0.981,0.196,1.0,1.0,0.462,0.584,0.57,24.267,0x00000101,192.168.0.40,8080,255.255.255.0,192.168.0.1,0xFFFFFFFF,0xFFFFFFFF,0xFFFFFFFF,0x00000000,
5.33065009117,0x00000000,0x00000000,0x00000000,0x00000000,0x00000000,0x00000000,0x00000000,0x00000000,22.6,3,0x00000000,96.094,97.255,0.005,-0.073,-0.01,-0.017,-0.024,-4.097,0.133,-0.258,-0.393,-1.164,0x00000003,0.0,0.0,0.001,-0.0,0.001,-0.0,0.0,0.0,0.0,0.001,0.0,0.0,0.0,0.0,-1.322,-0.763,0.0,0.0,-1.322,34.991,34.991,0.0,0.0,0.0,96.484,96.094,0.0,0.0,26.375,26.25,0.0,0.0,0.0,0.0,90.0,76.711,0.109,27.438,0x00000000,0x00000000,0x00000000,0.0,1246,1279,6.737,4.777,0.0,0.0,0.025,0.014,0.0,0.0,1.0,0.981,0.981,0.981,0.196,1.0,1.0,0.462,0.584,0.57,24.267,0x00000101,192.168.0.40,8080,255.255.255.0,192.168.0.1,0xFFFFFFFF,0xFFFFFFFF,0xFFFFFFFF,0x00000000,
6.13194608688,0x00000000,0x00000000,0x00000000,0x00000000,0x00000000,0x00000000,0x00000000,0x00000000,23.4,3,0x00000000,96.094,97.255,0.005,-0.073,-0.009,-0.013,0.006,-4.11,-0.455,-0.164,-0.114,-1.141,0x00000003,0.0,0.0,-0.002,0.0,0.001,-0.0,0.0,0.0,0.0,0.001,0.0,0.0,0.0,0.0,-0.598,-0.674,0.0,0.0,-0.674,34.991,34.991,0.0,0.0,0.0,96.484,96.094,0.0,0.0,26.375,26.25,0.0,0.0,0.0,0.0,90.0,76.703,0.109,27.438,0x00000000,0x00000000,0x00000000,0.0,1246,1279,5.598,4.973,0.0,0.0,0.027,0.015,0.0,0.0,1.0,0.981,0.981,0.981,0.196,1.0,1.0,0.462,0.584,0.57,24.267,0x00000101,192.168.0.40,8080,255.255.255.0,192.168.0.1,0xFFFFFFFF,0xFFFFFFFF,0xFFFFFFFF,0x00000000,
6.1819691658,0x00000000,0x00000000,0x00000000,0x00000000,0x00000000,0x00000000,0x00000000,0x00000000,23.45,3,0x00000000,96.094,97.255,0.004,-0.072,-0.005,-0.034,-0.012,-4.126,0.166,-0.149,0.529,1.282,0x00000003,0.0,0.0,-0.001,0.0,0.001,-0.0,0.0,0.0,0.0,0.001,0.0,0.0,0.0,0.0,-0.674,-0.547,0.0,0.0,-0.674,34.991,34.991,0.0,0.0,0.0,96.484,96.094,0.0,0.0,26.375,26.25,0.0,0.0,0.0,0.0,90.0,76.703,0.109,27.438,0x00000000,0x00000000,0x00000000,0.0,1246,1279,8.237,2.378,0.0,0.0,0.027,0.015,0.0,0.0,1.0,0.981,0.981,0.981,0.196,1.0,1.0,0.462,0.584,0.57,24.267,0x00000101,192.168.0.40,8080,255.255.255.0,192.168.0.1,0xFFFFFFFF,0xFFFFFFFF,0xFFFFFFFF,0x00000000,
6.23208117485,0x00000000,0x00000000,0x00000000,0x00000000,0x00000000,0x00000000,0x00000000,0x00000000,23.5,3,0x00000000,96.094,97.255,0.004,-0.072,-0.009,-0.025,-0.025,-4.124,0.225,-0.149,-0.797,-0.101,0x00000003,0.0,0.0,-0.005,-0.0,0.001,-0.001,0.0,0.0,0.0,0.001,0.0,0.0,0.0,0.0,-0.788,-0.661,0.0,0.0,-0.788,34.991,34.991,0.0,0.0,0.0,96.484,96.094,0.0,0.0,26.375,26.25,0.0,0.0,0.0,0.0,90.0,76.703,0.109,27.438,0x00000000,0x00000000,0x00000000,0.0,1246,1279,8.532,5.428,0.0,0.0,0.027,0.015,0.0,0.0,1.0,0.981,0.981,0.981,0.196,1.0,1.0,0.462,0.584,0.57,24.267,0x00000101,192.168.0.40,8080,255.255.255.0,192.168.0.1,0xFFFFFFFF,0xFFFFFFFF,0xFFFFFFFF,0x00000000,
6.28212404251,0x00000000,0x00000000,0x00000000,0x00000000,0x00000000,0x00000000,0x00000000,0x00000000,23.55,3,0x00000000,96.094,97.255,0.005,-0.073,-0.01,-0.012,-0.037,-4.14,-0.098,-0.165,-0.631,-1.49,0x00000003,0.0,0.0,-0.004,0.0,0.001,-0.001,0.001,0.0,0.0,0.001,0.0,0.0,0.0,0.0,-0.788,-0.623,0.0,0.0,-0.788,34.991,34.991,0.0,0.0,0.0,96.484,96.094,0.0,0.0,26.375,26.25,0.0,0.0,0.0,0.0,90.0,76.703,0.109,27.438,0x00000000,0x00000000,0x00000000,0.0,1246,1279,7.355,4.629,0.0,0.0,0.027,0.015,0.0,0.0,1.0,0.981,0.981,0.981,0.196,1.0,1.0,0.462,0.584,0.57,24.267,0x00000101,192.168.0.40,8080,255.255.255.0,192.168.0.1,0xFFFFFFFF,0xFFFFFFFF,0xFFFFFFFF,0x00000000,
6.332239151,0x00000000,0x00000000,0x00000000,0x00000000,0x00000000,0x00000000,0x00000000,0x00000000,23.6,3,0x00000000,96.094,97.255,0.004,-0.073,-0.018,-0.026,0.018,-4.144,-0.068,-0.146,0.631,-1.145,0x00000003,0.0,0.0,0.002,-0.0,0.002,-0.0,0.0,0.0,0.0,0.001,0.0,0.0,0.0,0.0,-0.788,-0.572,0.0,0.0,-0.788,34.991,34.991,0.0,0.0,0.0,96.484,96.094,0.0,0.0,26.375,26.25,0.0,0.0,0.0,0.0,90.0,76.703,0.109,27.438,0x00000000,0x00000000,0x00000000,0.0,1246,1279,4.892,4.585,0.0,0.0,0.027,0.015,0.0,0.0,1.0,0.981,0.981,0.981,0.196,1.0,1.0,0.462,0.584,0.57,24.267,0x00000101,192.168.0.40,8080,255.255.255.0,192.168.0.1,0xFFFFFFFF,0xFFFFFFFF,0xFFFFFFFF,0x00000000,
7.13357305527,0x00000000,0x00000000,0x00000000,0x00000000,0x00000000,0x00000000,0x00000000,0x00000000,24.4,3,0x00000000,96.094,97.255,0.004,-0.072,-0.025,-0.026,0.012,-4.159,-0.095,0.005,-0.256,0.265,0x00000003,0.0,0.0,-0.005,-0.0,0.001,-0.001,0.0,0.0,0.0,0.001,0.0,0.0,0.0,0.0,-0.788,-0.509,0.0,0.0,-0.788,34.991,34.991,0.0,0.0,0.0,96.484,96.094,0.0,0.0,26.375,26.25,0.0,0.0,0.0,0.0,90.0,76.711,0.109,27.438,0x00000000,0x00000000,0x00000000,0.0,1246,1279,8.148,6.667,0.0,0.0,0.029,0.016,0.0,0.0,1.0,0.981,0.981,0.981,0.196,1.0,1.0,0.462,0.584,0.57,24.267,0x00000101,192.168.0.40,8080,255.255.255.0,192.168.0.1,0xFFFFFFFF,0xFFFFFFFF,0xFFFFFFFF,0x00000000,
7.18355607986,0x00000000,0x00000000,0x00000000,0x00000000,0x00000000,0x00000000,0x00000000,0x00000000,24.45,3,0x00000000,96.094,97.255,0.005,-0.073,-0.005,-0.034,-0.018,-4.175,0.198,-0.003,0.195,-0.437,0x00000003,0.0,0.0,0.002,0.0,0.001,-0.0,0.0,0.0,0.0,0.001,0.0,0.0,0.0,0.0,-0.788,-0.699,0.0,0.0,-0.788,34.991,34.991,0.0,0.0,0.0,96.484,96.094,0.0,0.0,26.375,26.25,0.0,0.0,0.0,0.0,90.0,76.711,0.109,27.438,0x00000000,0x00000000,0x00000000,0.0,1246,1279,6.107,2.452,0.0,0.0,0.029,0.016,0.0,0.0,1.0,0.981,0.981,0.981,0.196,1.0,1.0,0.462,0.584,0.57,24.267,0x00000101,192.168.0.40,8080,255.255.255.0,192.168.0.1,0xFFFFFFFF,0xFFFFFFFF,0xFFFFFFFF,0x00000000,
7.23367714882,0x00000000,0x00000000,0x00000000,0x00000000,0x00000000,0x00000000,0x00000000,0x00000000,24.5,3,0x00000000,96.094,97.255,0.004,-0.073,-0.011,-0.021,-0.007,-4.185,-0.008,-0.021,-0.251,0.255,0x00000003,0.0,0.0,-0.001,0.0,0.001,0.0,0.001,0.0,0.0,0.001,0.0,0.0,0.0,0.0,-0.699,-0.509,0.0,0.0,-0.699,34.991,34.991,0.0,0.0,0.0,96.484,96.094,0.0,0.0,26.375,26.25,0.0,0.0,0.0,0.0,90.0,76.703,0.109,27.438,0x00000000,0x00000000,0x00000000,0.0,1246,1279,5.614,4.342,0.0,0.0,0.029,0.016,0.0,0.0,1.0,0.981,0.981,0.981,0.196,1.0,1.0,0.462,0.584,0.57,24.267,0x00000101,192.168.0.40,8080,255.255.255.0,192.168.0.1,0xFFFFFFFF,0xFFFFFFFF,0xFFFFFFFF,0x00000000,
7.27369308472,0x00000000,0x00000000,0x00000000,0x00000000,0x00000000,0x00000000,0x00000000,0x00000000,24.54,3,0x00000000,96.094,97.255,0.004,-0.073,-0.011,-0.025,-0.036,-4.191,-0.499,-0.019,-0.065,-0.785,0x00000003,0.0,0.0,0.008,0.0,0.002,-0.0,0.002,0.0,0.0,0.001,0.0,0.0,0.0,0.0,-0.674,-0.534,0.0,0.0,-0.674,34.991,34.991,0.0,0.0,0.0,96.484,96.094,0.0,0.0,26.375,26.25,0.0,0.0,0.0,0.0,90.0,76.703,0.109,27.438,0x00000000,0x00000000,0x00000000,0.0,1246,1279,6.653,2.921,0.0,0.0,0.029,0.016,0.0,0.0,1.0,0.981,0.981,0.981,0.196,1.0,1.0,0.462,0.584,0.57,24.267,0x00000101,192.168.0.40,8080,255.255.255.0,192.168.0.1,0xFFFFFFFF,0xFFFFFFFF,0xFFFFFFFF,0x00000000,
7.32381796837,0x00000000,0x00000000,0x00000000,0x00000000,0x00000000,0x00000000,0x00000000,0x00000000,24.59,3,0x00000000,96.094,97.255,0.005,-0.073,-0.017,0.0,0.012,-4.191,-0.1,-0.02,0.495,0.252,0x00000003,0.0,0.0,-0.002,0.0,0.002,-0.001,0.001,0.0,0.0,0.001,0.0,0.0,0.0,0.0,-0.788,-0.509,0.0,0.0,-0.788,34.991,34.991,0.0,0.0,0.0,96.484,96.094,0.0,0.0,26.375,26.25,0.0,0.0,0.0,0.0,90.0,76.703,0.109,27.438,0x00000000,0x00000000,0x00000000,0.0,1246,1279,5.48,3.172,0.0,0.0,0.029,0.016,0.0,0.0,1.0,0.981,0.981,0.981,0.196,1.0,1.0,0.462,0.584,0.57,24.267,0x00000101,192.168.0.40,8080,255.255.255.0,192.168.0.1,0xFFFFFFFF,0xFFFFFFFF,0xFFFFFFFF,0x00000000,
8.12512302399,0x00000000,0x00000000,0x00000000,0x00000000,0x00000000,0x00000000,0x00000000,0x00000000,25.39,3,0x00000000,96.094,97.255,0.005,-0.073,-0.015,-0.017,-0.018,-4.245,-0.048,0.035,-0.192,0.972,0x00000003,0.0,0.0,0.003,-0.0,0.002,-0.0,0.0,0.0,0.0,0.001,0.0,0.0,0.0,0.0,-0.75,0.559,0.0,0.0,-0.75,34.991,34.991,0.0,0.0,0.0,96.484,96.094,0.0,0.0,26.375,26.25,0.0,0.0,0.0,0.0,90.0,76.703,0.109,27.438,0x00000000,0x00000000,0x00000000,0.0,1246,1279,7.387,5.39,0.0,0.0,0.03,0.017,0.0,0.0,1.0,0.981,0.981,0.981,0.196,1.0,1.0,0.462,0.584,0.57,24.267,0x00000101,192.168.0.40,8080,255.255.255.0,192.168.0.1,0xFFFFFFFF,0xFFFFFFFF,0xFFFFFFFF,0x00000000,
8.17512702942,0x00000000,0x00000000,0x00000000,0x00000000,0x00000000,0x00000000,0x00000000,0x00000000,25.44,3,0x00000000,96.094,97.255,0.005,-0.073,-0.009,-0.017,-0.012,-4.256,-0.298,0.035,-0.009,-0.067,0x00000003,0.0,0.0,-0.001,0.0,0.001,-0.0,0.0,0.0,0.0,0.001,0.0,0.0,0.0,0.0,-0.254,0.331,0.0,0.0,0.331,34.991,34.991,0.0,0.0,0.0,96.484,96.094,0.0,0.0,26.375,26.25,0.0,0.0,0.0,0.0,90.0,76.703,0.109,27.438,0x00000000,0x00000000,0x00000000,0.0,1246,1279,5.216,1.203,0.0,0.0,0.03,0.017,0.0,0.0,1.0,0.981,0.981,0.981,0.196,1.0,1.0,0.462,0.584,0.57,24.267,0x00000101,192.168.0.40,8080,255.255.255.0,192.168.0.1,0xFFFFFFFF,0xFFFFFFFF,0xFFFFFFFF,0x00000000,
8.2252509594,0x00000000,0x00000000,0x00000000,0x00000000,0x00000000,0x00000000,0x00000000,0x00000000,25.49,3,0x00000000,96.094,97.255,0.005,-0.072,0.0,-0.026,-0.018,-4.257,0.15,0.049,0.436,-0.759,0x00000003,0.0,0.0,-0.006,0.0,0.001,-0.0,0.0,0.0,0.0,0.001,0.0,0.0,0.0,0.0,0.369,-0.712,0.0,0.0,-0.712,34.991,34.991,0.0,0.0,0.0,96.484,96.094,0.0,0.0,26.375,26.25,0.0,0.0,0.0,0.0,90.0,76.703,0.109,27.438,0x00000000,0x00000000,0x00000000,0.0,1246,1279,6.309,4.1,0.0,0.0,0.031,0.017,0.0,0.0,1.0,0.981,0.981,0.981,0.196,1.0,1.0,0.462,0.584,0.57,24.267,0x00000101,192.168.0.40,8080,255.255.255.0,192.168.0.1,0xFFFFFFFF,0xFFFFFFFF,0xFFFFFFFF,0x00000000,
8.27531003952,0x00000000,0x00000000,0x00000000,0x00000000,0x00000000,0x00000000,0x00000000,0x00000000,25.54,3,0x00000000,96.094,97.255,0.004,-0.072,-0.012,-0.008,-0.006,-4.264,-0.658,0.046,-0.522,-0.413,0x00000003,0.0,0.0,0.007,0.0,0.002,-0.0,0.002,0.0,0.0,0.001,0.0,0.0,0.0,0.0,-0.877,-0.547,0.0,0.0,-0.877,34.991,34.991,0.0,0.0,0.0,96.484,96.094,0.0,0.0,26.375,26.25,0.0,0.0,0.0,0.0,90.0,76.703,0.109,27.438,0x00000000,0x00000000,0x00000000,0.0,1246,1279,6.831,3.731,0.0,0.0,0.031,0.017,0.0,0.0,1.0,0.981,0.981,0.981,0.196,1.0,1.0,0.462,0.584,0.57,24.267,0x00000101,192.168.0.40,8080,255.255.255.0,192.168.0.1,0xFFFFFFFF,0xFFFFFFFF,0xFFFFFFFF,0x00000000,
8.32541298866,0x00000000,0x00000000,0x00000000,0x00000000,0x00000000,0x00000000,0x00000000,0x00000000,25.59,3,0x00000000,96.094,97.255,0.005,-0.072,-0.006,-0.026,-0.024,-4.243,0.851,0.066,0.7,-0.409,0x00000003,0.0,0.0,-0.005,0.0,0.002,-0.0,0.0,0.0,0.0,0.001,0.0,0.0,0.0,0.0,-0.788,-0.661,0.0,0.0,-0.788,34.991,34.991,0.0,0.0,0.0,96.484,96.094,0.0,0.0,26.375,26.25,0.0,0.0,0.0,0.0,90.0,76.703,0.109,27.438,0x00000000,0x00000000,0x00000000,0.0,1246,1279,7.078,4.721,0.0,0.0,0.031,0.017,0.0,0.0,1.0,0.981,0.981,0.981,0.196,1.0,1.0,0.462,0.584,0.57,24.267,0x00000101,192.168.0.40,8080,255.255.255.0,192.168.0.1,0xFFFFFFFF,0xFFFFFFFF,0xFFFFFFFF,0x00000000,
9.12673211098,0x00000000,0x00000000,0x00000000,0x00000000,0x00000000,0x00000000,0x00000000,0x00000000,26.39,3,0x00000000,96.094,97.255,0.005,-0.073,-0.004,-0.021,-0.037,-4.238,-0.166,0.12,-0.517,-0.387,0x00000003,0.0,0.0,0.009,-0.0,0.002,-0.0,0.001,0.0,0.0,0.001,0.0,0.0,0.0,0.0,-0.788,-0.572,0.0,0.0,-0.788,34.991,34.991,0.0,0.0,0.0,96.484,96.094,0.0,0.0,26.375,26.25,0.0,0.0,0.0,0.0,90.0,76.703,0.109,27.438,0x00000000,0x00000000,0x00000000,0.0,1246,1279,6.254,2.524,0.0,0.0,0.032,0.018,0.0,0.0,1.0,0.981,0.981,0.981,0.196,1.0,1.0,0.462,0.584,0.57,24.267,0x00000101,192.168.0.40,8080,255.255.255.0,192.168.0.1,0xFFFFFFFF,0xFFFFFFFF,0xFFFFFFFF,0x00000000,
9.17672395706,0x00000000,0x00000000,0x00000000,0x00000000,0x00000000,0x00000000,0x00000000,0x00000000,26.44,3,0x00000000,96.094,97.255,0.005,-0.073,-0.004,-0.004,-0.024,-4.229,-0.642,0.125,-0.441,0.645,0x00000003,0.0,0.0,0.003,0.0,0.001,-0.0,0.0,0.0,0.0,0.001,0.0,0.0,0.0,0.0,-0.788,-0.623,0.0,0.0,-0.788,34.991,34.991,0.0,0.0,0.0,96.484,96.094,0.0,0.0,26.375,26.25,0.0,0.0,0.0,0.0,90.0,76.703,0.109,27.438,0x00000000,0x00000000,0x00000000,0.0,1246,1279,8.24,4.677,0.0,0.0,0.032,0.018,0.0,0.0,1.0,0.981,0.981,0.981,0.196,1.0,1.0,0.462,0.584,0.57,24.267,0x00000101,192.168.0.40,8080,255.255.255.0,192.168.0.1,0xFFFFFFFF,0xFFFFFFFF,0xFFFFFFFF,0x00000000,
9.22684597969,0x00000000,0x00000000,0x00000000,0x00000000,0x00000000,0x00000000,0x00000000,0x00000000,26.49,3,0x00000000,96.094,97.255,0.004,-0.073,-0.011,-0.021,-0.012,-4.225,0.048,0.145,-0.159,-2.464,0x00000003,0.0,0.0,-0.001,0.0,0.001,-0.0,0.0,0.0,0.0,0.001,0.0,0.0,0.0,0.0,-0.699,-0.661,0.0,0.0,-0.699,34.991,34.991,0.0,0.0,0.0,96.484,96.094,0.0,0.0,26.375,26.25,0.0,0.0,0.0,0.0,90.0,76.703,0.109,27.438,0x00000000,0x00000000,0x00000000,0.0,1246,1279,8.958,4.428,0.0,0.0,0.032,0.018,0.0,0.0,1.0,0.981,0.981,0.981,0.196,1.0,1.0,0.462,0.584,0.57,24.267,0x00000101,192.168.0.40,8080,255.255.255.0,192.168.0.1,0xFFFFFFFF,0xFFFFFFFF,0xFFFFFFFF,0x00000000,
9.27688407898,0x00000000,0x00000000,0x00000000,0x00000000,0x00000000,0x00000000,0x00000000,0x00000000,26.54,3,0x00000000,96.094,97.255,0.004,-0.073,-0.007,-0.008,-0.018,-4.221,-0.001,0.133,-0.07,-1.067,0x00000003,0.0,0.0,-0.004,0.0,0.002,-0.001,0.001,0.0,0.0,0.001,0.0,0.0,0.0,0.0,-0.712,-0.699,0.0,0.0,-0.712,34.991,34.991,0.0,0.0,0.0,96.484,96.094,0.0,0.0,26.375,26.25,0.0,0.0,0.0,0.0,90.0,76.703,0.109,27.438,0x00000000,0x00000000,0x00000000,0.0,1246,1279,8.989,4.759,0.0,0.0,0.032,0.018,0.0,0.0,1.0,0.981,0.981,0.981,0.196,1.0,1.0,0.462,0.584,0.57,24.267,0x00000101,192.168.0.40,8080,255.255.255.0,192.168.0.1,0xFFFFFFFF,0xFFFFFFFF,0xFFFFFFFF,0x00000000,
9.32700514793,0x00000000,0x00000000,0x00000000,0x00000000,0x00000000,0x00000000,0x00000000,0x00000000,26.59,3,0x00000000,96.094,97.255,0.005,-0.072,-0.006,-0.013,-0.031,-4.22,-0.38,0.14,0.838,1.355,0x00000003,0.0,0.0,-0.007,0.0,0.001,-0.001,0.0,0.0,0.0,0.001,0.0,0.0,0.0,0.0,-0.788,-0.661,0.0,0.0,-0.788,34.991,34.991,0.0,0.0,0.0,96.484,96.094,0.0,0.0,26.375,26.25,0.0,0.0,0.0,0.0,90.0,76.703,0.109,27.438,0x00000000,0x00000000,0x00000000,0.0,1246,1279,4.948,5.969,0.0,0.0,0.032,0.018,0.0,0.0,1.0,0.981,0.981,0.981,0.196,1.0,1.0,0.462,0.584,0.57,24.267,0x00000101,192.168.0.40,8080,255.255.255.0,192.168.0.1,0xFFFFFFFF,0xFFFFFFFF,0xFFFFFFFF,0x00000000,
10.1283080578,0x00000000,0x00000000,0x00000000,0x00000000,0x00000000,0x00000000,0x00000000,0x00000000,27.39,3,0x00000000,96.094,97.255,0.005,-0.071,0.001,-0.017,-0.031,-4.193,-0.174,0.154,0.256,-0.015,0x00000003,0.0,0.0,-0.002,0.0,0.0,-0.0,0.0,0.0,0.0,0.001,0.0,0.0,0.0,0.0,-0.712,-0.547,0.0,0.0,-0.712,34.991,34.991,0.0,0.0,0.0,96.484,96.094,0.0,0.0,26.375,26.25,0.0,0.0,0.0,0.0,90.0,76.711,0.109,27.438,0x00000000,0x00000000,0x00000000,0.0,1246,1279,4.788,4.782,0.0,0.0,0.034,0.019,0.0,0.0,1.0,0.981,0.981,0.981,0.196,1.0,1.0,0.462,0.584,0.57,24.267,0x00000101,192.168.0.40,8080,255.255.255.0,192.168.0.1,0xFFFFFFFF,0xFFFFFFFF,0xFFFFFFFF,0x00000000,
10.1783151627,0x00000000,0x00000000,0x00000000,0x00000000,0x00000000,0x00000000,0x00000000,0x00000000,27.44,3,0x00000000,96.094,97.255,0.005,-0.072,-0.018,-0.004,-0.006,-4.166,0.463,0.159,-0.881,1.733,0x00000003,0.0,0.0,-0.002,0.0,0.0,-0.0,0.0,0.0,0.0,0.001,0.0,0.0,0.0,0.0,-0.712,-0.699,0.0,0.0,-0.712,34.991,34.991,0.0,0.0,0.0,96.484,96.094,0.0,0.0,26.375,26.25,0.0,0.0,0.0,0.0,90.0,76.711,0.109,27.438,0x00000000,0x00000000,0x00000000,0.0,1246,1279,5.971,6.032,0.0,0.0,0.034,0.019,0.0,0.0,1.0,0.981,0.981,0.981,0.196,1.0,1.0,0.462,0.584,0.57,24.267,0x00000101,192.168.0.40,8080,255.255.255.0,192.168.0.1,0xFFFFFFFF,0xFFFFFFFF,0xFFFFFFFF,0x00000000,
10.228441,0x00000000,0x00000000,0x00000000,0x00000000,0x00000000,0x00000000,0x00000000,0x00000000,27.49,3,0x00000000,96.094,97.255,0.005,-0.074,-0.008,-0.034,-0.031,-4.167,0.149,0.177,0.726,-0.358,0x00000003,0.0,0.0,-0.007,0.0,0.001,-0.001,0.0,0.0,0.0,0.001,0.0,0.0,0.0,0.0,-0.712,-0.661,0.0,0.0,-0.712,34.991,34.991,0.0,0.0,0.0,96.484,96.094,0.0,0.0,26.375,26.25,0.0,0.0,0.0,0.0,90.0,76.711,0.109,27.438,0x00000000,0x00000000,0x00000000,0.0,1246,1279,4.833,4.64,0.0,0.0,0.034,0.019,0.0,0.0,1.0,0.981,0.981,0.981,0.196,1.0,1.0,0.462,0.584,0.57,24.267,0x00000101,192.168.0.40,8080,255.255.255.0,192.168.0.1,0xFFFFFFFF,0xFFFFFFFF,0xFFFFFFFF,0x00000000,
10.278470993,0x00000000,0x00000000,0x00000000,0x00000000,0x00000000,0x00000000,0x00000000,0x00000000,27.54,3,0x00000000,96.094,97.255,0.003,-0.073,0.002,-0.03,-0.018,-4.15,0.593,0.155,0.087,1.384,0x00000003,0.0,0.0,-0.001,-0.0,0.001,-0.0,0.0,0.0,0.0,0.001,0.0,0.0,0.0,0.0,-1.755,0.051,0.0,0.0,-1.755,34.991,34.991,0.0,0.0,0.0,96.484,96.094,0.0,0.0,26.375,26.25,0.0,0.0,0.0,0.0,90.0,76.703,0.109,27.438,0x00000000,0x00000000,0x00000000,0.0,1246,1279,8.839,4.433,0.0,0.0,0.034,0.02,0.0,0.0,1.0,0.981,0.981,0.981,0.196,1.0,1.0,0.462,0.584,0.57,24.267,0x00000101,192.168.0.40,8080,255.255.255.0,192.168.0.1,0xFFFFFFFF,0xFFFFFFFF,0xFFFFFFFF,0x00000000,
10.3285989761,0x00000000,0x00000000,0x00000000,0x00000000,0x00000000,0x00000000,0x00000000,0x00000000,27.59,3,0x00000000,96.094,97.255,0.004,-0.074,0.003,-0.015,-0.027,-4.122,0.984,0.15,-0.339,-1.399,0x00000003,0.0,0.0,-0.006,-0.0,0.001,-0.001,0.0,0.0,0.0,0.001,0.0,0.0,0.0,0.0,-1.564,0.496,0.0,0.0,-1.564,34.991,34.991,0.0,0.0,0.0,96.484,96.094,0.0,0.0,26.375,26.25,0.0,0.0,0.0,0.0,90.0,76.703,0.109,27.438,0x00000000,0x00000000,0x00000000,0.0,1246,1279,5.591,4.751,0.0,0.0,0.034,0.02,0.0,0.0,1.0,0.981,0.981,0.981,0.196,1.0,1.0,0.462,0.584,0.57,24.267,0x00000101,192.168.0.40,8080,255.255.255.0,192.168.0.1,0xFFFFFFFF,0xFFFFFFFF,0xFFFFFFFF,0x00000000,
11.1299159527,0x00000000,0x00000000,0x00000000,0x00000000,0x00000000,0x00000000,0x00000000,0x00000000,28.39,3,0x00000000,96.094,97.255,0.005,-0.044,-0.049,-0.012,-0.037,-2.829,-2.026,0.218,0.274,-0.371,0x00000003,0.0,0.0,-0.001,0.0,0.001,-0.0,0.0,0.0,0.0,0.001,0.0,0.0,0.0,0.0,-0.674,-0.509,0.0,0.0,-0.674,34.991,34.991,0.0,0.0,0.0,96.484,96.094,0.0,0.0,26.375,26.25,0.0,0.0,0.0,0.0,90.0,76.703,0.109,27.438,0x00000000,0x00000000,0x00000000,0.0,1246,1279,8.916,4.26,0.0,0.0,0.036,0.021,0.0,0.0,1.0,0.981,0.981,0.981,0.196,1.0,1.0,0.462,0.584,0.57,24.267,0x00000101,192.168.0.40,8080,255.255.255.0,192.168.0.1,0xFFFFFFFF,0xFFFFFFFF,0xFFFFFFFF,0x00000000,
11.1799061298,0x00000000,0x00000000,0x00000000,0x00000000,0x00000000,0x00000000,0x00000000,0x00000000,28.44,3,0x00000000,96.094,97.255,0.006,-0.046,-0.071,-0.007,-0.013,-2.946,-2.168,0.222,0.745,-1.074,0x00000003,0.0,0.0,-0.008,-0.0,0.001,-0.001,0.0,0.0,0.0,0.001,0.0,0.0,0.0,0.0,-0.814,-0.648,0.0,0.0,-0.814,34.991,34.991,0.0,0.0,0.0,96.484,96.094,0.0,0.0,26.375,26.25,0.0,0.0,0.0,0.0,90.0,76.703,0.109,27.438,0x00000000,0x00000000,0x00000000,0.0,1246,1279,8.38,3.206,0.0,0.0,0.036,0.021,0.0,0.0,1.0,0.981,0.981,0.981,0.196,1.0,1.0,0.462,0.584,0.57,24.267,0x00000101,192.168.0.40,8080,255.255.255.0,192.168.0.1,0xFFFFFFFF,0xFFFFFFFF,0xFFFFFFFF,0x00000000,
11.2300341129,0x00000000,0x00000000,0x00000000,0x00000000,0x00000000,0x00000000,0x00000000,0x00000000,28.49,3,0x00000000,96.094,97.255,0.005,-0.049,-0.073,-0.034,0.005,-3.107,-3.578,0.212,-0.171,0.31,0x00000003,0.0,0.0,0.003,-0.0,0.001,-0.0,0.0,0.0,0.0,0.001,0.0,0.0,0.0,0.0,-0.903,-0.509,0.0,0.0,-0.903,34.991,34.991,0.0,0.0,0.0,96.484,96.094,0.0,0.0,26.375,26.25,0.0,0.0,0.0,0.0,90.0,76.703,0.109,27.438,0x00000000,0x00000000,0x00000000,0.0,1246,1279,7.687,4.078,0.0,0.0,0.036,0.021,0.0,0.0,1.0,0.981,0.981,0.981,0.196,1.0,1.0,0.462,0.584,0.57,24.267,0x00000101,192.168.0.40,8080,255.255.255.0,192.168.0.1,0xFFFFFFFF,0xFFFFFFFF,0xFFFFFFFF,0x00000000,
11.2800631523,0x00000000,0x00000000,0x00000000,0x00000000,0x00000000,0x00000000,0x00000000,0x00000000,28.54,3,0x00000000,96.094,97.255,0.005,-0.056,-0.067,-0.016,-0.037,-3.276,-3.118,0.223,0.803,-0.047,0x00000003,0.0,0.0,-0.002,-0.0,0.001,-0.001,0.0,0.0,0.0,0.001,0.0,0.0,0.0,0.0,-0.903,-0.534,0.0,0.0,-0.903,34.991,34.991,0.0,0.0,0.0,96.484,96.094,0.0,0.0,26.375,26.25,0.0,0.0,0.0,0.0,90.0,76.711,0.109,27.438,0x00000000,0x00000000,0x00000000,0.0,1246,1279,5.087,3.597,0.0,0.0,0.036,0.021,0.0,0.0,1.0,0.981,0.981,0.981,0.196,1.0,1.0,0.462,0.584,0.57,24.267,0x00000101,192.168.0.40,8080,255.255.255.0,192.168.0.1,0xFFFFFFFF,0xFFFFFFFF,0xFFFFFFFF,0x00000000,
11.3301930428,0x00000000,0x00000000,0x00000000,0x00000000,0x00000000,0x00000000,0x00000000,0x00000000,28.59,3,0x00000000,96.094,97.255,0.002,-0.062,-0.045,-0.016,-0.025,-3.426,-2.639,0.211,-0.41,0.661,0x00000003,0.0,0.0,0.003,0.0,0.002,-0.0,0.0,0.0,0.0,0.001,0.0,0.0,0.0,0.0,-0.814,-0.534,0.0,0.0,-0.814,34.991,34.991,0.0,0.0,0.0,96.484,96.094,0.0,0.0,26.375,26.25,0.0,0.0,0.0,0.0,90.0,76.711,0.109,27.438,0x00000000,0x00000000,0x00000000,0.0,1246,1279,5.133,4.391,0.0,0.0,0.036,0.021,0.0,0.0,1.0,0.981,0.981,0.981,0.196,1.0,1.0,0.462,0.584,0.57,24.267,0x00000101,192.168.0.40,8080,255.255.255.0,192.168.0.1,0xFFFFFFFF,0xFFFFFFFF,0xFFFFFFFF,0x00000000,
12.131508112,0x00000000,0x00000000,0x00000000,0x00000000,0x00000000,0x00000000,0x00000000,0x00000000,29.39,5,0x00000000,96.094,97.255,0.004,-0.002,0.093,-0.023,0.0,-0.118,6.564,0.279,-0.577,0.781,0x00000003,0.06,0.059,-0.001,-0.0,0.002,-0.001,0.0,0.0,0.0,0.001,0.0,0.0,0.0,0.0,0.254,-0.203,0.0,0.0,0.254,34.991,34.991,0.0,0.0,0.0,96.484,96.094,0.0,0.0,26.375,26.25,0.0,0.0,0.0,0.0,90.0,76.711,0.109,27.438,0x00000000,0x00000000,0x00000000,0.0,1246,1279,4.991,0.674,0.0,0.0,0.037,0.022,0.0,0.0,1.0,0.981,0.981,0.981,0.196,1.0,1.0,0.462,0.584,0.57,24.267,0x00000101,192.168.0.40,8080,255.255.255.0,192.168.0.1,0xFFFFFFFF,0xFFFFFFFF,0xFFFFFFFF,0x00000000,
12.1815030575,0x00000000,0x00000000,0x00000000,0x00000000,0x00000000,0x00000000,0x00000000,0x00000000,29.44,5,0x00000000,96.094,97.255,0.005,-0.005,0.075,-0.022,-0.006,0.183,5.428,0.283,-0.323,1.116,0x00000003,0.11,0.108,0.016,0.0,0.002,-0.0,0.002,0.0,0.0,0.001,0.0,0.0,0.0,0.0,2.136,1.958,0.0,0.0,2.136,34.991,34.991,0.0,0.0,0.0,96.484,96.094,0.0,0.0,26.375,26.25,0.0,0.0,0.0,0.01,90.0,76.711,0.109,27.438,0x00000000,0x00000000,0x00000000,0.0,1246,1279,5.764,4.265,0.0,0.0,0.038,0.022,0.0,0.0,1.0,0.981,0.981,0.981,0.196,1.0,1.0,0.462,0.584,0.57,24.267,0x00000101,192.168.0.40,8080,255.255.255.0,192.168.0.1,0xFFFFFFFF,0xFFFFFFFF,0xFFFFFFFF,0x00000000,
12.2316441536,0x00000000,0x00000000,0x00000000,0x00000000,0x00000000,0x00000000,0x00000000,0x00000000,29.49,5,0x00000000,96.094,97.255,0.006,-0.017,-0.002,-0.013,-0.006,0.367,1.939,0.296,0.251,-1.008,0x00000003,0.16,0.157,0.518,0.011,0.003,0.037,0.036,0.0,0.0,0.001,0.001,0.0,0.0,0.001,2.365,3.764,0.0,0.0,3.764,34.991,34.991,0.0,0.0,0.0,96.484,96.094,0.0,0.0,26.375,26.25,0.0,0.0,0.0,0.06,90.0,76.711,0.109,27.438,0x00000000,0x00000000,0x00000000,0.0,1246,1279,5.162,7.139,0.0,0.0,0.038,0.022,0.0,0.0,1.0,0.981,0.981,0.981,0.196,1.0,1.0,0.462,0.584,0.57,24.267,0x00000101,192.168.0.40,8080,255.255.255.0,192.168.0.1,0xFFFFFFFF,0xFFFFFFFF,0xFFFFFFFF,0x00000000,
12.2816569805,0x00000000,0x00000000,0x00000000,0x00000000,0x00000000,0x00000000,0x00000000,0x00000000,29.54,5,0x00000000,96.094,97.255,0.006,-0.032,-0.07,-0.016,0.018,0.365,-3.509,0.302,0.02,2.733,0x00000003,0.21,0.206,0.574,0.042,0.024,0.047,0.092,0.0,0.0,0.004,0.004,0.0,0.0,0.003,0.979,4.526,0.0,0.0,4.526,34.991,34.991,0.0,0.0,0.0,96.484,96.094,0.0,0.0,26.375,26.25,0.0,0.0,0.0,0.11,90.0,76.711,0.109,27.438,0x00000000,0x00000000,0x00000000,0.0,1246,1279,4.798,12.763,0.0,0.0,0.038,0.022,0.0,0.0,1.0,0.981,0.981,0.981,0.196,1.0,1.0,0.462,0.584,0.57,24.267,0x00000101,192.168.0.40,8080,255.255.255.0,192.168.0.1,0xFFFFFFFF,0xFFFFFFFF,0xFFFFFFFF,0x00000000,
12.3318030834,0x00000000,0x00000000,0x00000000,0x00000000,0x00000000,0x00000000,0x00000000,0x00000000,29.59,5,0x00000000,96.094,97.255,0.003,-0.027,-0.126,-0.012,0.138,0.147,-6.313,0.308,0.241,8.245,0x00000003,0.26,0.255,0.393,0.068,0.08,0.048,0.126,0.0,0.0,0.006,0.009,0.0,0.0,0.007,-0.687,3.662,0.0,0.0,3.662,34.991,34.991,0.0,0.0,0.0,96.484,96.094,0.0,0.0,26.375,26.25,0.0,0.0,0.0,0.16,90.0,76.703,0.109,27.438,0x00000000,0x00000000,0x00000000,0.0,1246,1279,13.57,11.715,0.0,0.0,0.038,0.022,0.0,0.0,1.0,0.981,0.981,0.981,0.196,1.0,1.0,0.462,0.584,0.57,24.267,0x00000101,192.168.0.40,8080,255.255.255.0,192.168.0.1,0xFFFFFFFF,0xFFFFFFFF,0xFFFFFFFF,0x00000000,
13.1331210136,0x00000000,0x00000000,0x00000000,0x00000000,0x00000000,0x00000000,0x00000000,0x00000000,30.39,5,0x00000000,96.094,97.255,0.005,0.004,-0.049,-0.005,0.151,0.292,-1.979,0.525,0.399,8.959,0x00000003,1.0,1.0,0.063,0.032,0.238,-0.005,0.074,0.0,0.0,-0.073,0.087,0.0,0.0,0.008,-2.34,5.048,0.0,0.0,5.048,34.991,34.991,0.0,0.0,0.0,96.484,96.094,0.0,0.0,26.375,26.25,0.0,0.0,0.0,0.24,90.0,76.703,0.109,27.438,0x00000000,0x00000000,0x00000000,0.0,1246,1279,4.89,9.527,0.0,0.0,0.041,0.025,0.0,0.0,1.0,0.981,0.981,0.981,0.196,1.0,1.0,0.462,0.584,0.57,24.267,0x00000101,192.168.0.40,8080,255.255.255.0,192.168.0.1,0xFFFFFFFF,0xFFFFFFFF,0xFFFFFFFF,0x00000000,
13.1830971241,0x00000000,0x00000000,0x00000000,0x00000000,0x00000000,0x00000000,0x00000000,0x00000000,30.44,5,0x00000000,96.094,97.255,0.008,-0.009,-0.086,-0.009,0.138,0.176,-3.618,0.545,0.191,8.942,0x00000003,1.0,1.0,0.264,0.042,0.199,-0.0,0.11,0.0,0.0,-0.073,0.092,0.0,0.0,0.01,-2.441,5.62,0.0,0.0,5.62,34.991,34.991,0.0,0.0,0.0,96.484,96.094,0.0,0.0,26.375,26.25,0.0,0.0,0.0,0.19,90.0,76.703,0.109,27.438,0x00000000,0x00000000,0x00000000,0.0,1246,1279,13.935,14.136,0.0,0.0,0.041,0.025,0.0,0.0,1.0,0.981,0.981,0.981,0.196,1.0,1.0,0.462,0.584,0.57,24.267,0x00000101,192.168.0.40,8080,255.255.255.0,192.168.0.1,0xFFFFFFFF,0xFFFFFFFF,0xFFFFFFFF,0x00000000,
13.2332210541,0x00000000,0x00000000,0x00000000,0x00000000,0x00000000,0x00000000,0x00000000,0x00000000,30.49,5,0x00000000,96.094,97.255,0.004,-0.013,-0.089,-0.018,0.211,-0.008,-4.042,0.543,-0.305,12.408,0x00000003,1.0,1.0,0.139,0.054,0.208,-0.001,0.122,0.0,0.0,-0.073,0.098,0.0,0.0,0.013,-1.984,3.903,0.0,0.0,3.903,34.991,34.991,0.0,0.0,0.0,96.484,96.094,0.0,0.0,26.375,26.25,0.0,0.0,0.0,0.14,90.0,76.703,0.109,27.438,0x00000000,0x00000000,0x00000000,0.0,1246,1279,14.326,14.335,0.0,0.0,0.041,0.025,0.0,0.0,1.0,0.981,0.981,0.981,0.196,1.0,1.0,0.462,0.584,0.57,24.267,0x00000101,192.168.0.40,8080,255.255.255.0,192.168.0.1,0xFFFFFFFF,0xFFFFFFFF,0xFFFFFFFF,0x00000000,
13.2832520008,0x00000000,0x00000000,0x00000000,0x00000000,0x00000000,0x00000000,0x00000000,0x00000000,30.54,5,0x00000000,96.094,97.255,0.004,-0.004,-0.078,-0.017,0.138,-0.21,-3.547,0.55,0.981,10.342,0x00000003,1.0,1.0,-0.057,0.055,0.199,0.002,0.103,0.0,0.0,-0.073,0.103,0.0,0.0,0.015,-0.559,1.538,0.0,0.0,1.538,34.991,34.991,0.0,0.0,0.0,96.484,96.094,0.0,0.0,26.375,26.25,0.0,0.0,0.0,0.09,90.0,76.703,0.109,27.438,0x00000000,0x00000000,0x00000000,0.0,1246,1279,5.555,5.013,0.0,0.0,0.041,0.025,0.0,0.0,1.0,0.981,0.981,0.981,0.196,1.0,1.0,0.462,0.584,0.57,24.267,0x00000101,192.168.0.40,8080,255.255.255.0,192.168.0.1,0xFFFFFFFF,0xFFFFFFFF,0xFFFFFFFF,0x00000000,
13.3333690166,0x00000000,0x00000000,0x00000000,0x00000000,0x00000000,0x00000000,0x00000000,0x00000000,30.59,5,0x00000000,96.094,97.255,0.004,0.007,-0.045,-0.008,0.005,-0.368,-1.84,0.544,0.275,2.053,0x00000003,1.0,1.0,-0.087,0.049,0.128,0.038,0.052,0.0,0.0,-0.072,0.106,0.0,0.0,0.017,-0.877,0.839,0.0,0.0,-0.877,34.991,34.991,0.0,0.0,0.0,96.484,96.094,0.0,0.0,26.375,26.25,0.0,0.0,0.0,0.04,90.0,76.711,0.102,27.438,0x00000000,0x00000000,0x00000000,0.0,1246,1279,5.45,4.791,0.0,0.0,0.041,0.025,0.0,0.0,1.0,0.981,0.981,0.981,0.196,1.0,1.0,0.462,0.584,0.57,24.267,0x00000101,192.168.0.40,8080,255.255.255.0,192.168.0.1,0xFFFFFFFF,0xFFFFFFFF,0xFFFFFFFF,0x00000000,
14.1346981525,0x00000000,0x00000000,0x00000000,0x00000000,0x00000000,0x00000000,0x00000000,0x00000000,31.39,5,0x00000000,96.094,97.255,0.006,0.015,-0.023,-0.025,-0.079,-1.395,-1.759,0.605,-0.78,-3.793,0x00000003,1.0,1.0,-0.453,0.065,-0.031,0.06,0.025,0.0,0.0,-0.042,0.133,0.0,0.0,0.045,-0.636,0.407,0.0,0.0,-0.636,34.991,34.991,0.0,0.0,0.0,96.484,96.094,0.0,0.0,26.375,26.25,0.0,0.0,0.0,0.0,90.0,76.703,0.109,27.5,0x00000000,0x00000000,0x00000000,0.0,1246,1279,5.843,1.996,0.0,0.0,0.043,0.027,0.0,0.0,1.0,0.981,0.981,0.981,0.196,1.0,1.0,0.462,0.584,0.57,24.267,0x00000101,192.168.0.40,8080,255.255.255.0,192.168.0.1,0xFFFFFFFF,0xFFFFFFFF,0xFFFFFFFF,0x00000000,
14.1846880913,0x00000000,0x00000000,0x00000000,0x00000000,0x00000000,0x00000000,0x00000000,0x00000000,31.44,5,0x00000000,96.094,97.255,0.005,0.018,0.001,-0.017,-0.006,-1.447,-0.307,0.607,-0.05,-3.072,0x00000003,1.0,1.0,-0.602,0.037,-0.04,0.014,0.003,0.0,0.0,-0.041,0.134,0.0,0.0,0.046,-1.348,0.42,0.0,0.0,-1.348,34.991,34.991,0.0,0.0,0.0,96.484,96.094,0.0,0.0,26.375,26.25,0.0,0.0,0.01,0.0,90.0,76.703,0.109,27.5,0x00000000,0x00000000,0x00000000,0.0,1246,1279,6.017,4.661,0.0,0.0,0.043,0.027,0.0,0.0,1.0,0.981,0.981,0.981,0.196,1.0,1.0,0.462,0.584,0.57,24.267,0x00000101,192.168.0.40,8080,255.255.255.0,192.168.0.1,0xFFFFFFFF,0xFFFFFFFF,0xFFFFFFFF,0x00000000,
14.2348101139,0x00000000,0x00000000,0x00000000,0x00000000,0x00000000,0x00000000,0x00000000,0x00000000,31.49,5,0x00000000,96.094,97.255,0.005,0.02,0.057,-0.001,0.048,-1.365,3.225,0.601,0.228,2.186,0x00000003,1.0,1.0,-0.644,0.011,-0.011,-0.027,-0.013,0.0,0.0,-0.041,0.133,0.0,0.0,0.046,-7.082,-6.485,0.0,0.0,-7.082,34.991,34.991,0.0,0.0,0.0,96.484,96.094,0.0,0.0,26.438,26.25,0.0,0.0,0.059,0.0,90.0,76.703,0.109,27.5,0x00000000,0x00000000,0x00000000,0.0,1246,1279,12.697,7.007,0.0,0.0,0.043,0.027,0.0,0.0,1.0,0.981,0.981,0.981,0.196,1.0,1.0,0.462,0.584,0.57,24.267,0x00000101,192.168.0.40,8080,255.255.255.0,192.168.0.1,0xFFFFFFFF,0xFFFFFFFF,0xFFFFFFFF,0x00000000,
14.2848451138,0x00000000,0x00000000,0x00000000,0x00000000,0x00000000,0x00000000,0x00000000,0x00000000,31.54,5,0x00000000,96.094,97.255,0.002,0.086,0.384,-0.005,0.027,-0.99,18.267,0.607,-0.492,2.1,0x00000003,1.0,1.0,-2.566,-0.076,0.005,-0.205,-0.194,0.0,0.0,-0.047,0.128,0.0,0.0,0.04,-11.075,-11.291,0.0,0.0,-11.291,34.991,34.991,0.0,0.0,0.0,96.484,96.094,0.0,0.0,26.438,26.25,0.0,0.0,0.108,0.0,90.0,76.703,0.109,27.5,0x00000000,0x00000000,0x00000000,0.0,1246,1279,40.48,34.123,0.0,0.0,0.043,0.027,0.0,0.0,1.0,0.981,0.981,0.981,0.196,1.0,1.0,0.462,0.584,0.57,24.267,0x00000101,192.168.0.40,8080,255.255.255.0,192.168.0.1,0xFFFFFFFF,0xFFFFFFFF,0xFFFFFFFF,0x00000000,
14.3349671364,0x00000000,0x00000000,0x00000000,0x00000000,0x00000000,0x00000000,0x00000000,0x00000000,31.59,5,0x00000000,96.094,97.255,0.002,0.202,0.823,-0.024,-0.037,0.361,42.647,0.61,0.378,2.173,0x00000003,1.0,1.0,-3.962,-0.249,0.012,-0.447,-0.432,0.0,0.0,-0.064,0.112,0.0,0.0,0.023,-9.981,-8.951,0.0,0.0,-9.981,34.991,34.991,0.0,0.0,0.0,96.484,96.094,0.0,0.0,26.438,26.25,0.0,0.0,0.157,0.0,90.0,76.703,0.109,27.5,0x00000000,0x00000000,0x00000000,0.0,1246,1279,46.083,43.156,0.0,0.0,0.044,0.028,0.0,0.0,1.0,0.981,0.981,0.981,0.196,1.0,1.0,0.462,0.584,0.57,24.267,0x00000101,192.168.0.40,8080,255.255.255.0,192.168.0.1,0xFFFFFFFF,0xFFFFFFFF,0xFFFFFFFF,0x00000000,
15.1362991333,0x00000000,0x00000000,0x00000000,0x00000000,0x00000000,0x00000000,0x00000000,0x00000000,32.39,5,0x00000000,96.094,97.255,0.002,-0.237,-1.897,0.001,-0.044,5.575,-108.433,0.387,1.132,-4.574,0x00000003,1.0,1.0,3.829,1.557,-0.002,1.746,1.738,0.0,0.0,0.188,0.363,0.0,0.0,0.275,-2.53,-1.996,0.0,0.0,-2.53,34.991,34.991,0.0,0.0,0.0,96.484,96.094,0.0,0.0,26.438,26.25,0.0,0.0,0.451,0.0,90.0,76.703,0.109,27.438,0x00000000,0x00000000,0x00000000,0.0,1246,1279,29.464,7.566,0.0,0.0,0.06,0.042,0.0,0.0,1.0,0.981,0.981,0.981,0.196,1.0,1.0,0.462,0.584,0.57,24.267,0x00000101,192.168.0.40,8080,255.255.255.0,192.168.0.1,0xFFFFFFFF,0xFFFFFFFF,0xFFFFFFFF,0x00000000,
15.1862850189,0x00000000,0x00000000,0x00000000,0x00000000,0x00000000,0x00000000,0x00000000,0x00000000,32.44,5,0x00000000,96.094,97.255,0.005,-0.053,-1.548,-0.009,-0.005,0.331,-93.919,0.379,-0.221,-0.872,0x00000003,1.0,1.0,-0.431,1.622,0.008,1.595,1.606,0.0,0.0,0.271,0.447,0.0,0.0,0.359,-5.391,-6.065,0.0,0.0,-6.065,34.991,34.991,0.0,0.0,0.0,96.484,96.094,0.0,0.0,26.375,26.25,0.0,0.0,0.402,0.01,90.0,76.703,0.109,27.438,0x00000000,0x00000000,0x00000000,0.0,1246,1279,-35.704,-57.796,0.0,0.0,0.059,0.041,0.0,0.0,1.0,0.981,0.981,0.981,0.196,1.0,1.0,0.462,0.584,0.57,24.267,0x00000101,192.168.0.40,8080,255.255.255.0,192.168.0.1,0xFFFFFFFF,0xFFFFFFFF,0xFFFFFFFF,0x00000000,
15.2364060879,0x00000000,0x00000000,0x00000000,0x00000000,0x00000000,0x00000000,0x00000000,0x00000000,32.49,5,0x00000000,96.094,97.255,0.007,0.117,-1.187,-0.009,-0.027,-3.947,-72.734,0.378,0.029,-0.233,0x00000003,1.0,1.0,-2.394,1.533,0.016,1.411,1.424,0.0,0.0,0.345,0.522,0.0,0.0,0.433,-3.878,-3.929,0.0,0.0,-3.929,34.991,34.991,0.0,0.0,0.0,96.484,96.094,0.0,0.0,26.375,26.25,0.0,0.0,0.353,0.06,90.0,76.703,0.109,27.438,0x00000000,0x00000000,0x00000000,0.0,1246,1279,-26.792,-42.412,0.0,0.0,0.059,0.041,0.0,0.0,1.0,0.981,0.981,0.981,0.196,1.0,1.0,0.462,0.584,0.57,24.267,0x00000101,192.168.0.40,8080,255.255.255.0,192.168.0.1,0xFFFFFFFF,0xFFFFFFFF,0xFFFFFFFF,0x00000000,
15.2864351273,0x00000000,0x00000000,0x00000000,0x00000000,0x00000000,0x00000000,0x00000000,0x00000000,32.54,5,0x00000000,96.094,97.255,0.001,0.169,-0.949,-0.017,-0.007,-7.216,-57.551,0.364,-0.916,-0.367,0x00000003,1.0,1.0,-3.218,1.385,0.027,1.219,1.242,0.0,0.0,0.41,0.587,0.0,0.0,0.498,-5.251,-3.039,0.0,0.0,-5.251,34.991,34.991,0.0,0.0,0.0,96.484,96.094,0.0,0.0,26.375,26.25,0.0,0.0,0.304,0.11,90.0,76.703,0.109,27.438,0x00000000,0x00000000,0x00000000,0.0,1246,1279,-20.793,-29.461,0.0,0.0,0.059,0.04,0.0,0.0,1.0,0.981,0.981,0.981,0.196,1.0,1.0,0.462,0.584,0.57,24.267,0x00000101,192.168.0.40,8080,255.255.255.0,192.168.0.1,0xFFFFFFFF,0xFFFFFFFF,0xFFFFFFFF,0x00000000,
15.3365831375,0x00000000,0x00000000,0x00000000,0x00000000,0x00000000,0x00000000,0x00000000,0x00000000,32.59,5,0x00000000,96.094,97.255,-0.009,0.151,-0.719,-0.004,0.073,-9.747,-45.388,0.392,1.859,4.361,0x00000003,1.0,1.0,-3.075,1.236,0.071,1.054,1.12,0.0,0.0,0.466,0.646,0.0,0.0,0.555,-9.053,-5.696,0.0,0.0,-9.053,34.991,34.991,0.0,0.0,0.0,96.484,96.094,0.0,0.0,26.375,26.25,0.0,0.0,0.255,0.16,90.0,76.703,0.109,27.438,0x00000000,0x00000000,0x00000000,0.0,1246,1279,-38.426,-47.173,0.0,0.0,0.058,0.04,0.0,0.0,1.0,0.981,0.981,0.981,0.196,1.0,1.0,0.462,0.584,0.57,24.267,0x00000101,192.168.0.40,8080,255.255.255.0,192.168.0.1,0xFFFFFFFF,0xFFFFFFFF,0xFFFFFFFF,0x00000000,
16.1778709888,0x00000000,0x00000000,0x00000000,0x00000000,0x00000000,0x00000000,0x00000000,0x00000000,33.43,5,0x00000000,96.094,97.255,-0.005,-0.149,-0.203,-0.055,0.192,-10.057,-11.112,0.417,-1.027,13.983,0x00000003,1.0,1.0,-0.599,0.291,0.258,0.208,0.316,0.0,0.0,0.723,1.081,0.0,0.0,0.901,-4.323,-3.535,0.0,0.0,-4.323,34.991,34.991,0.0,0.0,0.0,96.484,96.094,0.0,0.0,26.375,26.25,0.0,0.0,0.0,0.2,90.0,76.703,0.109,27.5,0x00000000,0x00000000,0x00000000,0.0,1246,1279,1.428,3.546,0.0,0.0,0.059,0.04,0.0,0.0,1.0,0.981,0.981,0.981,0.196,1.0,1.0,0.462,0.584,0.57,24.267,0x00000101,192.168.0.40,8080,255.255.255.0,192.168.0.1,0xFFFFFFFF,0xFFFFFFFF,0xFFFFFFFF,0x00000000,
16.2279820442,0x00000000,0x00000000,0x00000000,0x00000000,0x00000000,0x00000000,0x00000000,0x00000000,33.48,5,0x00000000,96.094,97.255,-0.014,-0.099,-0.098,-0.034,0.138,-10.575,-6.177,0.409,0.104,11.619,0x00000003,1.0,1.0,-1.224,0.239,0.212,0.134,0.227,0.0,0.0,0.731,1.093,0.0,0.0,0.911,-3.814,-3.026,0.0,0.0,-3.814,34.991,34.991,0.0,0.0,0.0,96.484,96.094,0.0,0.0,26.375,26.25,0.0,0.0,0.0,0.15,90.0,76.703,0.109,27.5,0x00000000,0x00000000,0x00000000,0.0,1246,1279,1.881,3.563,0.0,0.0,0.059,0.04,0.0,0.0,1.0,0.981,0.981,0.981,0.196,1.0,1.0,0.462,0.584,0.57,24.267,0x00000101,192.168.0.40,8080,255.255.255.0,192.168.0.1,0xFFFFFFFF,0xFFFFFFFF,0xFFFFFFFF,0x00000000,
16.2780139446,0x00000000,0x00000000,0x00000000,0x00000000,0x00000000,0x00000000,0x00000000,0x00000000,33.53,5,0x00000000,96.094,97.255,-0.017,-0.064,-0.005,-0.023,0.133,-10.808,-0.896,0.446,1.934,8.175,0x00000003,1.0,1.0,-1.467,0.169,0.15,0.07,0.127,0.0,0.0,0.736,1.101,0.0,0.0,0.918,-3.357,-4.501,0.0,0.0,-4.501,34.991,34.991,0.0,0.0,0.0,96.484,96.094,0.0,0.0,26.375,26.25,0.0,0.0,0.0,0.1,90.0,76.703,0.109,27.5,0x00000000,0x00000000,0x00000000,0.0,1246,1279,2.418,4.714,0.0,0.0,0.059,0.04,0.0,0.0,1.0,0.981,0.981,0.981,0.196,1.0,1.0,0.462,0.584,0.57,24.267,0x00000101,192.168.0.40,8080,255.255.255.0,192.168.0.1,0xFFFFFFFF,0xFFFFFFFF,0xFFFFFFFF,0x00000000,
16.328138113,0x00000000,0x00000000,0x00000000,0x00000000,0x00000000,0x00000000,0x00000000,0x00000000,33.58,5,0x00000000,96.094,97.255,-0.007,-0.041,0.107,-0.005,-0.018,-10.728,5.894,0.459,0.268,0.874,0x00000003,1.0,1.0,-1.665,0.085,0.078,0.005,0.005,0.0,0.0,0.737,1.104,0.0,0.0,0.919,-4.12,-4.043,0.0,0.0,-4.12,34.991,34.991,0.0,0.0,0.0,96.484,96.094,0.0,0.0,26.375,26.25,0.0,0.0,0.0,0.05,90.0,76.703,0.109,27.5,0x00000000,0x00000000,0x00000000,0.0,1246,1279,4.664,12.847,0.0,0.0,0.059,0.04,0.0,0.0,1.0,0.981,0.981,0.981,0.196,1.0,1.0,0.462,0.584,0.57,24.267,0x00000101,192.168.0.40,8080,255.255.255.0,192.168.0.1,0xFFFFFFFF,0xFFFFFFFF,0xFFFFFFFF,0x00000000,
16.3781700134,0x00000000,0x00000000,0x00000000,0x00000000,0x00000000,0x00000000,0x00000000,0x00000000,33.63,5,0x00000000,96.094,97.255,0.004,-0.04,0.176,-0.014,-0.102,-10.321,9.451,0.437,-0.943,-4.353,0x00000003,1.0,1.0,-1.368,0.013,-0.013,-0.028,-0.078,0.0,0.0,0.737,1.101,0.0,0.0,0.918,-4.921,-3.446,0.0,0.0,-4.921,34.991,34.991,0.0,0.0,0.0,96.484,96.094,0.0,0.0,26.375,26.25,0.0,0.0,0.0,0.0,90.0,76.703,0.109,27.5,0x00000000,0x00000000,0x00000000,0.0,1246,1279,6.027,13.199,0.0,0.0,0.059,0.04,0.0,0.0,1.0,0.981,0.981,0.981,0.196,1.0,1.0,0.462,0.584,0.57,24.267,0x00000101,192.168.0.40,8080,255.255.255.0,192.168.0.1,0xFFFFFFFF,0xFFFFFFFF,0xFFFFFFFF,0x00000000,
17.1794631481,0x00000000,0x00000000,0x00000000,0x00000000,0x00000000,0x00000000,0x00000000,0x00000000,34.43,5,0x00000000,96.094,97.255,0.001,-0.049,0.14,-0.036,-0.023,-4.677,8.465,0.193,-0.56,-1.894,0x00000003,1.0,1.0,-0.266,-0.242,-0.0,-0.257,-0.253,0.0,0.0,0.616,0.979,0.0,0.0,0.797,-1.513,-1.106,0.0,0.0,-1.513,34.991,34.991,0.0,0.0,0.0,96.484,96.094,0.0,0.0,26.438,26.25,0.0,0.0,0.0,0.0,90.0,76.703,0.109,27.438,0x00000000,0x00000000,0x00000000,0.0,1246,1279,10.318,10.619,0.0,0.0,0.061,0.043,0.0,0.0,1.0,0.981,0.981,0.981,0.196,1.0,1.0,0.462,0.584,0.57,24.267,0x00000101,192.168.0.40,8080,255.255.255.0,192.168.0.1,0xFFFFFFFF,0xFFFFFFFF,0xFFFFFFFF,0x00000000,
17.2295739651,0x00000000,0x00000000,0x00000000,0x00000000,0x00000000,0x00000000,0x00000000,0x00000000,34.48,5,0x00000000,96.094,97.255,-0.001,-0.065,0.098,-0.023,-0.018,-4.266,7.136,0.154,0.422,1.22,0x00000003,1.0,1.0,-0.026,-0.246,0.001,-0.25,-0.244,0.0,0.0,0.604,0.967,0.0,0.0,0.785,-2.174,-1.526,0.0,0.0,-2.174,34.991,34.991,0.0,0.0,0.0,96.484,96.094,0.0,0.0,26.438,26.25,0.0,0.0,0.01,0.0,90.0,76.703,0.109,27.438,0x00000000,0x00000000,0x00000000,0.0,1246,1279,9.565,6.959,0.0,0.0,0.062,0.043,0.0,0.0,1.0,0.981,0.981,0.981,0.196,1.0,1.0,0.462,0.584,0.57,24.267,0x00000101,192.168.0.40,8080,255.255.255.0,192.168.0.1,0xFFFFFFFF,0xFFFFFFFF,0xFFFFFFFF,0x00000000,
