Time_stamp,fault_status_word_1,fault_status_word_2,fault_status_word_3,fault_status_word_4,mcu_0_fault_status,mcu_1_fault_status,mcu_2_fault_status,mcu_3_fault_status,operational_time,operational_state,dynamic_response,min_propulsion_batt_soc,aux_batt_soc,inertial_x_acc_g,inertial_y_acc_g,inertial_x_rate_rps,inertial_y_rate_rps,inertial_z_rate_rps,pse_pitch_deg,pse_pitch_rate_dps,pse_roll_deg,pse_roll_rate_dps,pse_yaw_rate_dps,pse_data_is_valid,yaw_rate_limit_rps,vel_limit_mps,linear_accel_mps2,linear_vel_mps,differential_wheel_vel_rps,right_front_vel_mps,left_front_vel_mps,right_rear_vel_mps,left_rear_vel_mps,right_front_pos_m,left_front_pos_m,right_rear_pos_m,left_rear_pos_m,linear_pos_m,right_front_current_A0pk,left_front_current_A0pk,right_rear_current_A0pk,left_rear_current_A0pk,max_motor_current_A0pk,right_front_current_limit_A0pk,left_front_current_limit_A0pk,right_rear_current_limit_A0pk,left_rear_current_limit_A0pk,min_motor_current_limit_A0pk,front_base_batt_1_soc,front_base_batt_2_soc,rear_base_batt_1_soc,rear_base_batt_2_soc,front_base_batt_1_temp_degC,front_base_batt_2_temp_degC,rear_base_batt_1_temp_degC,rear_base_batt_2_temp_degC,vel_target_mps,yaw_rate_target_rps,angle_target_deg,aux_batt_voltage_V,aux_batt_current_A,aux_batt_temp_degC,abb_system_status,aux_batt_status,aux_batt_faults,7p2V_battery_voltage,ccu_sp_sw_build_id,ccu_uip_sw_build_id,mcu_0_inst_power_W,mcu_1_inst_power_W,mcu_2_inst_power_W,mcu_3_inst_power_W,mcu_0_total_energy_Wh,mcu_1_total_energy_Wh,mcu_2_total_energy_Wh,mcu_3_total_energy_Wh,fram_vel_limit_mps,fram_accel_limit_mps2,fram_decel_limit_mps2,fram_dtz_decel_limit_mps2,fram_coastdown_decel_mps2,fram_yaw_rate_limit_rps,fram_yaw_accel_limit_rps2,fram_tire_diameter_m,fram_wheelbase_length_m,fram_wheel_track_width_m,fram_transmission_ratio,fram_config_bitmap,fram_eth_ip_address,fram_eth_port_number,fram_eth_subnet_mask,fram_eth_gateway,user_feedback_bitmap_1,user_feedback_bitmap_2,user_feedback_bitmap_3,user_feedback_bitmap_4,
0.0791311264038,0x00000000,0x00000000,0x00000000,0x00000000,0x00000000,0x00000000,0x00000000,0x00000000,56.06,3,0x00000000,97.266,98.431,0.005,0.011,-0.015,-0.004,-0.037,0.81,0.363,0.201,-0.078,1.178,0x00000003,0.0,0.0,0.0,-0.0,0.002,-0.001,0.0,0.0,0.0,-0.001,-0.001,0.0,0.0,-0.001,0.153,0.191,0.0,0.0,0.191,34.991,34.991,0.0,0.0,0.0,97.266,97.266,0.0,0.0,26.25,26.125,0.0,0.0,0.0,0.0,90.0,76.781,0.109,27.125,0x00000000,0x00000000,0x00000000,0.0,1246,1279,8.466,2.117,0.0,0.0,0.099,0.053,0.0,0.0,1.0,0.981,0.981,0.981,0.196,1.0,1.0,0.462,0.584,0.57,24.267,0x00000101,192.168.0.40,8080,255.255.255.0,192.168.0.1,0xFFFFFFFF,0xFFFFFFFF,0xFFFFFFFF,0x00000000,
0.129217147827,0x00000000,0x00000000,0x00000000,0x00000000,0x00000000,0x00000000,0x00000000,0x00000000,56.11,3,0x00000000,97.266,98.431,0.005,0.013,-0.018,-0.017,-0.031,0.831,1.385,0.223,0.189,-0.2,0x00000003,0.0,0.0,-0.003,0.0,0.002,-0.001,0.001,0.0,0.0,-0.001,-0.001,0.0,0.0,-0.001,0.153,0.254,0.0,0.0,0.254,34.991,34.991,0.0,0.0,0.0,97.266,97.266,0.0,0.0,26.25,26.125,0.0,0.0,0.0,0.0,90.0,76.789,0.109,27.125,0x00000000,0x00000000,0x00000000,0.0,1246,1279,8.996,3.693,0.0,0.0,0.099,0.053,0.0,0.0,1.0,0.981,0.981,0.981,0.196,1.0,1.0,0.462,0.584,0.57,24.267,0x00000101,192.168.0.40,8080,255.255.255.0,192.168.0.1,0xFFFFFFFF,0xFFFFFFFF,0xFFFFFFFF,0x00000000,
0.179312944412,0x00000000,0x00000000,0x00000000,0x00000000,0x00000000,0x00000000,0x00000000,0x00000000,56.16,3,0x00000000,97.266,98.431,0.003,0.014,-0.016,-0.008,-0.013,0.844,0.25,0.216,-0.019,-1.247,0x00000003,0.0,0.0,-0.008,-0.0,0.003,-0.001,0.0,0.0,0.0,-0.001,-0.001,0.0,0.0,-0.001,0.254,0.254,0.0,0.0,0.254,34.991,34.991,0.0,0.0,0.0,97.266,97.266,0.0,0.0,26.25,26.125,0.0,0.0,0.0,0.0,90.0,76.789,0.109,27.125,0x00000000,0x00000000,0x00000000,0.0,1246,1279,7.194,4.554,0.0,0.0,0.099,0.053,0.0,0.0,1.0,0.981,0.981,0.981,0.196,1.0,1.0,0.462,0.584,0.57,24.267,0x00000101,192.168.0.40,8080,255.255.255.0,192.168.0.1,0xFFFFFFFF,0xFFFFFFFF,0xFFFFFFFF,0x00000000,
0.229377031326,0x00000000,0x00000000,0x00000000,0x00000000,0x00000000,0x00000000,0x00000000,0x00000000,56.21,3,0x00000000,97.266,98.431,0.004,0.014,-0.021,-0.021,-0.043,0.844,-0.204,0.231,-0.06,0.496,0x00000003,0.0,0.0,-0.003,-0.0,0.002,-0.001,0.0,0.0,0.0,-0.001,-0.001,0.0,0.0,-0.001,0.254,0.254,0.0,0.0,0.254,34.991,34.991,0.0,0.0,0.0,97.266,97.266,0.0,0.0,26.25,26.063,0.0,0.0,0.0,0.0,90.0,76.789,0.109,27.125,0x00000000,0x00000000,0x00000000,0.0,1246,1279,8.306,6.041,0.0,0.0,0.1,0.054,0.0,0.0,1.0,0.981,0.981,0.981,0.196,1.0,1.0,0.462,0.584,0.57,24.267,0x00000101,192.168.0.40,8080,255.255.255.0,192.168.0.1,0xFFFFFFFF,0xFFFFFFFF,0xFFFFFFFF,0x00000000,
0.279453992844,0x00000000,0x00000000,0x00000000,0x00000000,0x00000000,0x00000000,0x00000000,0x00000000,56.26,3,0x00000000,97.266,98.431,0.005,0.012,-0.02,-0.026,-0.0,0.834,0.01,0.235,0.462,-0.553,0x00000003,0.0,0.0,-0.012,-0.0,0.002,-0.001,-0.0,0.0,0.0,-0.001,-0.001,0.0,0.0,-0.001,0.254,0.064,0.0,0.0,0.254,34.991,34.991,0.0,0.0,0.0,97.266,97.266,0.0,0.0,26.25,26.063,0.0,0.0,0.0,0.0,90.0,76.789,0.109,27.125,0x00000000,0x00000000,0x00000000,0.0,1246,1279,6.304,4.985,0.0,0.0,0.1,0.054,0.0,0.0,1.0,0.981,0.981,0.981,0.196,1.0,1.0,0.462,0.584,0.57,24.267,0x00000101,192.168.0.40,8080,255.255.255.0,192.168.0.1,0xFFFFFFFF,0xFFFFFFFF,0xFFFFFFFF,0x00000000,
0.329573154449,0x00000000,0x00000000,0x00000000,0x00000000,0x00000000,0x00000000,0x00000000,0x00000000,56.31,3,0x00000000,97.266,98.431,0.005,0.012,-0.019,-0.017,-0.019,0.816,-0.399,0.24,-0.007,-1.587,0x00000003,0.0,0.0,0.005,-0.0,0.002,-0.001,0.001,0.0,0.0,-0.001,-0.001,0.0,0.0,-0.001,0.153,0.254,0.0,0.0,0.254,34.991,34.991,0.0,0.0,0.0,97.266,97.266,0.0,0.0,26.25,26.125,0.0,0.0,0.0,0.0,90.0,76.789,0.109,27.125,0x00000000,0x00000000,0x00000000,0.0,1246,1279,7.892,2.965,0.0,0.0,0.1,0.054,0.0,0.0,1.0,0.981,0.981,0.981,0.196,1.0,1.0,0.462,0.584,0.57,24.267,0x00000101,192.168.0.40,8080,255.255.255.0,192.168.0.1,0xFFFFFFFF,0xFFFFFFFF,0xFFFFFFFF,0x00000000,
0.379609107971,0x00000000,0x00000000,0x00000000,0x00000000,0x00000000,0x00000000,0x00000000,0x00000000,56.36,3,0x00000000,97.266,98.431,0.003,0.012,-0.006,-0.017,-0.006,0.824,0.393,0.247,-0.057,0.155,0x00000003,0.0,0.0,0.003,-0.0,0.002,-0.0,0.0,0.0,0.0,-0.001,-0.001,0.0,0.0,-0.001,0.038,0.178,0.0,0.0,0.178,34.991,34.991,0.0,0.0,0.0,97.266,97.266,0.0,0.0,26.25,26.125,0.0,0.0,0.0,0.0,90.0,76.789,0.109,27.125,0x00000000,0x00000000,0x00000000,0.0,1246,1279,7.063,1.102,0.0,0.0,0.1,0.054,0.0,0.0,1.0,0.981,0.981,0.981,0.196,1.0,1.0,0.462,0.584,0.57,24.267,0x00000101,192.168.0.40,8080,255.255.255.0,192.168.0.1,0xFFFFFFFF,0xFFFFFFFF,0xFFFFFFFF,0x00000000,
0.429717063904,0x00000000,0x00000000,0x00000000,0x00000000,0x00000000,0x00000000,0x00000000,0x00000000,56.41,3,0x00000000,97.266,98.431,0.004,0.013,-0.004,-0.026,0.006,0.834,0.134,0.242,-0.314,0.836,0x00000003,0.0,0.0,-0.007,-0.0,0.001,-0.001,-0.0,0.0,0.0,-0.001,-0.001,0.0,0.0,-0.001,0.254,0.254,0.0,0.0,0.254,34.991,34.991,0.0,0.0,0.0,97.266,97.266,0.0,0.0,26.25,26.125,0.0,0.0,0.0,0.0,90.0,76.789,0.109,27.125,0x00000000,0x00000000,0x00000000,0.0,1246,1279,6.684,4.622,0.0,0.0,0.1,0.054,0.0,0.0,1.0,0.981,0.981,0.981,0.196,1.0,1.0,0.462,0.584,0.57,24.267,0x00000101,192.168.0.40,8080,255.255.255.0,192.168.0.1,0xFFFFFFFF,0xFFFFFFFF,0xFFFFFFFF,0x00000000,
0.479768037796,0x00000000,0x00000000,0x00000000,0x00000000,0x00000000,0x00000000,0x00000000,0x00000000,56.46,3,0x00000000,97.266,98.431,0.005,0.013,-0.021,0.0,-0.0,0.835,-0.078,0.245,-0.022,-0.903,0x00000003,0.0,0.0,0.001,-0.0,0.002,-0.001,-0.0,0.0,0.0,-0.001,-0.001,0.0,0.0,-0.001,0.242,0.14,0.0,0.0,0.242,34.991,34.991,0.0,0.0,0.0,97.266,97.266,0.0,0.0,26.25,26.125,0.0,0.0,0.0,0.0,90.0,76.789,0.109,27.125,0x00000000,0x00000000,0x00000000,0.0,1246,1279,5.661,5.113,0.0,0.0,0.1,0.054,0.0,0.0,1.0,0.981,0.981,0.981,0.196,1.0,1.0,0.462,0.584,0.57,24.267,0x00000101,192.168.0.40,8080,255.255.255.0,192.168.0.1,0xFFFFFFFF,0xFFFFFFFF,0xFFFFFFFF,0x00000000,
0.52986907959,0x00000000,0x00000000,0x00000000,0x00000000,0x00000000,0x00000000,0x00000000,0x00000000,56.51,3,0x00000000,97.266,98.431,0.005,0.012,-0.018,-0.008,-0.019,0.823,-0.234,0.267,0.959,-0.554,0x00000003,0.0,0.0,0.012,-0.0,0.002,-0.0,0.001,0.0,0.0,-0.001,-0.001,0.0,0.0,-0.001,0.153,0.369,0.0,0.0,0.369,34.991,34.991,0.0,0.0,0.0,97.266,97.266,0.0,0.0,26.25,26.063,0.0,0.0,0.0,0.0,90.0,76.789,0.109,27.125,0x00000000,0x00000000,0x00000000,0.0,1246,1279,6.328,2.565,0.0,0.0,0.1,0.054,0.0,0.0,1.0,0.981,0.981,0.981,0.196,1.0,1.0,0.462,0.584,0.57,24.267,0x00000101,192.168.0.40,8080,255.255.255.0,192.168.0.1,0xFFFFFFFF,0xFFFFFFFF,0xFFFFFFFF,0x00000000,
0.579951047897,0x00000000,0x00000000,0x00000000,0x00000000,0x00000000,0x00000000,0x00000000,0x00000000,56.56,3,0x00000000,97.266,98.431,0.005,0.011,-0.012,-0.021,0.012,0.831,0.637,0.274,-0.062,0.487,0x00000003,0.0,0.0,0.007,0.0,0.001,-0.0,0.001,0.0,0.0,-0.001,-0.001,0.0,0.0,-0.001,0.343,0.14,0.0,0.0,0.343,34.991,34.991,0.0,0.0,0.0,97.266,97.266,0.0,0.0,26.25,26.125,0.0,0.0,0.0,0.0,90.0,76.789,0.109,27.125,0x00000000,0x00000000,0x00000000,0.0,1246,1279,5.013,4.685,0.0,0.0,0.1,0.054,0.0,0.0,1.0,0.981,0.981,0.981,0.196,1.0,1.0,0.462,0.584,0.57,24.267,0x00000101,192.168.0.40,8080,255.255.255.0,192.168.0.1,0xFFFFFFFF,0xFFFFFFFF,0xFFFFFFFF,0x00000000,
0.630034923553,0x00000000,0x00000000,0x00000000,0x00000000,0x00000000,0x00000000,0x00000000,0x00000000,56.61,3,0x00000000,97.266,98.431,0.005,0.012,-0.022,-0.013,-0.001,0.829,-0.268,0.289,0.208,-0.204,0x00000003,0.0,0.0,0.002,-0.0,0.001,0.0,0.0,0.0,0.0,-0.001,-0.001,0.0,0.0,-0.001,0.254,0.254,0.0,0.0,0.254,34.991,34.991,0.0,0.0,0.0,97.266,97.266,0.0,0.0,26.25,26.125,0.0,0.0,0.0,0.0,90.0,76.781,0.109,27.125,0x00000000,0x00000000,0x00000000,0.0,1246,1279,6.595,4.763,0.0,0.0,0.1,0.054,0.0,0.0,1.0,0.981,0.981,0.981,0.196,1.0,1.0,0.462,0.584,0.57,24.267,0x00000101,192.168.0.40,8080,255.255.255.0,192.168.0.1,0xFFFFFFFF,0xFFFFFFFF,0xFFFFFFFF,0x00000000,
0.680083990097,0x00000000,0x00000000,0x00000000,0x00000000,0x00000000,0x00000000,0x00000000,0x00000000,56.66,3,0x00000000,97.266,98.431,0.003,0.013,-0.015,-0.013,-0.012,0.833,-0.184,0.287,0.194,0.479,0x00000003,0.0,0.0,-0.006,-0.0,0.002,-0.001,0.0,0.0,0.0,-0.001,-0.001,0.0,0.0,-0.001,0.254,0.254,0.0,0.0,0.254,34.991,34.991,0.0,0.0,0.0,97.266,97.266,0.0,0.0,26.25,26.063,0.0,0.0,0.0,0.0,90.0,76.781,0.109,27.125,0x00000000,0x00000000,0x00000000,0.0,1246,1279,5.477,3.579,0.0,0.0,0.1,0.054,0.0,0.0,1.0,0.981,0.981,0.981,0.196,1.0,1.0,0.462,0.584,0.57,24.267,0x00000101,192.168.0.40,8080,255.255.255.0,192.168.0.1,0xFFFFFFFF,0xFFFFFFFF,0xFFFFFFFF,0x00000000,
0.73019194603,0x00000000,0x00000000,0x00000000,0x00000000,0x00000000,0x00000000,0x00000000,0x00000000,56.71,3,0x00000000,97.266,98.431,0.004,0.014,-0.001,-0.004,-0.018,0.833,0.073,0.299,-0.064,0.824,0x00000003,0.0,0.0,-0.01,-0.0,0.002,-0.002,0.0,0.0,0.0,-0.001,-0.001,0.0,0.0,-0.001,0.254,0.14,0.0,0.0,0.254,34.991,34.991,0.0,0.0,0.0,97.266,97.266,0.0,0.0,26.25,26.125,0.0,0.0,0.0,0.0,90.0,76.781,0.109,27.125,0x00000000,0x00000000,0x00000000,0.0,1246,1279,6.795,4.082,0.0,0.0,0.1,0.054,0.0,0.0,1.0,0.981,0.981,0.981,0.196,1.0,1.0,0.462,0.584,0.57,24.267,0x00000101,192.168.0.40,8080,255.255.255.0,192.168.0.1,0xFFFFFFFF,0xFFFFFFFF,0xFFFFFFFF,0x00000000,
0.780256986618,0x00000000,0x00000000,0x00000000,0x00000000,0x00000000,0x00000000,0x00000000,0x00000000,56.76,3,0x00000000,97.266,98.431,0.004,0.013,-0.025,-0.025,-0.037,0.839,0.342,0.299,-0.112,2.566,0x00000003,0.0,0.0,-0.018,-0.001,0.003,-0.003,0.0,0.0,0.0,-0.001,-0.001,0.0,0.0,-0.001,0.153,0.318,0.0,0.0,0.318,34.991,34.991,0.0,0.0,0.0,97.266,97.266,0.0,0.0,26.25,26.125,0.0,0.0,0.0,0.0,90.0,76.781,0.109,27.125,0x00000000,0x00000000,0x00000000,0.0,1246,1279,9.075,4.736,0.0,0.0,0.101,0.054,0.0,0.0,1.0,0.981,0.981,0.981,0.196,1.0,1.0,0.462,0.584,0.57,24.267,0x00000101,192.168.0.40,8080,255.255.255.0,192.168.0.1,0xFFFFFFFF,0xFFFFFFFF,0xFFFFFFFF,0x00000000,
0.83034992218,0x00000000,0x00000000,0x00000000,0x00000000,0x00000000,0x00000000,0x00000000,0x00000000,56.81,3,0x00000000,97.266,98.431,0.005,0.012,-0.014,-0.017,-0.007,0.831,0.173,0.296,-1.045,0.143,0x00000003,0.0,0.0,0.006,-0.001,0.003,-0.001,0.0,0.0,0.0,-0.001,-0.001,0.0,0.0,-0.001,0.254,0.369,0.0,0.0,0.369,34.991,34.991,0.0,0.0,0.0,97.266,97.266,0.0,0.0,26.25,26.125,0.0,0.0,0.0,0.0,90.0,76.781,0.109,27.125,0x00000000,0x00000000,0x00000000,0.0,1246,1279,7.513,4.764,0.0,0.0,0.101,0.054,0.0,0.0,1.0,0.981,0.981,0.981,0.196,1.0,1.0,0.462,0.584,0.57,24.267,0x00000101,192.168.0.40,8080,255.255.255.0,192.168.0.1,0xFFFFFFFF,0xFFFFFFFF,0xFFFFFFFF,0x00000000,
0.880419969559,0x00000000,0x00000000,0x00000000,0x00000000,0x00000000,0x00000000,0x00000000,0x00000000,56.86,3,0x00000000,97.266,98.431,0.004,0.012,-0.007,0.005,-0.043,0.834,0.757,0.296,-0.325,0.841,0x00000003,0.0,0.0,0.003,-0.0,0.003,-0.002,0.002,0.0,0.0,-0.001,-0.001,0.0,0.0,-0.001,0.267,0.369,0.0,0.0,0.369,34.991,34.991,0.0,0.0,0.0,97.266,97.266,0.0,0.0,26.25,26.125,0.0,0.0,0.0,0.0,90.0,76.781,0.109,27.125,0x00000000,0x00000000,0x00000000,0.0,1246,1279,6.883,3.58,0.0,0.0,0.101,0.054,0.0,0.0,1.0,0.981,0.981,0.981,0.196,1.0,1.0,0.462,0.584,0.57,24.267,0x00000101,192.168.0.40,8080,255.255.255.0,192.168.0.1,0xFFFFFFFF,0xFFFFFFFF,0xFFFFFFFF,0x00000000,
0.930494070053,0x00000000,0x00000000,0x00000000,0x00000000,0x00000000,0x00000000,0x00000000,0x00000000,56.91,3,0x00000000,97.266,98.431,0.004,0.012,-0.014,-0.017,0.018,0.832,0.08,0.309,-0.284,-0.552,0x00000003,0.0,0.0,0.003,-0.0,0.003,-0.0,0.0,0.0,0.0,-0.001,-0.001,0.0,0.0,-0.001,0.254,0.305,0.0,0.0,0.305,34.991,34.991,0.0,0.0,0.0,97.266,97.266,0.0,0.0,26.25,26.063,0.0,0.0,0.0,0.0,90.0,76.781,0.109,27.125,0x00000000,0x00000000,0x00000000,0.0,1246,1279,9.417,4.535,0.0,0.0,0.101,0.054,0.0,0.0,1.0,0.981,0.981,0.981,0.196,1.0,1.0,0.462,0.584,0.57,24.267,0x00000101,192.168.0.40,8080,255.255.255.0,192.168.0.1,0xFFFFFFFF,0xFFFFFFFF,0xFFFFFFFF,0x00000000,
0.980556964874,0x00000000,0x00000000,0x00000000,0x00000000,0x00000000,0x00000000,0x00000000,0x00000000,56.96,3,0x00000000,97.266,98.431,0.003,0.013,-0.02,-0.012,-0.019,0.842,0.324,0.314,0.655,1.524,0x00000003,0.0,0.0,-0.006,-0.0,0.002,-0.001,0.0,0.0,0.0,-0.001,-0.001,0.0,0.0,-0.001,0.153,0.369,0.0,0.0,0.369,34.991,34.991,0.0,0.0,0.0,97.266,97.266,0.0,0.0,26.25,26.063,0.0,0.0,0.0,0.0,90.0,76.781,0.109,27.125,0x00000000,0x00000000,0x00000000,0.0,1246,1279,7.719,1.346,0.0,0.0,0.101,0.054,0.0,0.0,1.0,0.981,0.981,0.981,0.196,1.0,1.0,0.462,0.584,0.57,24.267,0x00000101,192.168.0.40,8080,255.255.255.0,192.168.0.1,0xFFFFFFFF,0xFFFFFFFF,0xFFFFFFFF,0x00000000,
1.03066897392,0x00000000,0x00000000,0x00000000,0x00000000,0x00000000,0x00000000,0x00000000,0x00000000,57.01,3,0x00000000,97.266,98.431,0.004,0.013,-0.02,-0.021,-0.0,0.841,0.228,0.293,0.475,-1.253,0x00000003,0.0,0.0,0.001,-0.0,0.002,-0.001,0.001,0.0,0.0,-0.001,-0.001,0.0,0.0,-0.001,0.369,0.369,0.0,0.0,0.369,34.991,34.991,0.0,0.0,0.0,97.266,97.266,0.0,0.0,26.25,26.063,0.0,0.0,0.0,0.0,90.0,76.781,0.109,27.125,0x00000000,0x00000000,0x00000000,0.0,1246,1279,7.319,1.762,0.0,0.0,0.101,0.054,0.0,0.0,1.0,0.981,0.981,0.981,0.196,1.0,1.0,0.462,0.584,0.57,24.267,0x00000101,192.168.0.40,8080,255.255.255.0,192.168.0.1,0xFFFFFFFF,0xFFFFFFFF,0xFFFFFFFF,0x00000000,
1.08072400093,0x00000000,0x00000000,0x00000000,0x00000000,0x00000000,0x00000000,0x00000000,0x00000000,57.06,3,0x00000000,97.266,98.431,0.005,0.013,-0.013,-0.021,-0.018,0.852,0.339,0.286,-0.064,0.483,0x00000003,0.0,0.0,-0.01,-0.0,0.002,-0.001,0.0,0.0,0.0,-0.001,-0.001,0.0,0.0,-0.001,0.267,0.369,0.0,0.0,0.369,34.991,34.991,0.0,0.0,0.0,97.266,97.266,0.0,0.0,26.25,26.063,0.0,0.0,0.0,0.0,90.0,76.781,0.109,27.125,0x00000000,0x00000000,0x00000000,0.0,1246,1279,5.864,4.636,0.0,0.0,0.101,0.055,0.0,0.0,1.0,0.981,0.981,0.981,0.196,1.0,1.0,0.462,0.584,0.57,24.267,0x00000101,192.168.0.40,8080,255.255.255.0,192.168.0.1,0xFFFFFFFF,0xFFFFFFFF,0xFFFFFFFF,0x00000000,
1.13081002235,0x00000000,0x00000000,0x00000000,0x00000000,0x00000000,0x00000000,0x00000000,0x00000000,57.11,3,0x00000000,97.266,98.431,0.005,0.011,-0.008,-0.004,-0.024,0.851,-0.103,0.287,-0.074,1.17,0x00000003,0.0,0.0,-0.004,-0.0,0.002,-0.001,0.0,0.0,0.0,-0.001,-0.001,0.0,0.0,-0.001,0.242,0.369,0.0,0.0,0.369,34.991,34.991,0.0,0.0,0.0,97.266,97.266,0.0,0.0,26.25,26.063,0.0,0.0,0.0,0.0,90.0,76.789,0.109,27.125,0x00000000,0x00000000,0x00000000,0.0,1246,1279,7.172,1.171,0.0,0.0,0.101,0.055,0.0,0.0,1.0,0.981,0.981,0.981,0.196,1.0,1.0,0.462,0.584,0.57,24.267,0x00000101,192.168.0.40,8080,255.255.255.0,192.168.0.1,0xFFFFFFFF,0xFFFFFFFF,0xFFFFFFFF,0x00000000,
1.18088412285,0x00000000,0x00000000,0x00000000,0x00000000,0x00000000,0x00000000,0x00000000,0x00000000,57.16,3,0x00000000,97.266,98.431,0.005,0.012,-0.009,-0.034,-0.012,0.861,0.195,0.283,-0.278,-0.903,0x00000003,0.0,0.0,-0.002,-0.0,0.002,-0.001,0.0,0.0,0.0,-0.001,-0.001,0.0,0.0,-0.001,0.661,0.267,0.0,0.0,0.661,34.991,34.991,0.0,0.0,0.0,97.266,97.266,0.0,0.0,26.25,26.125,0.0,0.0,0.0,0.0,90.0,76.789,0.109,27.125,0x00000000,0x00000000,0x00000000,0.0,1246,1279,7.048,4.61,0.0,0.0,0.101,0.055,0.0,0.0,1.0,0.981,0.981,0.981,0.196,1.0,1.0,0.462,0.584,0.57,24.267,0x00000101,192.168.0.40,8080,255.255.255.0,192.168.0.1,0xFFFFFFFF,0xFFFFFFFF,0xFFFFFFFF,0x00000000,
1.2309589386,0x00000000,0x00000000,0x00000000,0x00000000,0x00000000,0x00000000,0x00000000,0x00000000,57.21,3,0x00000000,97.266,98.431,0.004,0.012,-0.007,-0.021,-0.0,0.865,0.027,0.283,0.957,-0.566,0x00000003,0.0,0.0,0.003,0.0,0.001,0.0,0.0,0.0,0.0,-0.001,-0.001,0.0,0.0,-0.001,1.068,-0.623,0.0,0.0,1.068,34.991,34.991,0.0,0.0,0.0,97.266,97.266,0.0,0.0,26.25,26.063,0.0,0.0,0.0,0.0,90.0,76.789,0.109,27.125,0x00000000,0x00000000,0x00000000,0.0,1246,1279,7.223,3.946,0.0,0.0,0.102,0.055,0.0,0.0,1.0,0.981,0.981,0.981,0.196,1.0,1.0,0.462,0.584,0.57,24.267,0x00000101,192.168.0.40,8080,255.255.255.0,192.168.0.1,0xFFFFFFFF,0xFFFFFFFF,0xFFFFFFFF,0x00000000,
1.28103899956,0x00000000,0x00000000,0x00000000,0x00000000,0x00000000,0x00000000,0x00000000,0x00000000,57.26,3,0x00000000,97.266,98.431,0.004,0.012,-0.008,-0.012,-0.031,0.88,-0.225,0.284,-0.031,-0.566,0x00000003,0.0,0.0,-0.013,0.0,0.001,-0.001,-0.0,0.0,0.0,-0.001,-0.001,0.0,0.0,-0.001,0.153,0.254,0.0,0.0,0.254,34.991,34.991,0.0,0.0,0.0,97.266,97.266,0.0,0.0,26.25,26.063,0.0,0.0,0.0,0.0,90.0,76.789,0.109,27.125,0x00000000,0x00000000,0x00000000,0.0,1246,1279,7.231,4.393,0.0,0.0,0.102,0.055,0.0,0.0,1.0,0.981,0.981,0.981,0.196,1.0,1.0,0.462,0.584,0.57,24.267,0x00000101,192.168.0.40,8080,255.255.255.0,192.168.0.1,0xFFFFFFFF,0xFFFFFFFF,0xFFFFFFFF,0x00000000,
1.33113098145,0x00000000,0x00000000,0x00000000,0x00000000,0x00000000,0x00000000,0x00000000,0x00000000,57.31,3,0x00000000,97.266,98.431,0.005,0.013,-0.014,-0.03,-0.006,0.875,-0.199,0.299,1.164,1.166,0x00000003,0.0,0.0,0.008,0.0,0.001,0.0,0.001,0.0,0.0,-0.001,-0.001,0.0,0.0,-0.001,0.254,0.369,0.0,0.0,0.369,34.991,34.991,0.0,0.0,0.0,97.266,97.266,0.0,0.0,26.25,26.125,0.0,0.0,0.0,0.0,90.0,76.789,0.109,27.125,0x00000000,0x00000000,0x00000000,0.0,1246,1279,7.741,2.189,0.0,0.0,0.102,0.055,0.0,0.0,1.0,0.981,0.981,0.981,0.196,1.0,1.0,0.462,0.584,0.57,24.267,0x00000101,192.168.0.40,8080,255.255.255.0,192.168.0.1,0xFFFFFFFF,0xFFFFFFFF,0xFFFFFFFF,0x00000000,
1.38120698929,0x00000000,0x00000000,0x00000000,0x00000000,0x00000000,0x00000000,0x00000000,0x00000000,57.36,3,0x00000000,97.266,98.431,0.004,0.012,-0.003,-0.021,-0.018,0.883,0.321,0.304,-0.577,1.176,0x00000003,0.0,0.0,-0.007,-0.0,0.0,-0.0,-0.001,0.0,0.0,-0.001,-0.001,0.0,0.0,-0.001,0.153,0.369,0.0,0.0,0.369,34.991,34.991,0.0,0.0,0.0,97.266,97.266,0.0,0.0,26.25,26.125,0.0,0.0,0.0,0.0,90.0,76.789,0.109,27.125,0x00000000,0x00000000,0x00000000,0.0,1246,1279,8.304,4.654,0.0,0.0,0.102,0.055,0.0,0.0,1.0,0.981,0.981,0.981,0.196,1.0,1.0,0.462,0.584,0.57,24.267,0x00000101,192.168.0.40,8080,255.255.255.0,192.168.0.1,0xFFFFFFFF,0xFFFFFFFF,0xFFFFFFFF,0x00000000,
1.43127894402,0x00000000,0x00000000,0x00000000,0x00000000,0x00000000,0x00000000,0x00000000,0x00000000,57.41,3,0x00000000,97.266,98.431,0.004,0.012,-0.01,-0.025,-0.019,0.88,0.481,0.299,-0.569,0.825,0x00000003,0.0,0.0,0.009,-0.0,0.002,-0.001,0.001,0.0,0.0,-0.001,-0.001,0.0,0.0,-0.001,0.153,0.191,0.0,0.0,0.191,34.991,34.991,0.0,0.0,0.0,97.266,97.266,0.0,0.0,26.25,26.125,0.0,0.0,0.0,0.0,90.0,76.789,0.109,27.125,0x00000000,0x00000000,0x00000000,0.0,1246,1279,5.114,7.051,0.0,0.0,0.102,0.055,0.0,0.0,1.0,0.981,0.981,0.981,0.196,1.0,1.0,0.462,0.584,0.57,24.267,0x00000101,192.168.0.40,8080,255.255.255.0,192.168.0.1,0xFFFFFFFF,0xFFFFFFFF,0xFFFFFFFF,0x00000000,
1.48135995865,0x00000000,0x00000000,0x00000000,0x00000000,0x00000000,0x00000000,0x00000000,0x00000000,57.46,3,0x00000000,97.266,98.431,0.005,0.013,-0.011,-0.017,-0.006,0.883,-0.294,0.286,-0.31,0.813,0x00000003,0.0,0.0,0.01,0.0,0.002,-0.0,0.001,0.0,0.0,-0.001,-0.001,0.0,0.0,-0.001,0.153,0.254,0.0,0.0,0.254,34.991,34.991,0.0,0.0,0.0,97.266,97.266,0.0,0.0,26.25,26.125,0.0,0.0,0.0,0.0,90.0,76.789,0.109,27.125,0x00000000,0x00000000,0x00000000,0.0,1246,1279,8.373,2.641,0.0,0.0,0.102,0.055,0.0,0.0,1.0,0.981,0.981,0.981,0.196,1.0,1.0,0.462,0.584,0.57,24.267,0x00000101,192.168.0.40,8080,255.255.255.0,192.168.0.1,0xFFFFFFFF,0xFFFFFFFF,0xFFFFFFFF,0x00000000,
1.53143906593,0x00000000,0x00000000,0x00000000,0x00000000,0x00000000,0x00000000,0x00000000,0x00000000,57.51,3,0x00000000,97.266,98.431,0.005,0.013,-0.005,-0.008,-0.012,0.888,-0.077,0.266,-0.074,1.161,0x00000003,0.0,0.0,-0.004,0.0,0.001,-0.0,-0.0,0.0,0.0,-0.001,-0.001,0.0,0.0,-0.001,0.254,0.254,0.0,0.0,0.254,34.991,34.991,0.0,0.0,0.0,97.266,97.266,0.0,0.0,26.25,26.125,0.0,0.0,0.0,0.0,90.0,76.789,0.109,27.125,0x00000000,0x00000000,0x00000000,0.0,1246,1279,9.315,4.336,0.0,0.0,0.102,0.055,0.0,0.0,1.0,0.981,0.981,0.981,0.196,1.0,1.0,0.462,0.584,0.57,24.267,0x00000101,192.168.0.40,8080,255.255.255.0,192.168.0.1,0xFFFFFFFF,0xFFFFFFFF,0xFFFFFFFF,0x00000000,
1.58152103424,0x00000000,0x00000000,0x00000000,0x00000000,0x00000000,0x00000000,0x00000000,0x00000000,57.56,3,0x00000000,97.266,98.431,0.003,0.012,-0.017,-0.008,-0.049,0.915,0.639,0.286,0.417,0.829,0x00000003,0.0,0.0,-0.007,-0.0,0.002,-0.001,0.001,0.0,0.0,-0.001,-0.001,0.0,0.0,-0.001,0.153,0.254,0.0,0.0,0.254,34.991,34.991,0.0,0.0,0.0,97.266,97.266,0.0,0.0,26.25,26.125,0.0,0.0,0.0,0.0,90.0,76.789,0.109,27.125,0x00000000,0x00000000,0x00000000,0.0,1246,1279,9.019,4.747,0.0,0.0,0.102,0.055,0.0,0.0,1.0,0.981,0.981,0.981,0.196,1.0,1.0,0.462,0.584,0.57,24.267,0x00000101,192.168.0.40,8080,255.255.255.0,192.168.0.1,0xFFFFFFFF,0xFFFFFFFF,0xFFFFFFFF,0x00000000,
1.63160705566,0x00000000,0x00000000,0x00000000,0x00000000,0x00000000,0x00000000,0x00000000,0x00000000,57.61,3,0x00000000,97.266,98.431,0.004,0.013,-0.014,-0.004,-0.006,0.901,0.099,0.306,0.194,0.128,0x00000003,0.0,0.0,0.003,-0.0,0.001,-0.0,0.0,0.0,0.0,-0.001,-0.001,0.0,0.0,-0.001,-0.992,1.259,0.0,0.0,1.259,34.991,34.991,0.0,0.0,0.0,97.266,97.266,0.0,0.0,26.25,26.063,0.0,0.0,0.0,0.0,90.0,76.773,0.109,27.125,0x00000000,0x00000000,0x00000000,0.0,1246,1279,8.143,4.765,0.0,0.0,0.102,0.055,0.0,0.0,1.0,0.981,0.981,0.981,0.196,1.0,1.0,0.462,0.584,0.57,24.267,0x00000101,192.168.0.40,8080,255.255.255.0,192.168.0.1,0xFFFFFFFF,0xFFFFFFFF,0xFFFFFFFF,0x00000000,
1.68167710304,0x00000000,0x00000000,0x00000000,0x00000000,0x00000000,0x00000000,0x00000000,0x00000000,57.66,3,0x00000000,97.266,98.431,0.004,0.013,-0.011,-0.008,-0.006,0.898,-0.07,0.29,-1.287,0.119,0x00000003,0.0,0.0,0.005,-0.0,0.002,-0.002,0.002,0.0,0.0,-0.001,-0.001,0.0,0.0,-0.001,1.475,-0.788,0.0,0.0,1.475,34.991,34.991,0.0,0.0,0.0,97.266,97.266,0.0,0.0,26.25,26.063,0.0,0.0,0.0,0.0,90.0,76.773,0.109,27.125,0x00000000,0x00000000,0x00000000,0.0,1246,1279,9.291,3.58,0.0,0.0,0.102,0.055,0.0,0.0,1.0,0.981,0.981,0.981,0.196,1.0,1.0,0.462,0.584,0.57,24.267,0x00000101,192.168.0.40,8080,255.255.255.0,192.168.0.1,0xFFFFFFFF,0xFFFFFFFF,0xFFFFFFFF,0x00000000,
1.73176693916,0x00000000,0x00000000,0x00000000,0x00000000,0x00000000,0x00000000,0x00000000,0x00000000,57.71,3,0x00000000,97.266,98.431,0.005,0.012,-0.01,-0.012,-0.025,0.895,-0.63,0.308,0.7,-0.21,0x00000003,0.0,0.0,-0.002,-0.0,0.003,-0.001,0.0,0.0,0.0,-0.001,-0.001,0.0,0.0,-0.001,1.068,-0.496,0.0,0.0,1.068,34.991,34.991,0.0,0.0,0.0,97.266,97.266,0.0,0.0,26.25,26.063,0.0,0.0,0.0,0.0,90.0,76.773,0.109,27.125,0x00000000,0x00000000,0x00000000,0.0,1246,1279,7.118,5.075,0.0,0.0,0.103,0.055,0.0,0.0,1.0,0.981,0.981,0.981,0.196,1.0,1.0,0.462,0.584,0.57,24.267,0x00000101,192.168.0.40,8080,255.255.255.0,192.168.0.1,0xFFFFFFFF,0xFFFFFFFF,0xFFFFFFFF,0x00000000,
1.78183913231,0x00000000,0x00000000,0x00000000,0x00000000,0x00000000,0x00000000,0x00000000,0x00000000,57.76,3,0x00000000,97.266,98.431,0.005,0.013,-0.018,-0.016,-0.043,0.903,0.191,0.326,-0.039,-0.563,0x00000003,0.0,0.0,-0.002,-0.0,0.002,-0.0,0.0,0.0,0.0,-0.001,-0.001,0.0,0.0,-0.001,0.038,0.203,0.0,0.0,0.203,34.991,34.991,0.0,0.0,0.0,97.266,97.266,0.0,0.0,26.25,26.063,0.0,0.0,0.0,0.0,90.0,76.773,0.109,27.125,0x00000000,0x00000000,0x00000000,0.0,1246,1279,7.271,4.779,0.0,0.0,0.103,0.055,0.0,0.0,1.0,0.981,0.981,0.981,0.196,1.0,1.0,0.462,0.584,0.57,24.267,0x00000101,192.168.0.40,8080,255.255.255.0,192.168.0.1,0xFFFFFFFF,0xFFFFFFFF,0xFFFFFFFF,0x00000000,
1.83192896843,0x00000000,0x00000000,0x00000000,0x00000000,0x00000000,0x00000000,0x00000000,0x00000000,57.81,3,0x00000000,97.266,98.431,0.004,0.013,-0.016,-0.021,0.006,0.889,0.255,0.324,0.202,-0.22,0x00000003,0.0,0.0,-0.001,-0.0,0.001,-0.0,-0.0,0.0,0.0,-0.001,-0.001,0.0,0.0,-0.001,-0.369,0.534,0.0,0.0,0.534,34.991,34.991,0.0,0.0,0.0,97.266,97.266,0.0,0.0,26.25,26.063,0.0,0.0,0.0,0.0,90.0,76.773,0.109,27.125,0x00000000,0x00000000,0x00000000,0.0,1246,1279,4.874,4.133,0.0,0.0,0.103,0.055,0.0,0.0,1.0,0.981,0.981,0.981,0.196,1.0,1.0,0.462,0.584,0.57,24.267,0x00000101,192.168.0.40,8080,255.255.255.0,192.168.0.1,0xFFFFFFFF,0xFFFFFFFF,0xFFFFFFFF,0x00000000,
1.88199996948,0x00000000,0x00000000,0x00000000,0x00000000,0x00000000,0x00000000,0x00000000,0x00000000,57.86,3,0x00000000,97.266,98.431,0.004,0.013,-0.01,-0.012,-0.025,0.886,0.073,0.349,0.909,1.171,0x00000003,0.0,0.0,0.003,-0.0,0.001,-0.0,0.0,0.0,0.0,-0.001,-0.001,0.0,0.0,-0.001,0.356,-0.102,0.0,0.0,0.356,34.991,34.991,0.0,0.0,0.0,97.266,97.266,0.0,0.0,26.25,26.125,0.0,0.0,0.0,0.0,90.0,76.773,0.109,27.125,0x00000000,0x00000000,0x00000000,0.0,1246,1279,6.769,3.552,0.0,0.0,0.103,0.055,0.0,0.0,1.0,0.981,0.981,0.981,0.196,1.0,1.0,0.462,0.584,0.57,24.267,0x00000101,192.168.0.40,8080,255.255.255.0,192.168.0.1,0xFFFFFFFF,0xFFFFFFFF,0xFFFFFFFF,0x00000000,
1.93208909035,0x00000000,0x00000000,0x00000000,0x00000000,0x00000000,0x00000000,0x00000000,0x00000000,57.91,3,0x00000000,97.266,98.431,0.003,0.013,-0.017,-0.017,0.012,0.888,-0.25,0.357,0.427,0.817,0x00000003,0.0,0.0,0.004,-0.0,0.001,-0.0,0.0,0.0,0.0,-0.001,-0.001,0.0,0.0,-0.001,-0.865,1.589,0.0,0.0,1.589,34.991,34.991,0.0,0.0,0.0,97.266,97.266,0.0,0.0,26.25,26.125,0.0,0.0,0.0,0.0,90.0,76.773,0.109,27.125,0x00000000,0x00000000,0x00000000,0.0,1246,1279,6.003,7.085,0.0,0.0,0.103,0.056,0.0,0.0,1.0,0.981,0.981,0.981,0.196,1.0,1.0,0.462,0.584,0.57,24.267,0x00000101,192.168.0.40,8080,255.255.255.0,192.168.0.1,0xFFFFFFFF,0xFFFFFFFF,0xFFFFFFFF,0x00000000,
1.98216509819,0x00000000,0x00000000,0x00000000,0x00000000,0x00000000,0x00000000,0x00000000,0x00000000,57.96,3,0x00000000,97.266,98.431,0.004,0.012,-0.02,-0.021,-0.031,0.886,-0.231,0.367,0.223,-0.92,0x00000003,0.0,0.0,-0.0,-0.0,0.001,-0.0,0.0,0.0,0.0,-0.001,-0.001,0.0,0.0,-0.001,-0.661,1.208,0.0,0.0,1.208,34.991,34.991,0.0,0.0,0.0,97.266,97.266,0.0,0.0,26.25,26.063,0.0,0.0,0.0,0.0,90.0,76.773,0.109,27.125,0x00000000,0x00000000,0x00000000,0.0,1246,1279,5.337,4.866,0.0,0.0,0.103,0.056,0.0,0.0,1.0,0.981,0.981,0.981,0.196,1.0,1.0,0.462,0.584,0.57,24.267,0x00000101,192.168.0.40,8080,255.255.255.0,192.168.0.1,0xFFFFFFFF,0xFFFFFFFF,0xFFFFFFFF,0x00000000,
2.03224110603,0x00000000,0x00000000,0x00000000,0x00000000,0x00000000,0x00000000,0x00000000,0x00000000,58.01,3,0x00000000,97.266,98.431,0.004,0.012,-0.018,-0.013,-0.001,0.889,0.116,0.363,0.196,-0.21,0x00000003,0.0,0.0,0.0,0.0,0.001,-0.0,0.0,0.0,0.0,-0.001,-0.001,0.0,0.0,-0.001,-0.369,0.712,0.0,0.0,0.712,34.991,34.991,0.0,0.0,0.0,97.266,97.266,0.0,0.0,26.25,26.063,0.0,0.0,0.0,0.0,90.0,76.773,0.109,27.125,0x00000000,0x00000000,0x00000000,0.0,1246,1279,6.609,5.13,0.0,0.0,0.103,0.056,0.0,0.0,1.0,0.981,0.981,0.981,0.196,1.0,1.0,0.462,0.584,0.57,24.267,0x00000101,192.168.0.40,8080,255.255.255.0,192.168.0.1,0xFFFFFFFF,0xFFFFFFFF,0xFFFFFFFF,0x00000000,
2.08231806755,0x00000000,0x00000000,0x00000000,0x00000000,0x00000000,0x00000000,0x00000000,0x00000000,58.06,3,0x00000000,97.266,98.431,0.004,0.013,-0.005,-0.021,-0.031,0.895,0.326,0.363,-0.576,0.832,0x00000003,0.0,0.0,-0.001,-0.0,0.001,-0.001,0.0,0.0,0.0,-0.001,-0.001,0.0,0.0,-0.001,-0.877,1.437,0.0,0.0,1.437,34.991,34.991,0.0,0.0,0.0,97.266,97.266,0.0,0.0,26.25,26.063,0.0,0.0,0.0,0.0,90.0,76.773,0.109,27.125,0x00000000,0x00000000,0x00000000,0.0,1246,1279,8.592,4.961,0.0,0.0,0.103,0.056,0.0,0.0,1.0,0.981,0.981,0.981,0.196,1.0,1.0,0.462,0.584,0.57,24.267,0x00000101,192.168.0.40,8080,255.255.255.0,192.168.0.1,0xFFFFFFFF,0xFFFFFFFF,0xFFFFFFFF,0x00000000,
2.13240909576,0x00000000,0x00000000,0x00000000,0x00000000,0x00000000,0x00000000,0x00000000,0x00000000,58.11,3,0x00000000,97.266,98.431,0.004,0.013,-0.023,-0.025,-0.019,0.9,-0.207,0.346,0.175,0.822,0x00000003,0.0,0.0,0.001,0.0,0.0,0.0,0.0,0.0,0.0,-0.001,-0.001,0.0,0.0,-0.001,0.865,-0.509,0.0,0.0,0.865,34.991,34.991,0.0,0.0,0.0,97.266,97.266,0.0,0.0,26.25,26.063,0.0,0.0,0.0,0.0,90.0,76.773,0.109,27.125,0x00000000,0x00000000,0x00000000,0.0,1246,1279,7.672,5.214,0.0,0.0,0.103,0.056,0.0,0.0,1.0,0.981,0.981,0.981,0.196,1.0,1.0,0.462,0.584,0.57,24.267,0x00000101,192.168.0.40,8080,255.255.255.0,192.168.0.1,0xFFFFFFFF,0xFFFFFFFF,0xFFFFFFFF,0x00000000,
2.18247199059,0x00000000,0x00000000,0x00000000,0x00000000,0x00000000,0x00000000,0x00000000,0x00000000,58.16,3,0x00000000,97.266,98.431,0.004,0.012,-0.004,-0.013,-0.006,0.887,0.37,0.337,-0.063,0.131,0x00000003,0.0,0.0,0.012,0.0,0.001,-0.0,0.001,0.0,0.0,-0.001,-0.001,0.0,0.0,-0.001,0.254,-0.051,0.0,0.0,0.254,34.991,34.991,0.0,0.0,0.0,97.266,97.266,0.0,0.0,26.25,26.125,0.0,0.0,0.0,0.0,90.0,76.781,0.109,27.125,0x00000000,0x00000000,0x00000000,0.0,1246,1279,6.89,8.894,0.0,0.0,0.103,0.056,0.0,0.0,1.0,0.981,0.981,0.981,0.196,1.0,1.0,0.462,0.584,0.57,24.267,0x00000101,192.168.0.40,8080,255.255.255.0,192.168.0.1,0xFFFFFFFF,0xFFFFFFFF,0xFFFFFFFF,0x00000000,
2.23256111145,0x00000000,0x00000000,0x00000000,0x00000000,0x00000000,0x00000000,0x00000000,0x00000000,58.21,3,0x00000000,97.266,98.431,0.005,0.012,-0.004,-0.008,-0.018,0.881,0.043,0.317,-0.579,1.163,0x00000003,0.0,0.0,-0.008,0.0,0.001,-0.001,0.0,0.0,0.0,-0.001,-0.001,0.0,0.0,-0.001,0.966,-0.687,0.0,0.0,0.966,34.991,34.991,0.0,0.0,0.0,97.266,97.266,0.0,0.0,26.25,26.063,0.0,0.0,0.0,0.0,90.0,76.781,0.109,27.125,0x00000000,0x00000000,0x00000000,0.0,1246,1279,5.038,8.024,0.0,0.0,0.104,0.056,0.0,0.0,1.0,0.981,0.981,0.981,0.196,1.0,1.0,0.462,0.584,0.57,24.267,0x00000101,192.168.0.40,8080,255.255.255.0,192.168.0.1,0xFFFFFFFF,0xFFFFFFFF,0xFFFFFFFF,0x00000000,
2.28263092041,0x00000000,0x00000000,0x00000000,0x00000000,0x00000000,0x00000000,0x00000000,0x00000000,58.26,3,0x00000000,97.266,98.431,0.005,0.013,-0.015,-0.004,-0.007,0.887,-0.022,0.327,0.457,-0.576,0x00000003,0.0,0.0,-0.01,-0.0,0.002,-0.002,0.001,0.0,0.0,-0.001,-0.001,0.0,0.0,-0.001,0.267,0.064,0.0,0.0,0.267,34.991,34.991,0.0,0.0,0.0,97.266,97.266,0.0,0.0,26.25,26.063,0.0,0.0,0.0,0.0,90.0,76.781,0.109,27.125,0x00000000,0x00000000,0x00000000,0.0,1246,1279,7.518,4.906,0.0,0.0,0.104,0.056,0.0,0.0,1.0,0.981,0.981,0.981,0.196,1.0,1.0,0.462,0.584,0.57,24.267,0x00000101,192.168.0.40,8080,255.255.255.0,192.168.0.1,0xFFFFFFFF,0xFFFFFFFF,0xFFFFFFFF,0x00000000,
2.33272194862,0x00000000,0x00000000,0x00000000,0x00000000,0x00000000,0x00000000,0x00000000,0x00000000,58.31,3,0x00000000,97.266,98.431,0.005,0.013,-0.019,-0.012,-0.025,0.87,-0.601,0.336,-0.088,1.51,0x00000003,0.0,0.0,-0.009,-0.0,0.002,-0.001,0.001,0.0,0.0,-0.001,-0.001,0.0,0.0,-0.001,-0.254,0.61,0.0,0.0,0.61,34.991,34.991,0.0,0.0,0.0,97.266,97.266,0.0,0.0,26.25,26.063,0.0,0.0,0.0,0.0,90.0,76.781,0.109,27.125,0x00000000,0x00000000,0x00000000,0.0,1246,1279,7.221,4.772,0.0,0.0,0.104,0.056,0.0,0.0,1.0,0.981,0.981,0.981,0.196,1.0,1.0,0.462,0.584,0.57,24.267,0x00000101,192.168.0.40,8080,255.255.255.0,192.168.0.1,0xFFFFFFFF,0xFFFFFFFF,0xFFFFFFFF,0x00000000,
2.38279294968,0x00000000,0x00000000,0x00000000,0x00000000,0x00000000,0x00000000,0x00000000,0x00000000,58.36,3,0x00000000,97.266,98.431,0.005,0.012,-0.005,-0.004,-0.031,0.873,0.598,0.337,-0.561,0.127,0x00000003,0.0,0.0,-0.0,-0.0,0.002,-0.0,0.0,0.0,0.0,-0.001,-0.001,0.0,0.0,-0.001,0.356,-0.203,0.0,0.0,0.356,34.991,34.991,0.0,0.0,0.0,97.266,97.266,0.0,0.0,26.25,26.125,0.0,0.0,0.0,0.0,90.0,76.781,0.109,27.125,0x00000000,0x00000000,0x00000000,0.0,1246,1279,5.052,4.766,0.0,0.0,0.104,0.056,0.0,0.0,1.0,0.981,0.981,0.981,0.196,1.0,1.0,0.462,0.584,0.57,24.267,0x00000101,192.168.0.40,8080,255.255.255.0,192.168.0.1,0xFFFFFFFF,0xFFFFFFFF,0xFFFFFFFF,0x00000000,
2.43288302422,0x00000000,0x00000000,0x00000000,0x00000000,0x00000000,0x00000000,0x00000000,0x00000000,58.41,3,0x00000000,97.266,98.431,0.005,0.013,-0.015,-0.017,-0.018,0.871,-0.184,0.338,-0.8,0.117,0x00000003,0.0,0.0,0.007,-0.0,0.001,-0.0,0.001,0.0,0.0,-0.001,-0.001,0.0,0.0,-0.001,-0.572,1.03,0.0,0.0,1.03,34.991,34.991,0.0,0.0,0.0,97.266,97.266,0.0,0.0,26.25,26.125,0.0,0.0,0.0,0.0,90.0,76.781,0.109,27.125,0x00000000,0x00000000,0x00000000,0.0,1246,1279,9.158,5.694,0.0,0.0,0.104,0.056,0.0,0.0,1.0,0.981,0.981,0.981,0.196,1.0,1.0,0.462,0.584,0.57,24.267,0x00000101,192.168.0.40,8080,255.255.255.0,192.168.0.1,0xFFFFFFFF,0xFFFFFFFF,0xFFFFFFFF,0x00000000,
2.48295211792,0x00000000,0x00000000,0x00000000,0x00000000,0x00000000,0x00000000,0x00000000,0x00000000,58.46,3,0x00000000,97.266,98.431,0.004,0.013,-0.021,-0.004,-0.019,0.873,0.818,0.346,0.152,1.169,0x00000003,0.0,0.0,0.002,0.0,0.001,-0.0,0.001,0.0,0.0,-0.001,-0.001,0.0,0.0,-0.001,0.966,-0.75,0.0,0.0,0.966,34.991,34.991,0.0,0.0,0.0,97.266,97.266,0.0,0.0,26.25,26.125,0.0,0.0,0.0,0.0,90.0,76.781,0.109,27.125,0x00000000,0x00000000,0x00000000,0.0,1246,1279,8.997,3.835,0.0,0.0,0.104,0.056,0.0,0.0,1.0,0.981,0.981,0.981,0.196,1.0,1.0,0.462,0.584,0.57,24.267,0x00000101,192.168.0.40,8080,255.255.255.0,192.168.0.1,0xFFFFFFFF,0xFFFFFFFF,0xFFFFFFFF,0x00000000,
2.53304195404,0x00000000,0x00000000,0x00000000,0x00000000,0x00000000,0x00000000,0x00000000,0x00000000,58.51,3,0x00000000,97.266,98.431,0.004,0.013,-0.015,-0.004,-0.025,0.856,0.107,0.348,0.207,-0.581,0x00000003,0.0,0.0,0.002,0.0,0.001,-0.0,0.001,0.0,0.0,-0.001,-0.001,0.0,0.0,-0.001,-0.254,0.966,0.0,0.0,0.966,34.991,34.991,0.0,0.0,0.0,97.266,97.266,0.0,0.0,26.25,26.125,0.0,0.0,0.0,0.0,90.0,76.781,0.109,27.125,0x00000000,0x00000000,0x00000000,0.0,1246,1279,5.761,4.725,0.0,0.0,0.104,0.056,0.0,0.0,1.0,0.981,0.981,0.981,0.196,1.0,1.0,0.462,0.584,0.57,24.267,0x00000101,192.168.0.40,8080,255.255.255.0,192.168.0.1,0xFFFFFFFF,0xFFFFFFFF,0xFFFFFFFF,0x00000000,
2.58311009407,0x00000000,0x00000000,0x00000000,0x00000000,0x00000000,0x00000000,0x00000000,0x00000000,58.56,3,0x00000000,97.266,98.431,0.005,0.013,-0.017,-0.004,-0.006,0.875,1.057,0.349,0.201,-0.911,0x00000003,0.0,0.0,-0.009,-0.0,0.002,-0.002,0.0,0.0,0.0,-0.001,-0.001,0.0,0.0,-0.001,0.966,-0.572,0.0,0.0,0.966,34.991,34.991,0.0,0.0,0.0,97.266,97.266,0.0,0.0,26.25,26.063,0.0,0.0,0.0,0.0,90.0,76.781,0.109,27.125,0x00000000,0x00000000,0x00000000,0.0,1246,1279,4.809,1.908,0.0,0.0,0.104,0.056,0.0,0.0,1.0,0.981,0.981,0.981,0.196,1.0,1.0,0.462,0.584,0.57,24.267,0x00000101,192.168.0.40,8080,255.255.255.0,192.168.0.1,0xFFFFFFFF,0xFFFFFFFF,0xFFFFFFFF,0x00000000,
2.63320493698,0x00000000,0x00000000,0x00000000,0x00000000,0x00000000,0x00000000,0x00000000,0x00000000,58.61,3,0x00000000,97.266,98.431,0.005,0.012,-0.018,-0.021,-0.037,0.885,0.453,0.351,0.18,0.126,0x00000003,0.0,0.0,-0.005,-0.0,0.003,-0.001,-0.0,0.0,0.0,-0.001,-0.001,0.0,0.0,-0.001,0.14,0.305,0.0,0.0,0.305,34.991,34.991,0.0,0.0,0.0,97.266,97.266,0.0,0.0,26.25,26.125,0.0,0.0,0.0,0.0,90.0,76.781,0.109,27.125,0x00000000,0x00000000,0x00000000,0.0,1246,1279,5.285,4.642,0.0,0.0,0.104,0.057,0.0,0.0,1.0,0.981,0.981,0.981,0.196,1.0,1.0,0.462,0.584,0.57,24.267,0x00000101,192.168.0.40,8080,255.255.255.0,192.168.0.1,0xFFFFFFFF,0xFFFFFFFF,0xFFFFFFFF,0x00000000,
2.68327307701,0x00000000,0x00000000,0x00000000,0x00000000,0x00000000,0x00000000,0x00000000,0x00000000,58.66,3,0x00000000,97.266,98.431,0.004,0.012,-0.015,-0.021,-0.024,0.88,-0.229,0.355,0.155,1.507,0x00000003,0.0,0.0,0.005,-0.0,0.002,-0.0,0.0,0.0,0.0,-0.001,-0.001,0.0,0.0,-0.001,0.572,-0.165,0.0,0.0,0.572,34.991,34.991,0.0,0.0,0.0,97.266,97.266,0.0,0.0,26.25,26.063,0.0,0.0,0.0,0.0,90.0,76.781,0.109,27.125,0x00000000,0x00000000,0x00000000,0.0,1246,1279,6.154,2.357,0.0,0.0,0.104,0.057,0.0,0.0,1.0,0.981,0.981,0.981,0.196,1.0,1.0,0.462,0.584,0.57,24.267,0x00000101,192.168.0.40,8080,255.255.255.0,192.168.0.1,0xFFFFFFFF,0xFFFFFFFF,0xFFFFFFFF,0x00000000,
2.73335909843,0x00000000,0x00000000,0x00000000,0x00000000,0x00000000,0x00000000,0x00000000,0x00000000,58.71,3,0x00000000,97.266,98.431,0.004,0.012,-0.023,-0.013,0.012,0.869,-0.166,0.353,-0.065,0.46,0x00000003,0.0,0.0,0.001,0.0,0.001,0.0,0.0,0.0,0.0,-0.001,-0.001,0.0,0.0,-0.001,1.373,-0.865,0.0,0.0,1.373,34.991,34.991,0.0,0.0,0.0,97.266,97.266,0.0,0.0,26.25,26.063,0.0,0.0,0.0,0.0,90.0,76.781,0.109,27.125,0x00000000,0x00000000,0x00000000,0.0,1246,1279,9.385,4.029,0.0,0.0,0.105,0.057,0.0,0.0,1.0,0.981,0.981,0.981,0.196,1.0,1.0,0.462,0.584,0.57,24.267,0x00000101,192.168.0.40,8080,255.255.255.0,192.168.0.1,0xFFFFFFFF,0xFFFFFFFF,0xFFFFFFFF,0x00000000,
2.78343200684,0x00000000,0x00000000,0x00000000,0x00000000,0x00000000,0x00000000,0x00000000,0x00000000,58.76,3,0x00000000,97.266,98.431,0.004,0.013,-0.004,-0.013,-0.019,0.86,0.035,0.353,0.443,-0.23,0x00000003,0.0,0.0,-0.001,0.0,0.0,0.0,0.0,0.0,0.0,-0.001,-0.001,0.0,0.0,-0.001,-0.661,1.437,0.0,0.0,1.437,34.991,34.991,0.0,0.0,0.0,97.266,97.266,0.0,0.0,26.25,26.125,0.0,0.0,0.0,0.0,90.0,76.781,0.109,27.125,0x00000000,0x00000000,0x00000000,0.0,1246,1279,7.122,4.734,0.0,0.0,0.105,0.057,0.0,0.0,1.0,0.981,0.981,0.981,0.196,1.0,1.0,0.462,0.584,0.57,24.267,0x00000101,192.168.0.40,8080,255.255.255.0,192.168.0.1,0xFFFFFFFF,0xFFFFFFFF,0xFFFFFFFF,0x00000000,
2.83351898193,0x00000000,0x00000000,0x00000000,0x00000000,0x00000000,0x00000000,0x00000000,0x00000000,58.81,3,0x00000000,97.266,98.431,0.005,0.013,-0.02,-0.021,-0.0,0.86,0.132,0.368,0.671,0.466,0x00000003,0.0,0.0,-0.001,0.0,0.001,-0.001,0.001,0.0,0.0,-0.001,-0.001,0.0,0.0,-0.001,-0.648,1.551,0.0,0.0,1.551,34.991,34.991,0.0,0.0,0.0,97.266,97.266,0.0,0.0,26.25,26.125,0.0,0.0,0.0,0.0,90.0,76.781,0.109,27.125,0x00000000,0x00000000,0x00000000,0.0,1246,1279,6.686,2.541,0.0,0.0,0.105,0.057,0.0,0.0,1.0,0.981,0.981,0.981,0.196,1.0,1.0,0.462,0.584,0.57,24.267,0x00000101,192.168.0.40,8080,255.255.255.0,192.168.0.1,0xFFFFFFFF,0xFFFFFFFF,0xFFFFFFFF,0x00000000,
2.88358998299,0x00000000,0x00000000,0x00000000,0x00000000,0x00000000,0x00000000,0x00000000,0x00000000,58.86,3,0x00000000,97.266,98.431,0.004,0.013,-0.015,-0.026,0.018,0.867,0.484,0.367,-0.298,-0.572,0x00000003,0.0,0.0,0.006,0.0,0.0,0.001,0.0,0.0,0.0,-0.001,-0.001,0.0,0.0,-0.001,0.051,0.47,0.0,0.0,0.47,34.991,34.991,0.0,0.0,0.0,97.266,97.266,0.0,0.0,26.25,26.125,0.0,0.0,0.0,0.0,90.0,76.781,0.109,27.125,0x00000000,0x00000000,0x00000000,0.0,1246,1279,9.071,5.935,0.0,0.0,0.105,0.057,0.0,0.0,1.0,0.981,0.981,0.981,0.196,1.0,1.0,0.462,0.584,0.57,24.267,0x00000101,192.168.0.40,8080,255.255.255.0,192.168.0.1,0xFFFFFFFF,0xFFFFFFFF,0xFFFFFFFF,0x00000000,
2.93369007111,0x00000000,0x00000000,0x00000000,0x00000000,0x00000000,0x00000000,0x00000000,0x00000000,58.91,3,0x00000000,97.266,98.431,0.004,0.013,-0.011,-0.013,-0.0,0.87,0.105,0.365,0.413,0.811,0x00000003,0.0,0.0,-0.025,-0.0,0.0,-0.002,-0.001,0.0,0.0,-0.001,-0.001,0.0,0.0,-0.001,-0.648,1.322,0.0,0.0,1.322,34.991,34.991,0.0,0.0,0.0,97.266,97.266,0.0,0.0,26.25,26.125,0.0,0.0,0.0,0.0,90.0,76.781,0.109,27.125,0x00000000,0x00000000,0x00000000,0.0,1246,1279,7.693,4.816,0.0,0.0,0.105,0.057,0.0,0.0,1.0,0.981,0.981,0.981,0.196,1.0,1.0,0.462,0.584,0.57,24.267,0x00000101,192.168.0.40,8080,255.255.255.0,192.168.0.1,0xFFFFFFFF,0xFFFFFFFF,0xFFFFFFFF,0x00000000,
2.98375701904,0x00000000,0x00000000,0x00000000,0x00000000,0x00000000,0x00000000,0x00000000,0x00000000,58.96,3,0x00000000,97.266,98.431,0.005,0.013,-0.019,-0.017,-0.043,0.856,-0.441,0.363,-0.321,0.8,0x00000003,0.0,0.0,0.001,-0.0,0.001,-0.001,-0.0,0.0,0.0,-0.001,-0.001,0.0,0.0,-0.001,-0.763,1.437,0.0,0.0,1.437,34.991,34.991,0.0,0.0,0.0,97.266,97.266,0.0,0.0,26.25,26.063,0.0,0.0,0.0,0.0,90.0,76.781,0.109,27.125,0x00000000,0x00000000,0x00000000,0.0,1246,1279,8.086,4.768,0.0,0.0,0.105,0.057,0.0,0.0,1.0,0.981,0.981,0.981,0.196,1.0,1.0,0.462,0.584,0.57,24.267,0x00000101,192.168.0.40,8080,255.255.255.0,192.168.0.1,0xFFFFFFFF,0xFFFFFFFF,0xFFFFFFFF,0x00000000,
3.03386092186,0x00000000,0x00000000,0x00000000,0x00000000,0x00000000,0x00000000,0x00000000,0x00000000,59.01,3,0x00000000,97.266,98.431,0.004,0.012,0.001,-0.038,-0.049,0.845,-0.205,0.35,-0.803,0.109,0x00000003,0.0,0.0,-0.0,0.0,0.001,-0.0,0.0,0.0,0.0,-0.001,-0.001,0.0,0.0,-0.001,-0.763,1.221,0.0,0.0,1.221,34.991,34.991,0.0,0.0,0.0,97.266,97.266,0.0,0.0,26.25,26.063,0.0,0.0,0.0,0.0,90.0,76.781,0.109,27.125,0x00000000,0x00000000,0x00000000,0.0,1246,1279,5.427,4.766,0.0,0.0,0.105,0.057,0.0,0.0,1.0,0.981,0.981,0.981,0.196,1.0,1.0,0.462,0.584,0.57,24.267,0x00000101,192.168.0.40,8080,255.255.255.0,192.168.0.1,0xFFFFFFFF,0xFFFFFFFF,0xFFFFFFFF,0x00000000,
3.0839099884,0x00000000,0x00000000,0x00000000,0x00000000,0x00000000,0x00000000,0x00000000,0x00000000,59.06,3,0x00000000,97.266,98.431,0.005,0.013,-0.022,0.001,-0.043,0.851,0.091,0.346,0.682,0.104,0x00000003,0.0,0.0,0.002,0.0,0.001,-0.0,0.001,0.0,0.0,-0.001,-0.001,0.0,0.0,-0.001,-0.763,1.132,0.0,0.0,1.132,34.991,34.991,0.0,0.0,0.0,97.266,97.266,0.0,0.0,26.25,26.063,0.0,0.0,0.0,0.0,90.0,76.781,0.109,27.125,0x00000000,0x00000000,0x00000000,0.0,1246,1279,7.83,4.586,0.0,0.0,0.105,0.057,0.0,0.0,1.0,0.981,0.981,0.981,0.196,1.0,1.0,0.462,0.584,0.57,24.267,0x00000101,192.168.0.40,8080,255.255.255.0,192.168.0.1,0xFFFFFFFF,0xFFFFFFFF,0xFFFFFFFF,0x00000000,
3.13400101662,0x00000000,0x00000000,0x00000000,0x00000000,0x00000000,0x00000000,0x00000000,0x00000000,59.11,3,0x00000000,97.266,98.431,0.005,0.012,-0.017,-0.03,-0.006,0.832,-0.295,0.36,0.437,0.105,0x00000003,0.0,0.0,-0.003,0.0,0.001,-0.0,0.0,0.0,0.0,-0.001,-0.001,0.0,0.0,-0.001,0.254,0.254,0.0,0.0,0.254,34.991,34.991,0.0,0.0,0.0,97.266,97.266,0.0,0.0,26.25,26.063,0.0,0.0,0.0,0.0,90.0,76.781,0.109,27.125,0x00000000,0x00000000,0x00000000,0.0,1246,1279,5.868,4.758,0.0,0.0,0.105,0.057,0.0,0.0,1.0,0.981,0.981,0.981,0.196,1.0,1.0,0.462,0.584,0.57,24.267,0x00000101,192.168.0.40,8080,255.255.255.0,192.168.0.1,0xFFFFFFFF,0xFFFFFFFF,0xFFFFFFFF,0x00000000,
3.18406605721,0x00000000,0x00000000,0x00000000,0x00000000,0x00000000,0x00000000,0x00000000,0x00000000,59.16,3,0x00000000,97.266,98.431,0.004,0.013,-0.021,-0.017,-0.0,0.835,0.136,0.355,-0.082,0.806,0x00000003,0.0,0.0,-0.0,0.0,0.002,-0.0,0.0,0.0,0.0,-0.001,-0.001,0.0,0.0,-0.001,0.153,0.178,0.0,0.0,0.178,34.991,34.991,0.0,0.0,0.0,97.266,97.266,0.0,0.0,26.25,26.125,0.0,0.0,0.0,0.0,90.0,76.781,0.109,27.125,0x00000000,0x00000000,0x00000000,0.0,1246,1279,5.784,3.579,0.0,0.0,0.105,0.057,0.0,0.0,1.0,0.981,0.981,0.981,0.196,1.0,1.0,0.462,0.584,0.57,24.267,0x00000101,192.168.0.40,8080,255.255.255.0,192.168.0.1,0xFFFFFFFF,0xFFFFFFFF,0xFFFFFFFF,0x00000000,
3.23416805267,0x00000000,0x00000000,0x00000000,0x00000000,0x00000000,0x00000000,0x00000000,0x00000000,59.21,3,0x00000000,97.266,98.431,0.004,0.013,-0.014,-0.017,-0.0,0.832,-0.086,0.334,-0.302,-0.239,0x00000003,0.0,0.0,0.007,-0.0,0.002,-0.0,0.001,0.0,0.0,-0.001,-0.001,0.0,0.0,-0.001,0.267,0.178,0.0,0.0,0.267,34.991,34.991,0.0,0.0,0.0,97.266,97.266,0.0,0.0,26.25,26.125,0.0,0.0,0.0,0.0,90.0,76.781,0.109,27.125,0x00000000,0x00000000,0x00000000,0.0,1246,1279,6.628,4.377,0.0,0.0,0.106,0.057,0.0,0.0,1.0,0.981,0.981,0.981,0.196,1.0,1.0,0.462,0.584,0.57,24.267,0x00000101,192.168.0.40,8080,255.255.255.0,192.168.0.1,0xFFFFFFFF,0xFFFFFFFF,0xFFFFFFFF,0x00000000,
3.28422904015,0x00000000,0x00000000,0x00000000,0x00000000,0x00000000,0x00000000,0x00000000,0x00000000,59.26,3,0x00000000,97.266,98.431,0.005,0.013,-0.018,-0.021,-0.018,0.824,-0.145,0.33,-0.546,-0.246,0x00000003,0.0,0.0,-0.006,-0.0,0.002,-0.001,0.0,0.0,0.0,-0.001,-0.001,0.0,0.0,-0.001,0.254,0.254,0.0,0.0,0.254,34.991,34.991,0.0,0.0,0.0,97.266,97.266,0.0,0.0,26.25,26.125,0.0,0.0,0.0,0.0,90.0,76.781,0.109,27.125,0x00000000,0x00000000,0x00000000,0.0,1246,1279,8.435,2.526,0.0,0.0,0.106,0.057,0.0,0.0,1.0,0.981,0.981,0.981,0.196,1.0,1.0,0.462,0.584,0.57,24.267,0x00000101,192.168.0.40,8080,255.255.255.0,192.168.0.1,0xFFFFFFFF,0xFFFFFFFF,0xFFFFFFFF,0x00000000,
3.33431696892,0x00000000,0x00000000,0x00000000,0x00000000,0x00000000,0x00000000,0x00000000,0x00000000,59.31,3,0x00000000,97.266,98.431,0.005,0.012,-0.015,-0.038,-0.025,0.822,-0.067,0.303,-0.078,0.799,0x00000003,0.0,0.0,-0.004,-0.0,0.002,-0.001,0.0,0.0,0.0,-0.001,-0.001,0.0,0.0,-0.001,-0.763,1.335,0.0,0.0,1.335,34.991,34.991,0.0,0.0,0.0,97.266,97.266,0.0,0.0,26.25,26.063,0.0,0.0,0.0,0.0,90.0,76.781,0.109,27.125,0x00000000,0x00000000,0x00000000,0.0,1246,1279,8.514,4.669,0.0,0.0,0.106,0.057,0.0,0.0,1.0,0.981,0.981,0.981,0.196,1.0,1.0,0.462,0.584,0.57,24.267,0x00000101,192.168.0.40,8080,255.255.255.0,192.168.0.1,0xFFFFFFFF,0xFFFFFFFF,0xFFFFFFFF,0x00000000,
3.38438892365,0x00000000,0x00000000,0x00000000,0x00000000,0x00000000,0x00000000,0x00000000,0x00000000,59.36,3,0x00000000,97.266,98.431,0.004,0.013,-0.018,-0.012,-0.013,0.818,0.278,0.285,0.661,0.803,0x00000003,0.0,0.0,-0.006,0.0,0.003,-0.001,0.0,0.0,0.0,-0.001,-0.001,0.0,0.0,-0.001,-0.064,0.432,0.0,0.0,0.432,34.991,34.991,0.0,0.0,0.0,97.266,97.266,0.0,0.0,26.25,26.063,0.0,0.0,0.0,0.0,90.0,76.781,0.109,27.125,0x00000000,0x00000000,0x00000000,0.0,1246,1279,5.758,3.575,0.0,0.0,0.106,0.057,0.0,0.0,1.0,0.981,0.981,0.981,0.196,1.0,1.0,0.462,0.584,0.57,24.267,0x00000101,192.168.0.40,8080,255.255.255.0,192.168.0.1,0xFFFFFFFF,0xFFFFFFFF,0xFFFFFFFF,0x00000000,
3.43447899818,0x00000000,0x00000000,0x00000000,0x00000000,0x00000000,0x00000000,0x00000000,0x00000000,59.41,3,0x00000000,97.266,98.431,0.004,0.013,-0.014,-0.025,-0.043,0.81,-0.303,0.284,0.435,0.103,0x00000003,0.0,0.0,0.001,0.0,0.001,0.0,0.0,0.0,0.0,-0.001,-0.001,0.0,0.0,-0.001,0.369,0.254,0.0,0.0,0.369,34.991,34.991,0.0,0.0,0.0,97.266,97.266,0.0,0.0,26.25,26.125,0.0,0.0,0.0,0.0,90.0,76.781,0.109,27.125,0x00000000,0x00000000,0x00000000,0.0,1246,1279,4.823,7.086,0.0,0.0,0.106,0.057,0.0,0.0,1.0,0.981,0.981,0.981,0.196,1.0,1.0,0.462,0.584,0.57,24.267,0x00000101,192.168.0.40,8080,255.255.255.0,192.168.0.1,0xFFFFFFFF,0xFFFFFFFF,0xFFFFFFFF,0x00000000,
3.48454594612,0x00000000,0x00000000,0x00000000,0x00000000,0x00000000,0x00000000,0x00000000,0x00000000,59.46,3,0x00000000,97.266,98.431,0.005,0.012,-0.011,-0.013,0.012,0.81,-0.299,0.279,0.93,0.102,0x00000003,0.0,0.0,-0.002,0.0,0.002,-0.0,0.0,0.0,0.0,-0.001,-0.001,0.0,0.0,-0.001,0.254,0.381,0.0,0.0,0.381,34.991,34.991,0.0,0.0,0.0,97.266,97.266,0.0,0.0,26.25,26.063,0.0,0.0,0.0,0.0,90.0,76.781,0.109,27.125,0x00000000,0x00000000,0x00000000,0.0,1246,1279,5.937,4.866,0.0,0.0,0.106,0.058,0.0,0.0,1.0,0.981,0.981,0.981,0.196,1.0,1.0,0.462,0.584,0.57,24.267,0x00000101,192.168.0.40,8080,255.255.255.0,192.168.0.1,0xFFFFFFFF,0xFFFFFFFF,0xFFFFFFFF,0x00000000,
3.53463697433,0x00000000,0x00000000,0x00000000,0x00000000,0x00000000,0x00000000,0x00000000,0x00000000,59.51,3,0x00000000,97.266,98.431,0.005,0.013,-0.014,-0.013,-0.013,0.817,0.149,0.298,0.689,-0.577,0x00000003,0.0,0.0,0.001,-0.0,0.001,-0.0,0.0,0.0,0.0,-0.001,-0.001,0.0,0.0,-0.001,0.153,0.242,0.0,0.0,0.242,34.991,34.991,0.0,0.0,0.0,97.266,97.266,0.0,0.0,26.25,26.125,0.0,0.0,0.0,0.0,90.0,76.781,0.109,27.125,0x00000000,0x00000000,0x00000000,0.0,1246,1279,5.805,4.77,0.0,0.0,0.106,0.058,0.0,0.0,1.0,0.981,0.981,0.981,0.196,1.0,1.0,0.462,0.584,0.57,24.267,0x00000101,192.168.0.40,8080,255.255.255.0,192.168.0.1,0xFFFFFFFF,0xFFFFFFFF,0xFFFFFFFF,0x00000000,
3.58470797539,0x00000000,0x00000000,0x00000000,0x00000000,0x00000000,0x00000000,0x00000000,0x00000000,59.56,3,0x00000000,97.266,98.431,0.005,0.012,-0.015,-0.004,-0.025,0.818,0.125,0.282,-0.083,0.801,0x00000003,0.0,0.0,-0.0,0.0,0.001,-0.0,0.0,0.0,0.0,-0.001,-0.001,0.0,0.0,-0.001,0.153,0.305,0.0,0.0,0.305,34.991,34.991,0.0,0.0,0.0,97.266,97.266,0.0,0.0,26.25,26.063,0.0,0.0,0.0,0.0,90.0,76.781,0.109,27.125,0x00000000,0x00000000,0x00000000,0.0,1246,1279,8.881,4.133,0.0,0.0,0.106,0.058,0.0,0.0,1.0,0.981,0.981,0.981,0.196,1.0,1.0,0.462,0.584,0.57,24.267,0x00000101,192.168.0.40,8080,255.255.255.0,192.168.0.1,0xFFFFFFFF,0xFFFFFFFF,0xFFFFFFFF,0x00000000,
3.63479709625,0x00000000,0x00000000,0x00000000,0x00000000,0x00000000,0x00000000,0x00000000,0x00000000,59.61,3,0x00000000,97.266,98.431,0.004,0.013,-0.009,-0.017,-0.037,0.817,0.317,0.277,-0.566,0.112,0x00000003,0.0,0.0,-0.002,-0.0,0.002,-0.001,0.001,0.0,0.0,-0.001,-0.001,0.0,0.0,-0.001,0.153,0.178,0.0,0.0,0.178,34.991,34.991,0.0,0.0,0.0,97.266,97.266,0.0,0.0,26.25,26.063,0.0,0.0,0.0,0.0,90.0,76.781,0.109,27.125,0x00000000,0x00000000,0x00000000,0.0,1246,1279,8.004,3.563,0.0,0.0,0.106,0.058,0.0,0.0,1.0,0.981,0.981,0.981,0.196,1.0,1.0,0.462,0.584,0.57,24.267,0x00000101,192.168.0.40,8080,255.255.255.0,192.168.0.1,0xFFFFFFFF,0xFFFFFFFF,0xFFFFFFFF,0x00000000,
3.68486595154,0x00000000,0x00000000,0x00000000,0x00000000,0x00000000,0x00000000,0x00000000,0x00000000,59.66,3,0x00000000,97.266,98.431,0.004,0.013,-0.01,-0.004,-0.037,0.814,-0.291,0.281,-0.283,-0.939,0x00000003,0.0,0.0,0.002,-0.0,0.002,-0.001,0.001,0.0,0.0,-0.001,-0.001,0.0,0.0,-0.001,0.267,0.203,0.0,0.0,0.267,34.991,34.991,0.0,0.0,0.0,97.266,97.266,0.0,0.0,26.25,26.125,0.0,0.0,0.0,0.0,90.0,76.781,0.109,27.125,0x00000000,0x00000000,0x00000000,0.0,1246,1279,8.522,2.498,0.0,0.0,0.106,0.058,0.0,0.0,1.0,0.981,0.981,0.981,0.196,1.0,1.0,0.462,0.584,0.57,24.267,0x00000101,192.168.0.40,8080,255.255.255.0,192.168.0.1,0xFFFFFFFF,0xFFFFFFFF,0xFFFFFFFF,0x00000000,
3.73495793343,0x00000000,0x00000000,0x00000000,0x00000000,0x00000000,0x00000000,0x00000000,0x00000000,59.71,3,0x00000000,97.266,98.431,0.004,0.013,-0.02,-0.004,-0.031,0.793,-0.802,0.278,-0.567,0.797,0x00000003,0.0,0.0,-0.001,-0.0,0.003,-0.001,0.001,0.0,0.0,-0.001,-0.001,0.0,0.0,-0.001,0.153,0.178,0.0,0.0,0.178,34.991,34.991,0.0,0.0,0.0,97.266,97.266,0.0,0.0,26.25,26.125,0.0,0.0,0.0,0.0,90.0,76.781,0.109,27.125,0x00000000,0x00000000,0x00000000,0.0,1246,1279,6.948,2.858,0.0,0.0,0.107,0.058,0.0,0.0,1.0,0.981,0.981,0.981,0.196,1.0,1.0,0.462,0.584,0.57,24.267,0x00000101,192.168.0.40,8080,255.255.255.0,192.168.0.1,0xFFFFFFFF,0xFFFFFFFF,0xFFFFFFFF,0x00000000,
3.78502297401,0x00000000,0x00000000,0x00000000,0x00000000,0x00000000,0x00000000,0x00000000,0x00000000,59.76,3,0x00000000,97.266,98.431,0.004,0.012,-0.025,-0.021,-0.043,0.773,0.023,0.288,-0.296,-0.587,0x00000003,0.0,0.0,0.003,-0.0,0.002,-0.0,0.0,0.0,0.0,-0.001,-0.001,0.0,0.0,-0.001,0.242,0.369,0.0,0.0,0.369,34.991,34.991,0.0,0.0,0.0,97.266,97.266,0.0,0.0,26.25,26.063,0.0,0.0,0.0,0.0,90.0,76.781,0.109,27.125,0x00000000,0x00000000,0x00000000,0.0,1246,1279,8.295,0.939,0.0,0.0,0.107,0.058,0.0,0.0,1.0,0.981,0.981,0.981,0.196,1.0,1.0,0.462,0.584,0.57,24.267,0x00000101,192.168.0.40,8080,255.255.255.0,192.168.0.1,0xFFFFFFFF,0xFFFFFFFF,0xFFFFFFFF,0x00000000,
3.83511304855,0x00000000,0x00000000,0x00000000,0x00000000,0x00000000,0x00000000,0x00000000,0x00000000,59.81,3,0x00000000,97.266,98.431,0.004,0.013,-0.016,-0.023,-0.031,0.759,0.037,0.284,-0.054,-0.573,0x00000003,0.0,0.0,0.005,-0.0,0.002,-0.0,0.0,0.0,0.0,-0.001,-0.001,0.0,0.0,-0.001,0.153,0.305,0.0,0.0,0.305,34.991,34.991,0.0,0.0,0.0,97.266,97.266,0.0,0.0,26.25,26.063,0.0,0.0,0.0,0.0,90.0,76.781,0.109,27.125,0x00000000,0x00000000,0x00000000,0.0,1246,1279,5.452,1.231,0.0,0.0,0.107,0.058,0.0,0.0,1.0,0.981,0.981,0.981,0.196,1.0,1.0,0.462,0.584,0.57,24.267,0x00000101,192.168.0.40,8080,255.255.255.0,192.168.0.1,0xFFFFFFFF,0xFFFFFFFF,0xFFFFFFFF,0x00000000,
3.88518309593,0x00000000,0x00000000,0x00000000,0x00000000,0x00000000,0x00000000,0x00000000,0x00000000,59.86,3,0x00000000,97.266,98.431,0.005,0.013,-0.013,-0.006,-0.018,0.751,0.142,0.281,0.183,-0.057,0x00000003,0.0,0.0,-0.004,-0.0,0.001,-0.001,0.0,0.0,0.0,-0.001,-0.001,0.0,0.0,-0.001,-0.763,-0.038,0.0,0.0,-0.763,34.991,34.991,0.0,0.0,0.0,97.266,97.266,0.0,0.0,26.25,26.125,0.0,0.0,0.0,0.0,90.0,76.781,0.109,27.125,0x00000000,0x00000000,0x00000000,0.0,1246,1279,4.81,8.908,0.0,0.0,0.107,0.058,0.0,0.0,1.0,0.981,0.981,0.981,0.196,1.0,1.0,0.462,0.584,0.57,24.267,0x00000101,192.168.0.40,8080,255.255.255.0,192.168.0.1,0xFFFFFFFF,0xFFFFFFFF,0xFFFFFFFF,0x00000000,
3.9352710247,0x00000000,0x00000000,0x00000000,0x00000000,0x00000000,0x00000000,0x00000000,0x00000000,59.91,3,0x00000000,97.266,98.431,0.005,0.013,-0.007,-0.015,-0.028,0.749,0.308,0.29,-0.44,0.112,0x00000003,0.0,0.0,-0.006,-0.0,0.002,-0.001,0.0,0.0,0.0,-0.001,-0.001,0.0,0.0,-0.001,-0.763,-0.61,0.0,0.0,-0.763,34.991,34.991,0.0,0.0,0.0,97.266,97.266,0.0,0.0,26.25,26.125,0.0,0.0,0.0,0.0,90.0,76.781,0.109,27.125,0x00000000,0x00000000,0x00000000,0.0,1246,1279,5.417,4.96,0.0,0.0,0.107,0.058,0.0,0.0,1.0,0.981,0.981,0.981,0.196,1.0,1.0,0.462,0.584,0.57,24.267,0x00000101,192.168.0.40,8080,255.255.255.0,192.168.0.1,0xFFFFFFFF,0xFFFFFFFF,0xFFFFFFFF,0x00000000,
3.98535013199,0x00000000,0x00000000,0x00000000,0x00000000,0x00000000,0x00000000,0x00000000,0x00000000,59.96,3,0x00000000,97.266,98.431,0.005,0.012,-0.007,-0.021,-0.009,0.75,0.261,0.273,-0.315,0.111,0x00000003,0.0,0.0,-0.002,-0.0,0.003,-0.002,0.001,0.0,0.0,-0.001,-0.001,0.0,0.0,-0.001,0.254,0.305,0.0,0.0,0.305,34.991,34.991,0.0,0.0,0.0,97.266,97.266,0.0,0.0,26.25,26.125,0.0,0.0,0.0,0.0,90.0,76.781,0.109,27.125,0x00000000,0x00000000,0x00000000,0.0,1246,1279,4.989,4.154,0.0,0.0,0.107,0.058,0.0,0.0,1.0,0.981,0.981,0.981,0.196,1.0,1.0,0.462,0.584,0.57,24.267,0x00000101,192.168.0.40,8080,255.255.255.0,192.168.0.1,0xFFFFFFFF,0xFFFFFFFF,0xFFFFFFFF,0x00000000,
4.03542613983,0x00000000,0x00000000,0x00000000,0x00000000,0x00000000,0x00000000,0x00000000,0x00000000,60.01,3,0x00000000,97.266,98.431,0.005,0.013,-0.004,-0.015,0.003,0.753,0.096,0.275,0.141,1.847,0x00000003,0.0,0.0,0.005,-0.0,0.003,-0.0,0.001,0.0,0.0,-0.001,-0.001,0.0,0.0,-0.001,0.343,0.178,0.0,0.0,0.343,34.991,34.991,0.0,0.0,0.0,97.266,97.266,0.0,0.0,26.25,26.125,0.0,0.0,0.0,0.0,90.0,76.781,0.109,27.125,0x00000000,0x00000000,0x00000000,0.0,1246,1279,8.846,3.939,0.0,0.0,0.107,0.058,0.0,0.0,1.0,0.981,0.981,0.981,0.196,1.0,1.0,0.462,0.584,0.57,24.267,0x00000101,192.168.0.40,8080,255.255.255.0,192.168.0.1,0xFFFFFFFF,0xFFFFFFFF,0xFFFFFFFF,0x00000000,
4.0855050087,0x00000000,0x00000000,0x00000000,0x00000000,0x00000000,0x00000000,0x00000000,0x00000000,60.06,3,0x00000000,97.266,98.431,0.005,0.013,-0.008,-0.021,-0.021,0.768,0.169,0.28,-0.192,0.111,0x00000003,0.0,0.0,-0.005,-0.0,0.003,-0.001,0.001,0.0,0.0,-0.001,-0.001,0.0,0.0,-0.001,0.153,0.254,0.0,0.0,0.254,34.991,34.991,0.0,0.0,0.0,97.266,97.266,0.0,0.0,26.25,26.125,0.0,0.0,0.0,0.0,90.0,76.781,0.109,27.125,0x00000000,0x00000000,0x00000000,0.0,1246,1279,6.486,2.581,0.0,0.0,0.107,0.058,0.0,0.0,1.0,0.981,0.981,0.981,0.196,1.0,1.0,0.462,0.584,0.57,24.267,0x00000101,192.168.0.40,8080,255.255.255.0,192.168.0.1,0xFFFFFFFF,0xFFFFFFFF,0xFFFFFFFF,0x00000000,
4.13559103012,0x00000000,0x00000000,0x00000000,0x00000000,0x00000000,0x00000000,0x00000000,0x00000000,60.11,3,0x00000000,97.266,98.431,0.004,0.013,-0.013,-0.006,-0.022,0.766,-0.147,0.256,-0.163,-0.934,0x00000003,0.0,0.0,-0.001,-0.0,0.003,-0.001,0.001,0.0,0.0,-0.001,-0.001,0.0,0.0,-0.001,0.254,0.178,0.0,0.0,0.254,34.991,34.991,0.0,0.0,0.0,97.266,97.266,0.0,0.0,26.25,26.063,0.0,0.0,0.0,0.0,90.0,76.781,0.109,27.125,0x00000000,0x00000000,0x00000000,0.0,1246,1279,9.091,3.133,0.0,0.0,0.107,0.058,0.0,0.0,1.0,0.981,0.981,0.981,0.196,1.0,1.0,0.462,0.584,0.57,24.267,0x00000101,192.168.0.40,8080,255.255.255.0,192.168.0.1,0xFFFFFFFF,0xFFFFFFFF,0xFFFFFFFF,0x00000000,
4.18566298485,0x00000000,0x00000000,0x00000000,0x00000000,0x00000000,0x00000000,0x00000000,0x00000000,60.16,3,0x00000000,97.266,98.431,0.004,0.013,-0.017,-0.013,-0.01,0.78,0.313,0.266,0.559,-0.404,0x00000003,0.0,0.0,-0.005,-0.0,0.002,-0.001,0.0,0.0,0.0,-0.001,-0.001,0.0,0.0,-0.001,0.254,0.254,0.0,0.0,0.254,34.991,34.991,0.0,0.0,0.0,97.266,97.266,0.0,0.0,26.25,26.125,0.0,0.0,0.0,0.0,90.0,76.773,0.109,27.125,0x00000000,0x00000000,0x00000000,0.0,1246,1279,8.907,4.191,0.0,0.0,0.107,0.058,0.0,0.0,1.0,0.981,0.981,0.981,0.196,1.0,1.0,0.462,0.584,0.57,24.267,0x00000101,192.168.0.40,8080,255.255.255.0,192.168.0.1,0xFFFFFFFF,0xFFFFFFFF,0xFFFFFFFF,0x00000000,
4.23575210571,0x00000000,0x00000000,0x00000000,0x00000000,0x00000000,0x00000000,0x00000000,0x00000000,60.21,3,0x00000000,97.266,98.431,0.005,0.013,-0.009,-0.012,-0.043,0.775,0.545,0.264,0.054,-0.057,0x00000003,0.0,0.0,0.008,-0.0,0.002,-0.0,0.001,0.0,0.0,-0.001,-0.001,0.0,0.0,-0.001,0.267,0.369,0.0,0.0,0.369,34.991,34.991,0.0,0.0,0.0,97.266,97.266,0.0,0.0,26.25,26.063,0.0,0.0,0.0,0.0,90.0,76.773,0.109,27.125,0x00000000,0x00000000,0x00000000,0.0,1246,1279,7.123,2.525,0.0,0.0,0.108,0.058,0.0,0.0,1.0,0.981,0.981,0.981,0.196,1.0,1.0,0.462,0.584,0.57,24.267,0x00000101,192.168.0.40,8080,255.255.255.0,192.168.0.1,0xFFFFFFFF,0xFFFFFFFF,0xFFFFFFFF,0x00000000,
4.28582000732,0x00000000,0x00000000,0x00000000,0x00000000,0x00000000,0x00000000,0x00000000,0x00000000,60.26,3,0x00000000,97.266,98.431,0.005,0.013,-0.021,-0.015,-0.003,0.764,-0.242,0.278,0.168,0.803,0x00000003,0.0,0.0,-0.002,0.0,0.002,-0.001,0.001,0.0,0.0,-0.001,-0.001,0.0,0.0,-0.001,0.254,0.064,0.0,0.0,0.254,34.991,34.991,0.0,0.0,0.0,97.266,97.266,0.0,0.0,26.25,26.063,0.0,0.0,0.0,0.0,90.0,76.773,0.109,27.125,0x00000000,0x00000000,0x00000000,0.0,1246,1279,8.822,4.684,0.0,0.0,0.108,0.058,0.0,0.0,1.0,0.981,0.981,0.981,0.196,1.0,1.0,0.462,0.584,0.57,24.267,0x00000101,192.168.0.40,8080,255.255.255.0,192.168.0.1,0xFFFFFFFF,0xFFFFFFFF,0xFFFFFFFF,0x00000000,
4.33589696884,0x00000000,0x00000000,0x00000000,0x00000000,0x00000000,0x00000000,0x00000000,0x00000000,60.31,3,0x00000000,97.266,98.431,0.004,0.012,-0.019,-0.012,-0.012,0.755,0.249,0.288,0.052,0.281,0x00000003,0.0,0.0,-0.0,0.0,0.001,-0.0,0.0,0.0,0.0,-0.001,-0.001,0.0,0.0,-0.001,0.153,0.254,0.0,0.0,0.254,34.991,34.991,0.0,0.0,0.0,97.266,97.266,0.0,0.0,26.25,26.063,0.0,0.0,0.0,0.0,90.0,76.773,0.109,27.125,0x00000000,0x00000000,0x00000000,0.0,1246,1279,7.119,4.258,0.0,0.0,0.108,0.058,0.0,0.0,1.0,0.981,0.981,0.981,0.196,1.0,1.0,0.462,0.584,0.57,24.267,0x00000101,192.168.0.40,8080,255.255.255.0,192.168.0.1,0xFFFFFFFF,0xFFFFFFFF,0xFFFFFFFF,0x00000000,
4.38599801064,0x00000000,0x00000000,0x00000000,0x00000000,0x00000000,0x00000000,0x00000000,0x00000000,60.36,3,0x00000000,97.266,98.431,0.005,0.013,-0.022,-0.01,-0.004,0.75,-0.296,0.293,0.187,0.099,0x00000003,0.0,0.0,-0.006,0.0,0.001,-0.001,0.0,0.0,0.0,-0.001,-0.001,0.0,0.0,-0.001,1.284,0.254,0.0,0.0,1.284,34.991,34.991,0.0,0.0,0.0,97.266,97.266,0.0,0.0,26.25,26.063,0.0,0.0,0.0,0.0,90.0,76.773,0.109,27.125,0x00000000,0x00000000,0x00000000,0.0,1246,1279,9.276,3.569,0.0,0.0,0.108,0.058,0.0,0.0,1.0,0.981,0.981,0.981,0.196,1.0,1.0,0.462,0.584,0.57,24.267,0x00000101,192.168.0.40,8080,255.255.255.0,192.168.0.1,0xFFFFFFFF,0xFFFFFFFF,0xFFFFFFFF,0x00000000,
4.43606901169,0x00000000,0x00000000,0x00000000,0x00000000,0x00000000,0x00000000,0x00000000,0x00000000,60.41,3,0x00000000,97.266,98.431,0.005,0.012,-0.014,-0.01,-0.034,0.743,-0.083,0.31,0.807,-0.072,0x00000003,0.0,0.0,0.01,0.0,0.002,-0.001,0.003,0.0,0.0,-0.001,-0.001,0.0,0.0,-0.001,1.068,-0.801,0.0,0.0,1.068,34.991,34.991,0.0,0.0,0.0,97.266,97.266,0.0,0.0,26.25,26.125,0.0,0.0,0.0,0.0,90.0,76.773,0.109,27.125,0x00000000,0x00000000,0x00000000,0.0,1246,1279,8.915,4.729,0.0,0.0,0.108,0.059,0.0,0.0,1.0,0.981,0.981,0.981,0.196,1.0,1.0,0.462,0.584,0.57,24.267,0x00000101,192.168.0.40,8080,255.255.255.0,192.168.0.1,0xFFFFFFFF,0xFFFFFFFF,0xFFFFFFFF,0x00000000,
