Time_stamp,fault_status_word_1,fault_status_word_2,fault_status_word_3,fault_status_word_4,mcu_0_fault_status,mcu_1_fault_status,mcu_2_fault_status,mcu_3_fault_status,operational_time,operational_state,dynamic_response,min_propulsion_batt_soc,aux_batt_soc,inertial_x_acc_g,inertial_y_acc_g,inertial_x_rate_rps,inertial_y_rate_rps,inertial_z_rate_rps,pse_pitch_deg,pse_pitch_rate_dps,pse_roll_deg,pse_roll_rate_dps,pse_yaw_rate_dps,pse_data_is_valid,yaw_rate_limit_rps,vel_limit_mps,linear_accel_mps2,linear_vel_mps,differential_wheel_vel_rps,right_front_vel_mps,left_front_vel_mps,right_rear_vel_mps,left_rear_vel_mps,right_front_pos_m,left_front_pos_m,right_rear_pos_m,left_rear_pos_m,linear_pos_m,right_front_current_A0pk,left_front_current_A0pk,right_rear_current_A0pk,left_rear_current_A0pk,max_motor_current_A0pk,right_front_current_limit_A0pk,left_front_current_limit_A0pk,right_rear_current_limit_A0pk,left_rear_current_limit_A0pk,min_motor_current_limit_A0pk,front_base_batt_1_soc,front_base_batt_2_soc,rear_base_batt_1_soc,rear_base_batt_2_soc,front_base_batt_1_temp_degC,front_base_batt_2_temp_degC,rear_base_batt_1_temp_degC,rear_base_batt_2_temp_degC,vel_target_mps,yaw_rate_target_rps,angle_target_deg,aux_batt_voltage_V,aux_batt_current_A,aux_batt_temp_degC,abb_system_status,aux_batt_status,aux_batt_faults,7p2V_battery_voltage,ccu_sp_sw_build_id,ccu_uip_sw_build_id,mcu_0_inst_power_W,mcu_1_inst_power_W,mcu_2_inst_power_W,mcu_3_inst_power_W,mcu_0_total_energy_Wh,mcu_1_total_energy_Wh,mcu_2_total_energy_Wh,mcu_3_total_energy_Wh,fram_vel_limit_mps,fram_accel_limit_mps2,fram_decel_limit_mps2,fram_dtz_decel_limit_mps2,fram_coastdown_decel_mps2,fram_yaw_rate_limit_rps,fram_yaw_accel_limit_rps2,fram_tire_diameter_m,fram_wheelbase_length_m,fram_wheel_track_width_m,fram_transmission_ratio,fram_config_bitmap,fram_eth_ip_address,fram_eth_port_number,fram_eth_subnet_mask,fram_eth_gateway,user_feedback_bitmap_1,user_feedback_bitmap_2,user_feedback_bitmap_3,user_feedback_bitmap_4,
0.0731389522552,0x00000000,0x00000000,0x00000000,0x00000000,0x00000000,0x00000000,0x00000000,0x00000000,73.87,3,0x00000000,96.484,97.647,-0.0,-0.027,-0.009,-0.008,-0.012,-1.551,0.388,-0.042,-0.217,-1.02,0x00000003,0.0,0.0,-0.004,0.0,0.002,-0.0,-0.0,0.0,0.0,0.002,-0.0,0.0,0.0,0.001,-0.432,0.534,0.0,0.0,0.534,34.991,34.991,0.0,0.0,0.0,96.484,96.484,0.0,0.0,26.438,26.25,0.0,0.0,0.0,0.0,90.0,76.703,0.109,27.438,0x00000000,0x00000000,0x00000000,0.0,1246,1279,6.008,3.242,0.0,0.0,0.119,0.076,0.0,0.0,1.0,0.981,0.981,0.981,0.196,1.0,1.0,0.462,0.584,0.57,24.267,0x00000101,192.168.0.40,8080,255.255.255.0,192.168.0.1,0xFFFFFFFF,0xFFFFFFFF,0xFFFFFFFF,0x00000000,
0.123185873032,0x00000000,0x00000000,0x00000000,0x00000000,0x00000000,0x00000000,0x00000000,0x00000000,73.92,3,0x00000000,96.484,97.647,-0.0,-0.027,-0.009,-0.03,-0.031,-1.537,0.125,-0.03,0.039,-0.668,0x00000003,0.0,0.0,-0.001,-0.0,0.001,-0.0,-0.0,0.0,0.0,0.002,-0.0,0.0,0.0,0.001,-0.432,0.572,0.0,0.0,0.572,34.991,34.991,0.0,0.0,0.0,96.484,96.484,0.0,0.0,26.375,26.25,0.0,0.0,0.0,0.0,90.0,76.703,0.109,27.438,0x00000000,0x00000000,0x00000000,0.0,1246,1279,5.337,2.139,0.0,0.0,0.119,0.076,0.0,0.0,1.0,0.981,0.981,0.981,0.196,1.0,1.0,0.462,0.584,0.57,24.267,0x00000101,192.168.0.40,8080,255.255.255.0,192.168.0.1,0xFFFFFFFF,0xFFFFFFFF,0xFFFFFFFF,0x00000000,
0.17314696312,0x00000000,0x00000000,0x00000000,0x00000000,0x00000000,0x00000000,0x00000000,0x00000000,73.97,3,0x00000000,96.484,97.647,0.001,-0.029,-0.013,-0.012,-0.019,-1.531,0.322,-0.018,-0.449,-0.33,0x00000003,0.0,0.0,-0.004,-0.0,0.001,-0.001,-0.0,0.0,0.0,0.002,-0.0,0.0,0.0,0.001,-0.025,0.636,0.0,0.0,0.636,34.991,34.991,0.0,0.0,0.0,96.484,96.484,0.0,0.0,26.375,26.25,0.0,0.0,0.0,0.0,90.0,76.703,0.109,27.438,0x00000000,0x00000000,0x00000000,0.0,1246,1279,5.128,2.429,0.0,0.0,0.119,0.076,0.0,0.0,1.0,0.981,0.981,0.981,0.196,1.0,1.0,0.462,0.584,0.57,24.267,0x00000101,192.168.0.40,8080,255.255.255.0,192.168.0.1,0xFFFFFFFF,0xFFFFFFFF,0xFFFFFFFF,0x00000000,
0.223239898682,0x00000000,0x00000000,0x00000000,0x00000000,0x00000000,0x00000000,0x00000000,0x00000000,74.02,3,0x00000000,96.484,97.647,0.001,-0.027,-0.011,-0.021,-0.025,-1.522,0.789,-0.023,0.055,0.726,0x00000003,0.0,0.0,-0.003,-0.0,0.002,-0.001,0.0,0.0,0.0,0.002,-0.0,0.0,0.0,0.001,-0.013,0.75,0.0,0.0,0.75,34.991,34.991,0.0,0.0,0.0,96.484,96.484,0.0,0.0,26.375,26.25,0.0,0.0,0.0,0.0,90.0,76.703,0.109,27.438,0x00000000,0x00000000,0x00000000,0.0,1246,1279,6.305,1.75,0.0,0.0,0.119,0.076,0.0,0.0,1.0,0.981,0.981,0.981,0.196,1.0,1.0,0.462,0.584,0.57,24.267,0x00000101,192.168.0.40,8080,255.255.255.0,192.168.0.1,0xFFFFFFFF,0xFFFFFFFF,0xFFFFFFFF,0x00000000,
0.273262023926,0x00000000,0x00000000,0x00000000,0x00000000,0x00000000,0x00000000,0x00000000,0x00000000,74.07,3,0x00000000,96.484,97.647,-0.001,-0.028,-0.019,-0.034,0.018,-1.526,-0.402,-0.02,0.066,0.37,0x00000003,0.0,0.0,0.016,-0.0,0.002,-0.0,0.001,0.0,0.0,0.002,-0.0,0.0,0.0,0.001,-0.013,0.648,0.0,0.0,0.648,34.991,34.991,0.0,0.0,0.0,96.484,96.484,0.0,0.0,26.438,26.25,0.0,0.0,0.0,0.0,90.0,76.703,0.109,27.438,0x00000000,0x00000000,0x00000000,0.0,1246,1279,7.055,1.779,0.0,0.0,0.119,0.076,0.0,0.0,1.0,0.981,0.981,0.981,0.196,1.0,1.0,0.462,0.584,0.57,24.267,0x00000101,192.168.0.40,8080,255.255.255.0,192.168.0.1,0xFFFFFFFF,0xFFFFFFFF,0xFFFFFFFF,0x00000000,
0.323394060135,0x00000000,0x00000000,0x00000000,0x00000000,0x00000000,0x00000000,0x00000000,0x00000000,74.12,3,0x00000000,96.484,97.647,0.0,-0.028,-0.017,-0.012,-0.019,-1.529,-0.071,-0.016,0.334,1.758,0x00000003,0.0,0.0,-0.001,-0.0,0.002,-0.0,0.0,0.0,0.0,0.002,-0.0,0.0,0.0,0.001,-0.025,0.712,0.0,0.0,0.712,34.991,34.991,0.0,0.0,0.0,96.484,96.484,0.0,0.0,26.438,26.25,0.0,0.0,0.0,0.0,90.0,76.703,0.109,27.438,0x00000000,0x00000000,0x00000000,0.0,1246,1279,5.835,4.299,0.0,0.0,0.119,0.076,0.0,0.0,1.0,0.981,0.981,0.981,0.196,1.0,1.0,0.462,0.584,0.57,24.267,0x00000101,192.168.0.40,8080,255.255.255.0,192.168.0.1,0xFFFFFFFF,0xFFFFFFFF,0xFFFFFFFF,0x00000000,
1.12470006943,0x00000000,0x00000000,0x00000000,0x00000000,0x00000000,0x00000000,0x00000000,0x00000000,74.92,3,0x00000000,96.484,97.647,0.0,-0.027,-0.032,-0.017,-0.001,-1.479,0.383,0.024,0.049,0.038,0x00000003,0.0,0.0,-0.004,-0.0,0.001,-0.0,-0.0,0.0,0.0,0.002,-0.0,0.0,0.0,0.001,-0.025,0.852,0.0,0.0,0.852,34.991,34.991,0.0,0.0,0.0,96.484,96.484,0.0,0.0,26.375,26.25,0.0,0.0,0.0,0.0,90.0,76.711,0.109,27.438,0x00000000,0x00000000,0x00000000,0.0,1246,1279,5.981,4.808,0.0,0.0,0.12,0.077,0.0,0.0,1.0,0.981,0.981,0.981,0.196,1.0,1.0,0.462,0.584,0.57,24.267,0x00000101,192.168.0.40,8080,255.255.255.0,192.168.0.1,0xFFFFFFFF,0xFFFFFFFF,0xFFFFFFFF,0x00000000,
1.17470002174,0x00000000,0x00000000,0x00000000,0x00000000,0x00000000,0x00000000,0x00000000,0x00000000,74.97,3,0x00000000,96.484,97.647,0.001,-0.028,-0.009,-0.008,-0.031,-1.488,0.124,0.015,0.801,0.386,0x00000003,0.0,0.0,0.007,-0.0,0.001,-0.0,0.001,0.0,0.0,0.002,-0.0,0.0,0.0,0.001,-1.157,0.534,0.0,0.0,-1.157,34.991,34.991,0.0,0.0,0.0,96.484,96.484,0.0,0.0,26.375,26.25,0.0,0.0,0.0,0.0,90.0,76.703,0.109,27.438,0x00000000,0x00000000,0x00000000,0.0,1246,1279,5.156,4.25,0.0,0.0,0.12,0.077,0.0,0.0,1.0,0.981,0.981,0.981,0.196,1.0,1.0,0.462,0.584,0.57,24.267,0x00000101,192.168.0.40,8080,255.255.255.0,192.168.0.1,0xFFFFFFFF,0xFFFFFFFF,0xFFFFFFFF,0x00000000,
1.22482991219,0x00000000,0x00000000,0x00000000,0x00000000,0x00000000,0x00000000,0x00000000,0x00000000,75.02,3,0x00000000,96.484,97.647,-0.0,-0.028,-0.004,0.001,-0.037,-1.484,0.334,0.015,-0.447,0.044,0x00000003,0.0,0.0,0.003,-0.0,0.001,0.0,0.0,0.0,0.0,0.002,-0.0,0.0,0.0,0.001,-0.356,-0.076,0.0,0.0,-0.356,34.991,34.991,0.0,0.0,0.0,96.484,96.484,0.0,0.0,26.438,26.25,0.0,0.0,0.0,0.0,90.0,76.703,0.109,27.438,0x00000000,0x00000000,0x00000000,0.0,1246,1279,7.186,4.823,0.0,0.0,0.121,0.077,0.0,0.0,1.0,0.981,0.981,0.981,0.196,1.0,1.0,0.462,0.584,0.57,24.267,0x00000101,192.168.0.40,8080,255.255.255.0,192.168.0.1,0xFFFFFFFF,0xFFFFFFFF,0xFFFFFFFF,0x00000000,
1.27485990524,0x00000000,0x00000000,0x00000000,0x00000000,0x00000000,0x00000000,0x00000000,0x00000000,75.07,3,0x00000000,96.484,97.647,-0.0,-0.028,-0.013,-0.021,-0.031,-1.502,-1.208,0.043,1.06,0.034,0x00000003,0.0,0.0,0.005,0.0,0.001,-0.0,0.001,0.0,0.0,0.002,-0.0,0.0,0.0,0.001,0.076,0.712,0.0,0.0,0.712,34.991,34.991,0.0,0.0,0.0,96.484,96.484,0.0,0.0,26.438,26.25,0.0,0.0,0.0,0.0,90.0,76.703,0.109,27.438,0x00000000,0x00000000,0x00000000,0.0,1246,1279,4.87,3.582,0.0,0.0,0.121,0.077,0.0,0.0,1.0,0.981,0.981,0.981,0.196,1.0,1.0,0.462,0.584,0.57,24.267,0x00000101,192.168.0.40,8080,255.255.255.0,192.168.0.1,0xFFFFFFFF,0xFFFFFFFF,0xFFFFFFFF,0x00000000,
1.32498788834,0x00000000,0x00000000,0x00000000,0x00000000,0x00000000,0x00000000,0x00000000,0x00000000,75.12,3,0x00000000,96.484,97.647,-0.001,-0.029,-0.021,-0.039,0.018,-1.517,-0.02,0.028,-1.174,0.741,0x00000003,0.0,0.0,-0.0,-0.0,0.002,-0.001,0.0,0.0,0.0,0.002,-0.0,0.0,0.0,0.001,-0.025,0.75,0.0,0.0,0.75,34.991,34.991,0.0,0.0,0.0,96.484,96.484,0.0,0.0,26.438,26.25,0.0,0.0,0.0,0.0,90.0,76.703,0.109,27.438,0x00000000,0x00000000,0x00000000,0.0,1246,1279,6.994,4.714,0.0,0.0,0.121,0.077,0.0,0.0,1.0,0.981,0.981,0.981,0.196,1.0,1.0,0.462,0.584,0.57,24.267,0x00000101,192.168.0.40,8080,255.255.255.0,192.168.0.1,0xFFFFFFFF,0xFFFFFFFF,0xFFFFFFFF,0x00000000,
2.12626791,0x00000000,0x00000000,0x00000000,0x00000000,0x00000000,0x00000000,0x00000000,0x00000000,75.92,3,0x00000000,96.484,97.647,-0.001,-0.028,-0.018,-0.025,-0.043,-1.533,0.173,0.033,-0.186,0.751,0x00000003,0.0,0.0,0.0,-0.0,0.002,-0.001,0.001,0.0,0.0,0.002,-0.0,0.0,0.0,0.001,-0.025,0.75,0.0,0.0,0.75,34.991,34.991,0.0,0.0,0.0,96.484,96.484,0.0,0.0,26.438,26.25,0.0,0.0,0.0,0.0,90.0,76.703,0.109,27.438,0x00000000,0x00000000,0x00000000,0.0,1246,1279,5.309,8.976,0.0,0.0,0.122,0.078,0.0,0.0,1.0,0.981,0.981,0.981,0.196,1.0,1.0,0.462,0.584,0.57,24.267,0x00000101,192.168.0.40,8080,255.255.255.0,192.168.0.1,0xFFFFFFFF,0xFFFFFFFF,0xFFFFFFFF,0x00000000,
2.17629003525,0x00000000,0x00000000,0x00000000,0x00000000,0x00000000,0x00000000,0x00000000,0x00000000,75.97,3,0x00000000,96.484,97.647,0.001,-0.027,-0.016,-0.008,-0.025,-1.524,0.133,0.047,0.535,-0.644,0x00000003,0.0,0.0,-0.009,-0.0,0.002,-0.001,-0.0,0.0,0.0,0.002,-0.0,0.0,0.0,0.001,-0.127,0.712,0.0,0.0,0.712,34.991,34.991,0.0,0.0,0.0,96.484,96.484,0.0,0.0,26.438,26.25,0.0,0.0,0.0,0.0,90.0,76.711,0.109,27.438,0x00000000,0x00000000,0x00000000,0.0,1246,1279,5.439,4.96,0.0,0.0,0.122,0.078,0.0,0.0,1.0,0.981,0.981,0.981,0.196,1.0,1.0,0.462,0.584,0.57,24.267,0x00000101,192.168.0.40,8080,255.255.255.0,192.168.0.1,0xFFFFFFFF,0xFFFFFFFF,0xFFFFFFFF,0x00000000,
2.22641801834,0x00000000,0x00000000,0x00000000,0x00000000,0x00000000,0x00000000,0x00000000,0x00000000,76.02,3,0x00000000,96.484,97.647,-0.0,-0.027,-0.019,-0.021,-0.049,-1.529,0.144,0.053,1.32,1.779,0x00000003,0.0,0.0,0.001,-0.0,0.002,-0.0,0.0,0.0,0.0,0.002,-0.0,0.0,0.0,0.001,-0.025,0.712,0.0,0.0,0.712,34.991,34.991,0.0,0.0,0.0,96.484,96.484,0.0,0.0,26.375,26.25,0.0,0.0,0.0,0.0,90.0,76.711,0.109,27.438,0x00000000,0x00000000,0x00000000,0.0,1246,1279,3.099,4.789,0.0,0.0,0.122,0.079,0.0,0.0,1.0,0.981,0.981,0.981,0.196,1.0,1.0,0.462,0.584,0.57,24.267,0x00000101,192.168.0.40,8080,255.255.255.0,192.168.0.1,0xFFFFFFFF,0xFFFFFFFF,0xFFFFFFFF,0x00000000,
2.27646899223,0x00000000,0x00000000,0x00000000,0x00000000,0x00000000,0x00000000,0x00000000,0x00000000,76.07,3,0x00000000,96.484,97.647,-0.0,-0.029,-0.019,-0.017,-0.031,-1.533,-0.361,0.051,-0.923,0.385,0x00000003,0.0,0.0,-0.002,-0.0,0.002,-0.001,0.0,0.0,0.0,0.002,-0.0,0.0,0.0,0.001,0.178,0.534,0.0,0.0,0.534,34.991,34.991,0.0,0.0,0.0,96.484,96.484,0.0,0.0,26.438,26.25,0.0,0.0,0.0,0.0,90.0,76.711,0.109,27.438,0x00000000,0x00000000,0x00000000,0.0,1246,1279,7.913,4.781,0.0,0.0,0.122,0.079,0.0,0.0,1.0,0.981,0.981,0.981,0.196,1.0,1.0,0.462,0.584,0.57,24.267,0x00000101,192.168.0.40,8080,255.255.255.0,192.168.0.1,0xFFFFFFFF,0xFFFFFFFF,0xFFFFFFFF,0x00000000,
2.32658195496,0x00000000,0x00000000,0x00000000,0x00000000,0x00000000,0x00000000,0x00000000,0x00000000,76.12,3,0x00000000,96.484,97.647,-0.0,-0.028,-0.003,-0.03,-0.012,-1.532,-0.46,0.045,-0.697,-0.644,0x00000003,0.0,0.0,-0.007,-0.0,0.002,-0.002,0.001,0.0,0.0,0.002,-0.0,0.0,0.0,0.001,0.788,-0.051,0.0,0.0,0.788,34.991,34.991,0.0,0.0,0.0,96.484,96.484,0.0,0.0,26.438,26.25,0.0,0.0,0.0,0.0,90.0,76.711,0.109,27.438,0x00000000,0x00000000,0x00000000,0.0,1246,1279,7.963,3.411,0.0,0.0,0.123,0.079,0.0,0.0,1.0,0.981,0.981,0.981,0.196,1.0,1.0,0.462,0.584,0.57,24.267,0x00000101,192.168.0.40,8080,255.255.255.0,192.168.0.1,0xFFFFFFFF,0xFFFFFFFF,0xFFFFFFFF,0x00000000,
3.12787795067,0x00000000,0x00000000,0x00000000,0x00000000,0x00000000,0x00000000,0x00000000,0x00000000,76.92,3,0x00000000,96.484,97.647,-0.001,-0.028,-0.018,-0.021,-0.025,-1.569,-0.445,0.027,-0.175,1.106,0x00000003,0.0,0.0,-0.001,-0.0,0.001,-0.001,0.0,0.0,0.0,0.002,-0.0,0.0,0.0,0.001,-0.025,0.75,0.0,0.0,0.75,34.991,34.991,0.0,0.0,0.0,96.484,96.484,0.0,0.0,26.375,26.25,0.0,0.0,0.0,0.0,90.0,76.711,0.109,27.438,0x00000000,0x00000000,0x00000000,0.0,1246,1279,8.26,5.092,0.0,0.0,0.124,0.08,0.0,0.0,1.0,0.981,0.981,0.981,0.196,1.0,1.0,0.462,0.584,0.57,24.267,0x00000101,192.168.0.40,8080,255.255.255.0,192.168.0.1,0xFFFFFFFF,0xFFFFFFFF,0xFFFFFFFF,0x00000000,
3.17788600922,0x00000000,0x00000000,0x00000000,0x00000000,0x00000000,0x00000000,0x00000000,0x00000000,76.97,3,0x00000000,96.484,97.647,0.0,-0.027,-0.021,-0.034,-0.007,-1.573,-0.03,0.023,0.299,0.059,0x00000003,0.0,0.0,-0.003,-0.0,0.001,-0.001,0.0,0.0,0.0,0.002,-0.0,0.0,0.0,0.001,-0.013,0.75,0.0,0.0,0.75,34.991,34.991,0.0,0.0,0.0,96.484,96.484,0.0,0.0,26.375,26.25,0.0,0.0,0.0,0.0,90.0,76.711,0.109,27.438,0x00000000,0x00000000,0x00000000,0.0,1246,1279,7.681,4.521,0.0,0.0,0.124,0.08,0.0,0.0,1.0,0.981,0.981,0.981,0.196,1.0,1.0,0.462,0.584,0.57,24.267,0x00000101,192.168.0.40,8080,255.255.255.0,192.168.0.1,0xFFFFFFFF,0xFFFFFFFF,0xFFFFFFFF,0x00000000,
3.22800898552,0x00000000,0x00000000,0x00000000,0x00000000,0x00000000,0x00000000,0x00000000,0x00000000,77.02,3,0x00000000,96.484,97.647,-0.001,-0.028,-0.018,-0.026,-0.0,-1.577,0.096,0.018,-0.928,0.753,0x00000003,0.0,0.0,-0.002,-0.0,0.001,-0.001,0.0,0.0,0.0,0.002,-0.0,0.0,0.0,0.001,-0.025,0.75,0.0,0.0,0.75,34.991,34.991,0.0,0.0,0.0,96.484,96.484,0.0,0.0,26.438,26.25,0.0,0.0,0.0,0.0,90.0,76.703,0.109,27.438,0x00000000,0x00000000,0x00000000,0.0,1246,1279,8.962,1.905,0.0,0.0,0.124,0.08,0.0,0.0,1.0,0.981,0.981,0.981,0.196,1.0,1.0,0.462,0.584,0.57,24.267,0x00000101,192.168.0.40,8080,255.255.255.0,192.168.0.1,0xFFFFFFFF,0xFFFFFFFF,0xFFFFFFFF,0x00000000,
3.27804303169,0x00000000,0x00000000,0x00000000,0x00000000,0x00000000,0x00000000,0x00000000,0x00000000,77.07,3,0x00000000,96.484,97.647,0.001,-0.029,-0.019,-0.025,-0.019,-1.582,0.205,0.034,0.817,1.445,0x00000003,0.0,0.0,0.001,-0.0,0.002,-0.001,0.001,0.0,0.0,0.002,-0.0,0.0,0.0,0.001,-0.025,0.839,0.0,0.0,0.839,34.991,34.991,0.0,0.0,0.0,96.484,96.484,0.0,0.0,26.375,26.25,0.0,0.0,0.0,0.0,90.0,76.703,0.109,27.438,0x00000000,0x00000000,0x00000000,0.0,1246,1279,5.481,4.657,0.0,0.0,0.124,0.08,0.0,0.0,1.0,0.981,0.981,0.981,0.196,1.0,1.0,0.462,0.584,0.57,24.267,0x00000101,192.168.0.40,8080,255.255.255.0,192.168.0.1,0xFFFFFFFF,0xFFFFFFFF,0xFFFFFFFF,0x00000000,
3.32816791534,0x00000000,0x00000000,0x00000000,0x00000000,0x00000000,0x00000000,0x00000000,0x00000000,77.12,3,0x00000000,96.484,97.647,-0.001,-0.028,-0.01,-0.017,-0.031,-1.575,0.109,0.02,0.05,0.057,0x00000003,0.0,0.0,0.004,-0.0,0.002,-0.0,0.0,0.0,0.0,0.002,-0.0,0.0,0.0,0.001,-0.025,0.636,0.0,0.0,0.636,34.991,34.991,0.0,0.0,0.0,96.484,96.484,0.0,0.0,26.375,26.25,0.0,0.0,0.0,0.0,90.0,76.703,0.109,27.438,0x00000000,0x00000000,0x00000000,0.0,1246,1279,5.446,2.362,0.0,0.0,0.124,0.08,0.0,0.0,1.0,0.981,0.981,0.981,0.196,1.0,1.0,0.462,0.584,0.57,24.267,0x00000101,192.168.0.40,8080,255.255.255.0,192.168.0.1,0xFFFFFFFF,0xFFFFFFFF,0xFFFFFFFF,0x00000000,
4.12946796417,0x00000000,0x00000000,0x00000000,0x00000000,0x00000000,0x00000000,0x00000000,0x00000000,77.92,3,0x00000000,96.484,97.647,-0.0,-0.028,-0.014,-0.008,-0.012,-1.599,-0.032,0.028,0.297,0.059,0x00000003,0.0,0.0,0.002,-0.0,0.001,-0.0,0.0,0.0,0.0,0.002,-0.0,0.0,0.0,0.001,-0.013,0.75,0.0,0.0,0.75,34.991,34.991,0.0,0.0,0.0,96.484,96.484,0.0,0.0,26.438,26.25,0.0,0.0,0.0,0.0,90.0,76.703,0.109,27.438,0x00000000,0x00000000,0x00000000,0.0,1246,1279,6.694,4.75,0.0,0.0,0.126,0.081,0.0,0.0,1.0,0.981,0.981,0.981,0.196,1.0,1.0,0.462,0.584,0.57,24.267,0x00000101,192.168.0.40,8080,255.255.255.0,192.168.0.1,0xFFFFFFFF,0xFFFFFFFF,0xFFFFFFFF,0x00000000,
4.17947793007,0x00000000,0x00000000,0x00000000,0x00000000,0x00000000,0x00000000,0x00000000,0x00000000,77.97,3,0x00000000,96.484,97.647,-0.001,-0.028,-0.01,-0.017,-0.012,-1.601,-0.537,0.022,-0.424,0.745,0x00000003,0.0,0.0,0.003,-0.0,0.001,-0.0,0.0,0.0,0.0,0.002,-0.0,0.0,0.0,0.001,-0.013,0.75,0.0,0.0,0.75,34.991,34.991,0.0,0.0,0.0,96.484,96.484,0.0,0.0,26.438,26.25,0.0,0.0,0.0,0.0,90.0,76.703,0.109,27.438,0x00000000,0x00000000,0x00000000,0.0,1246,1279,4.864,4.822,0.0,0.0,0.126,0.081,0.0,0.0,1.0,0.981,0.981,0.981,0.196,1.0,1.0,0.462,0.584,0.57,24.267,0x00000101,192.168.0.40,8080,255.255.255.0,192.168.0.1,0xFFFFFFFF,0xFFFFFFFF,0xFFFFFFFF,0x00000000,
4.22960186005,0x00000000,0x00000000,0x00000000,0x00000000,0x00000000,0x00000000,0x00000000,0x00000000,78.02,3,0x00000000,96.484,97.647,-0.0,-0.028,-0.019,-0.012,-0.025,-1.601,0.365,0.021,-0.703,-0.29,0x00000003,0.0,0.0,0.003,-0.0,0.001,-0.0,0.0,0.0,0.0,0.002,-0.0,0.0,0.0,0.001,-0.025,0.75,0.0,0.0,0.75,34.991,34.991,0.0,0.0,0.0,96.484,96.484,0.0,0.0,26.438,26.25,0.0,0.0,0.0,0.0,90.0,76.711,0.109,27.438,0x00000000,0x00000000,0x00000000,0.0,1246,1279,7.65,4.441,0.0,0.0,0.126,0.081,0.0,0.0,1.0,0.981,0.981,0.981,0.196,1.0,1.0,0.462,0.584,0.57,24.267,0x00000101,192.168.0.40,8080,255.255.255.0,192.168.0.1,0xFFFFFFFF,0xFFFFFFFF,0xFFFFFFFF,0x00000000,
4.27962994576,0x00000000,0x00000000,0x00000000,0x00000000,0x00000000,0x00000000,0x00000000,0x00000000,78.07,3,0x00000000,96.484,97.647,-0.0,-0.027,-0.025,-0.021,-0.006,-1.598,0.087,0.007,-0.206,-0.285,0x00000003,0.0,0.0,0.012,0.0,0.002,-0.0,0.002,0.0,0.0,0.002,-0.0,0.0,0.0,0.001,0.076,0.75,0.0,0.0,0.75,34.991,34.991,0.0,0.0,0.0,96.484,96.484,0.0,0.0,26.438,26.25,0.0,0.0,0.0,0.0,90.0,76.711,0.109,27.438,0x00000000,0x00000000,0x00000000,0.0,1246,1279,6.095,4.128,0.0,0.0,0.126,0.081,0.0,0.0,1.0,0.981,0.981,0.981,0.196,1.0,1.0,0.462,0.584,0.57,24.267,0x00000101,192.168.0.40,8080,255.255.255.0,192.168.0.1,0xFFFFFFFF,0xFFFFFFFF,0xFFFFFFFF,0x00000000,
4.32975888252,0x00000000,0x00000000,0x00000000,0x00000000,0x00000000,0x00000000,0x00000000,0x00000000,78.12,3,0x00000000,96.484,97.647,-0.0,-0.028,-0.017,-0.012,-0.031,-1.606,-0.458,0.014,0.277,-1.329,0x00000003,0.0,0.0,0.009,0.0,0.003,-0.0,0.002,0.0,0.0,0.002,-0.0,0.0,0.0,0.001,0.076,0.75,0.0,0.0,0.75,34.991,34.991,0.0,0.0,0.0,96.484,96.484,0.0,0.0,26.375,26.25,0.0,0.0,0.0,0.0,90.0,76.711,0.109,27.438,0x00000000,0x00000000,0x00000000,0.0,1246,1279,5.019,5.388,0.0,0.0,0.126,0.081,0.0,0.0,1.0,0.981,0.981,0.981,0.196,1.0,1.0,0.462,0.584,0.57,24.267,0x00000101,192.168.0.40,8080,255.255.255.0,192.168.0.1,0xFFFFFFFF,0xFFFFFFFF,0xFFFFFFFF,0x00000000,
5.131057024,0x00000000,0x00000000,0x00000000,0x00000000,0x00000000,0x00000000,0x00000000,0x00000000,78.92,3,0x00000000,96.484,97.647,0.0,-0.028,-0.027,-0.026,0.018,-1.658,-0.481,-0.039,-0.434,0.05,0x00000003,0.0,0.0,-0.005,0.0,0.002,-0.0,-0.0,0.0,0.0,0.002,-0.0,0.0,0.0,0.001,0.076,0.712,0.0,0.0,0.712,34.991,34.991,0.0,0.0,0.0,96.484,96.484,0.0,0.0,26.438,26.25,0.0,0.0,0.0,0.0,90.0,76.703,0.109,27.438,0x00000000,0x00000000,0x00000000,0.0,1246,1279,8.412,4.771,0.0,0.0,0.128,0.082,0.0,0.0,1.0,0.981,0.981,0.981,0.196,1.0,1.0,0.462,0.584,0.57,24.267,0x00000101,192.168.0.40,8080,255.255.255.0,192.168.0.1,0xFFFFFFFF,0xFFFFFFFF,0xFFFFFFFF,0x00000000,
5.18106794357,0x00000000,0x00000000,0x00000000,0x00000000,0x00000000,0x00000000,0x00000000,0x00000000,78.97,3,0x00000000,96.484,97.647,-0.0,-0.027,-0.01,-0.017,-0.031,-1.661,-0.25,-0.048,0.569,1.1,0x00000003,0.0,0.0,-0.01,0.0,0.003,-0.002,0.001,0.0,0.0,0.002,-0.0,0.0,0.0,0.001,0.178,0.432,0.0,0.0,0.432,34.991,34.991,0.0,0.0,0.0,96.484,96.484,0.0,0.0,26.375,26.25,0.0,0.0,0.0,0.0,90.0,76.703,0.109,27.438,0x00000000,0x00000000,0x00000000,0.0,1246,1279,4.383,4.777,0.0,0.0,0.128,0.082,0.0,0.0,1.0,0.981,0.981,0.981,0.196,1.0,1.0,0.462,0.584,0.57,24.267,0x00000101,192.168.0.40,8080,255.255.255.0,192.168.0.1,0xFFFFFFFF,0xFFFFFFFF,0xFFFFFFFF,0x00000000,
5.23119306564,0x00000000,0x00000000,0x00000000,0x00000000,0x00000000,0x00000000,0x00000000,0x00000000,79.02,3,0x00000000,96.484,97.647,0.001,-0.028,-0.013,-0.013,-0.006,-1.66,0.031,-0.041,0.073,1.095,0x00000003,0.0,0.0,0.0,-0.0,0.002,-0.0,0.0,0.0,0.0,0.002,-0.0,0.0,0.0,0.001,0.788,-0.28,0.0,0.0,0.788,34.991,34.991,0.0,0.0,0.0,96.484,96.484,0.0,0.0,26.438,26.25,0.0,0.0,0.0,0.0,90.0,76.703,0.109,27.438,0x00000000,0x00000000,0x00000000,0.0,1246,1279,6.112,4.773,0.0,0.0,0.128,0.082,0.0,0.0,1.0,0.981,0.981,0.981,0.196,1.0,1.0,0.462,0.584,0.57,24.267,0x00000101,192.168.0.40,8080,255.255.255.0,192.168.0.1,0xFFFFFFFF,0xFFFFFFFF,0xFFFFFFFF,0x00000000,
5.28124785423,0x00000000,0x00000000,0x00000000,0x00000000,0x00000000,0x00000000,0x00000000,0x00000000,79.07,3,0x00000000,96.484,97.647,-0.0,-0.028,-0.017,-0.03,-0.043,-1.654,0.059,-0.033,-0.194,0.052,0x00000003,0.0,0.0,-0.004,0.0,0.002,-0.001,0.001,0.0,0.0,0.002,-0.0,0.0,0.0,0.001,-0.025,0.75,0.0,0.0,0.75,34.991,34.991,0.0,0.0,0.0,96.484,96.484,0.0,0.0,26.438,26.25,0.0,0.0,0.0,0.0,90.0,76.711,0.109,27.438,0x00000000,0x00000000,0x00000000,0.0,1246,1279,6.367,4.145,0.0,0.0,0.128,0.082,0.0,0.0,1.0,0.981,0.981,0.981,0.196,1.0,1.0,0.462,0.584,0.57,24.267,0x00000101,192.168.0.40,8080,255.255.255.0,192.168.0.1,0xFFFFFFFF,0xFFFFFFFF,0xFFFFFFFF,0x00000000,
5.33135390282,0x00000000,0x00000000,0x00000000,0x00000000,0x00000000,0x00000000,0x00000000,0x00000000,79.12,3,0x00000000,96.484,97.647,0.0,-0.028,-0.015,-0.017,-0.006,-1.643,0.535,-0.042,-0.21,-0.28,0x00000003,0.0,0.0,-0.001,0.0,0.003,-0.0,0.001,0.0,0.0,0.002,-0.0,0.0,0.0,0.001,-0.013,0.839,0.0,0.0,0.839,34.991,34.991,0.0,0.0,0.0,96.484,96.484,0.0,0.0,26.438,26.25,0.0,0.0,0.0,0.0,90.0,76.711,0.109,27.438,0x00000000,0x00000000,0x00000000,0.0,1246,1279,9.244,5.431,0.0,0.0,0.128,0.082,0.0,0.0,1.0,0.981,0.981,0.981,0.196,1.0,1.0,0.462,0.584,0.57,24.267,0x00000101,192.168.0.40,8080,255.255.255.0,192.168.0.1,0xFFFFFFFF,0xFFFFFFFF,0xFFFFFFFF,0x00000000,
6.13265490532,0x00000000,0x00000000,0x00000000,0x00000000,0x00000000,0x00000000,0x00000000,0x00000000,79.92,3,0x00000000,96.484,97.647,-0.001,-0.028,-0.015,-0.025,-0.018,-1.621,-0.192,-0.061,-0.952,-0.979,0x00000003,0.0,0.0,0.0,-0.0,0.001,-0.0,0.0,0.0,0.0,0.002,-0.0,0.0,0.0,0.001,-0.025,0.75,0.0,0.0,0.75,34.991,34.991,0.0,0.0,0.0,96.484,96.484,0.0,0.0,26.438,26.25,0.0,0.0,0.0,0.0,90.0,76.703,0.109,27.438,0x00000000,0x00000000,0x00000000,0.0,1246,1279,8.384,4.77,0.0,0.0,0.129,0.083,0.0,0.0,1.0,0.981,0.981,0.981,0.196,1.0,1.0,0.462,0.584,0.57,24.267,0x00000101,192.168.0.40,8080,255.255.255.0,192.168.0.1,0xFFFFFFFF,0xFFFFFFFF,0xFFFFFFFF,0x00000000,
6.18263792992,0x00000000,0x00000000,0x00000000,0x00000000,0x00000000,0x00000000,0x00000000,0x00000000,79.97,3,0x00000000,96.484,97.647,0.001,-0.028,-0.015,-0.026,-0.006,-1.638,-0.295,-0.063,-0.181,0.405,0x00000003,0.0,0.0,0.014,0.0,0.002,-0.0,0.002,0.0,0.0,0.002,-0.0,0.0,0.0,0.001,0.076,0.75,0.0,0.0,0.75,34.991,34.991,0.0,0.0,0.0,96.484,96.484,0.0,0.0,26.438,26.25,0.0,0.0,0.0,0.0,90.0,76.703,0.109,27.438,0x00000000,0x00000000,0x00000000,0.0,1246,1279,8.696,4.6,0.0,0.0,0.129,0.083,0.0,0.0,1.0,0.981,0.981,0.981,0.196,1.0,1.0,0.462,0.584,0.57,24.267,0x00000101,192.168.0.40,8080,255.255.255.0,192.168.0.1,0xFFFFFFFF,0xFFFFFFFF,0xFFFFFFFF,0x00000000,
6.23278689384,0x00000000,0x00000000,0x00000000,0x00000000,0x00000000,0x00000000,0x00000000,0x00000000,80.02,3,0x00000000,96.484,97.647,-0.002,-0.028,-0.015,-0.03,-0.0,-1.635,0.136,-0.059,0.335,1.792,0x00000003,0.0,0.0,-0.003,0.0,0.001,-0.0,0.0,0.0,0.0,0.002,-0.0,0.0,0.0,0.001,-0.013,0.648,0.0,0.0,0.648,34.991,34.991,0.0,0.0,0.0,96.484,96.484,0.0,0.0,26.375,26.25,0.0,0.0,0.0,0.0,90.0,76.703,0.109,27.438,0x00000000,0x00000000,0x00000000,0.0,1246,1279,5.585,3.733,0.0,0.0,0.13,0.083,0.0,0.0,1.0,0.981,0.981,0.981,0.196,1.0,1.0,0.462,0.584,0.57,24.267,0x00000101,192.168.0.40,8080,255.255.255.0,192.168.0.1,0xFFFFFFFF,0xFFFFFFFF,0xFFFFFFFF,0x00000000,
6.2828040123,0x00000000,0x00000000,0x00000000,0x00000000,0x00000000,0x00000000,0x00000000,0x00000000,80.07,3,0x00000000,96.484,97.647,-0.0,-0.028,-0.028,-0.008,-0.013,-1.637,-0.187,-0.076,0.052,-0.292,0x00000003,0.0,0.0,0.011,0.0,0.001,-0.0,0.001,0.0,0.0,0.002,-0.0,0.0,0.0,0.001,-0.025,0.648,0.0,0.0,0.648,34.991,34.991,0.0,0.0,0.0,96.484,96.484,0.0,0.0,26.375,26.25,0.0,0.0,0.0,0.0,90.0,76.703,0.109,27.438,0x00000000,0x00000000,0x00000000,0.0,1246,1279,4.995,3.543,0.0,0.0,0.13,0.083,0.0,0.0,1.0,0.981,0.981,0.981,0.196,1.0,1.0,0.462,0.584,0.57,24.267,0x00000101,192.168.0.40,8080,255.255.255.0,192.168.0.1,0xFFFFFFFF,0xFFFFFFFF,0xFFFFFFFF,0x00000000,
6.33294391632,0x00000000,0x00000000,0x00000000,0x00000000,0x00000000,0x00000000,0x00000000,0x00000000,80.12,3,0x00000000,96.484,97.647,-0.001,-0.028,-0.012,-0.021,-0.007,-1.641,0.026,-0.069,0.316,0.75,0x00000003,0.0,0.0,0.004,-0.0,0.002,-0.001,0.001,0.0,0.0,0.002,-0.0,0.0,0.0,0.001,-1.043,0.369,0.0,0.0,-1.043,34.991,34.991,0.0,0.0,0.0,96.484,96.484,0.0,0.0,26.375,26.25,0.0,0.0,0.0,0.0,90.0,76.703,0.109,27.438,0x00000000,0x00000000,0x00000000,0.0,1246,1279,5.822,2.495,0.0,0.0,0.13,0.083,0.0,0.0,1.0,0.981,0.981,0.981,0.196,1.0,1.0,0.462,0.584,0.57,24.267,0x00000101,192.168.0.40,8080,255.255.255.0,192.168.0.1,0xFFFFFFFF,0xFFFFFFFF,0xFFFFFFFF,0x00000000,
7.12424707413,0x00000000,0x00000000,0x00000000,0x00000000,0x00000000,0x00000000,0x00000000,0x00000000,80.91,3,0x00000000,96.484,97.647,-0.001,-0.027,-0.016,-0.013,0.006,-1.614,-0.28,-0.058,0.304,-0.297,0x00000003,0.0,0.0,-0.004,0.0,0.003,-0.0,0.001,0.0,0.0,0.002,-0.0,0.0,0.0,0.001,0.076,0.712,0.0,0.0,0.712,34.991,34.991,0.0,0.0,0.0,96.484,96.484,0.0,0.0,26.438,26.25,0.0,0.0,0.0,0.0,90.0,76.703,0.109,27.438,0x00000000,0x00000000,0x00000000,0.0,1246,1279,6.407,4.708,0.0,0.0,0.131,0.084,0.0,0.0,1.0,0.981,0.981,0.981,0.196,1.0,1.0,0.462,0.584,0.57,24.267,0x00000101,192.168.0.40,8080,255.255.255.0,192.168.0.1,0xFFFFFFFF,0xFFFFFFFF,0xFFFFFFFF,0x00000000,
7.17423605919,0x00000000,0x00000000,0x00000000,0x00000000,0x00000000,0x00000000,0x00000000,0x00000000,80.96,3,0x00000000,96.484,97.647,-0.0,-0.029,-0.005,-0.021,-0.006,-1.619,0.303,-0.072,0.546,-0.297,0x00000003,0.0,0.0,0.002,0.0,0.002,-0.0,0.001,0.0,0.0,0.002,-0.0,0.0,0.0,0.001,-0.025,0.75,0.0,0.0,0.75,34.991,34.991,0.0,0.0,0.0,96.484,96.484,0.0,0.0,26.438,26.25,0.0,0.0,0.0,0.0,90.0,76.703,0.109,27.438,0x00000000,0x00000000,0x00000000,0.0,1246,1279,4.837,4.763,0.0,0.0,0.131,0.084,0.0,0.0,1.0,0.981,0.981,0.981,0.196,1.0,1.0,0.462,0.584,0.57,24.267,0x00000101,192.168.0.40,8080,255.255.255.0,192.168.0.1,0xFFFFFFFF,0xFFFFFFFF,0xFFFFFFFF,0x00000000,
7.22436904907,0x00000000,0x00000000,0x00000000,0x00000000,0x00000000,0x00000000,0x00000000,0x00000000,81.01,3,0x00000000,96.484,97.647,-0.0,-0.027,-0.012,-0.008,-0.0,-1.606,0.45,-0.067,0.554,0.404,0x00000003,0.0,0.0,-0.015,0.0,0.001,-0.0,-0.001,0.0,0.0,0.002,-0.0,0.0,0.0,0.001,-0.025,0.839,0.0,0.0,0.839,34.991,34.991,0.0,0.0,0.0,96.484,96.484,0.0,0.0,26.438,26.25,0.0,0.0,0.0,0.0,90.0,76.703,0.109,27.438,0x00000000,0x00000000,0x00000000,0.0,1246,1279,8.178,0.206,0.0,0.0,0.131,0.084,0.0,0.0,1.0,0.981,0.981,0.981,0.196,1.0,1.0,0.462,0.584,0.57,24.267,0x00000101,192.168.0.40,8080,255.255.255.0,192.168.0.1,0xFFFFFFFF,0xFFFFFFFF,0xFFFFFFFF,0x00000000,
7.2743909359,0x00000000,0x00000000,0x00000000,0x00000000,0x00000000,0x00000000,0x00000000,0x00000000,81.06,3,0x00000000,96.484,97.647,0.0,-0.027,-0.012,-0.034,-0.006,-1.596,-0.24,-0.046,-0.213,-1.331,0x00000003,0.0,0.0,-0.01,0.0,0.001,-0.001,-0.0,0.0,0.0,0.002,-0.0,0.0,0.0,0.001,-0.013,0.636,0.0,0.0,0.636,34.991,34.991,0.0,0.0,0.0,96.484,96.484,0.0,0.0,26.375,26.25,0.0,0.0,0.0,0.0,90.0,76.703,0.109,27.438,0x00000000,0x00000000,0x00000000,0.0,1246,1279,5.431,1.159,0.0,0.0,0.131,0.084,0.0,0.0,1.0,0.981,0.981,0.981,0.196,1.0,1.0,0.462,0.584,0.57,24.267,0x00000101,192.168.0.40,8080,255.255.255.0,192.168.0.1,0xFFFFFFFF,0xFFFFFFFF,0xFFFFFFFF,0x00000000,
7.32452392578,0x00000000,0x00000000,0x00000000,0x00000000,0x00000000,0x00000000,0x00000000,0x00000000,81.11,3,0x00000000,96.484,97.647,0.0,-0.029,-0.011,-0.012,-0.025,-1.618,-0.086,-0.068,-0.702,-0.986,0x00000003,0.0,0.0,0.006,0.0,0.003,-0.001,0.001,0.0,0.0,0.002,-0.0,0.0,0.0,0.001,-0.013,0.839,0.0,0.0,0.839,34.991,34.991,0.0,0.0,0.0,96.484,96.484,0.0,0.0,26.438,26.25,0.0,0.0,0.0,0.0,90.0,76.711,0.109,27.438,0x00000000,0x00000000,0x00000000,0.0,1246,1279,7.198,3.424,0.0,0.0,0.131,0.084,0.0,0.0,1.0,0.981,0.981,0.981,0.196,1.0,1.0,0.462,0.584,0.57,24.267,0x00000101,192.168.0.40,8080,255.255.255.0,192.168.0.1,0xFFFFFFFF,0xFFFFFFFF,0xFFFFFFFF,0x00000000,
8.12584805489,0x00000000,0x00000000,0x00000000,0x00000000,0x00000000,0x00000000,0x00000000,0x00000000,81.91,3,0x00000000,96.484,97.647,-0.0,-0.029,-0.013,-0.017,-0.012,-1.622,0.062,-0.095,-0.677,0.411,0x00000003,0.0,0.0,0.004,0.0,0.003,-0.001,0.002,0.0,0.0,0.002,-0.0,0.0,0.0,0.001,-0.356,1.081,0.0,0.0,1.081,34.991,34.991,0.0,0.0,0.0,96.484,96.484,0.0,0.0,26.438,26.25,0.0,0.0,0.0,0.0,90.0,76.703,0.109,27.438,0x00000000,0x00000000,0x00000000,0.0,1246,1279,8.232,4.897,0.0,0.0,0.133,0.085,0.0,0.0,1.0,0.981,0.981,0.981,0.196,1.0,1.0,0.462,0.584,0.57,24.267,0x00000101,192.168.0.40,8080,255.255.255.0,192.168.0.1,0xFFFFFFFF,0xFFFFFFFF,0xFFFFFFFF,0x00000000,
8.17583584785,0x00000000,0x00000000,0x00000000,0x00000000,0x00000000,0x00000000,0x00000000,0x00000000,81.96,3,0x00000000,96.484,97.647,-0.0,-0.028,-0.008,-0.017,0.006,-1.609,0.506,-0.097,-0.672,0.748,0x00000003,0.0,0.0,-0.003,0.0,0.002,-0.0,0.0,0.0,0.0,0.002,-0.0,0.0,0.0,0.001,-0.013,0.636,0.0,0.0,0.636,34.991,34.991,0.0,0.0,0.0,96.484,96.484,0.0,0.0,26.438,26.25,0.0,0.0,0.0,0.0,90.0,76.703,0.109,27.438,0x00000000,0x00000000,0x00000000,0.0,1246,1279,4.915,4.771,0.0,0.0,0.133,0.085,0.0,0.0,1.0,0.981,0.981,0.981,0.196,1.0,1.0,0.462,0.584,0.57,24.267,0x00000101,192.168.0.40,8080,255.255.255.0,192.168.0.1,0xFFFFFFFF,0xFFFFFFFF,0xFFFFFFFF,0x00000000,
8.22595691681,0x00000000,0x00000000,0x00000000,0x00000000,0x00000000,0x00000000,0x00000000,0x00000000,82.01,3,0x00000000,96.484,97.647,0.0,-0.027,-0.02,-0.017,0.03,-1.606,-0.513,-0.101,-0.931,-0.281,0x00000003,0.0,0.0,0.005,0.0,0.002,-0.0,0.001,0.0,0.0,0.002,-0.0,0.0,0.0,0.001,0.178,0.75,0.0,0.0,0.75,34.991,34.991,0.0,0.0,0.0,96.484,96.484,0.0,0.0,26.438,26.25,0.0,0.0,0.0,0.0,90.0,76.703,0.109,27.438,0x00000000,0x00000000,0x00000000,0.0,1246,1279,6.496,2.947,0.0,0.0,0.133,0.085,0.0,0.0,1.0,0.981,0.981,0.981,0.196,1.0,1.0,0.462,0.584,0.57,24.267,0x00000101,192.168.0.40,8080,255.255.255.0,192.168.0.1,0xFFFFFFFF,0xFFFFFFFF,0xFFFFFFFF,0x00000000,
8.27600502968,0x00000000,0x00000000,0x00000000,0x00000000,0x00000000,0x00000000,0x00000000,0x00000000,82.06,3,0x00000000,96.484,97.647,0.0,-0.028,-0.014,-0.008,0.006,-1.603,-0.066,-0.112,-1.434,-0.638,0x00000003,0.0,0.0,-0.002,0.0,0.001,0.0,0.0,0.0,0.0,0.002,-0.0,0.0,0.0,0.001,-0.025,0.852,0.0,0.0,0.852,34.991,34.991,0.0,0.0,0.0,96.484,96.484,0.0,0.0,26.375,26.25,0.0,0.0,0.0,0.0,90.0,76.703,0.109,27.438,0x00000000,0x00000000,0x00000000,0.0,1246,1279,7.401,9.133,0.0,0.0,0.133,0.085,0.0,0.0,1.0,0.981,0.981,0.981,0.196,1.0,1.0,0.462,0.584,0.57,24.267,0x00000101,192.168.0.40,8080,255.255.255.0,192.168.0.1,0xFFFFFFFF,0xFFFFFFFF,0xFFFFFFFF,0x00000000,
8.32611298561,0x00000000,0x00000000,0x00000000,0x00000000,0x00000000,0x00000000,0x00000000,0x00000000,82.11,3,0x00000000,96.484,97.647,0.0,-0.028,-0.011,-0.004,-0.037,-1.597,-0.073,-0.098,0.092,1.44,0x00000003,0.0,0.0,-0.005,-0.0,0.001,-0.001,0.0,0.0,0.0,0.002,-0.0,0.0,0.0,0.001,0.076,0.712,0.0,0.0,0.712,34.991,34.991,0.0,0.0,0.0,96.484,96.484,0.0,0.0,26.375,26.25,0.0,0.0,0.0,0.0,90.0,76.711,0.109,27.438,0x00000000,0x00000000,0x00000000,0.0,1246,1279,5.855,8.768,0.0,0.0,0.133,0.085,0.0,0.0,1.0,0.981,0.981,0.981,0.196,1.0,1.0,0.462,0.584,0.57,24.267,0x00000101,192.168.0.40,8080,255.255.255.0,192.168.0.1,0xFFFFFFFF,0xFFFFFFFF,0xFFFFFFFF,0x00000000,
9.12741684914,0x00000000,0x00000000,0x00000000,0x00000000,0x00000000,0x00000000,0x00000000,0x00000000,82.91,3,0x00000000,96.484,97.647,0.002,-0.027,-0.018,-0.004,-0.006,-1.597,0.414,-0.062,0.053,-0.279,0x00000003,0.0,0.0,-0.011,0.0,0.002,-0.001,-0.0,0.0,0.0,0.002,-0.0,0.0,0.0,0.001,-0.013,0.852,0.0,0.0,0.852,34.991,34.991,0.0,0.0,0.0,96.484,96.484,0.0,0.0,26.375,26.25,0.0,0.0,0.0,0.0,90.0,76.711,0.109,27.438,0x00000000,0x00000000,0x00000000,0.0,1246,1279,5.854,4.427,0.0,0.0,0.135,0.086,0.0,0.0,1.0,0.981,0.981,0.981,0.196,1.0,1.0,0.462,0.584,0.57,24.267,0x00000101,192.168.0.40,8080,255.255.255.0,192.168.0.1,0xFFFFFFFF,0xFFFFFFFF,0xFFFFFFFF,0x00000000,
9.1774289608,0x00000000,0x00000000,0x00000000,0x00000000,0x00000000,0x00000000,0x00000000,0x00000000,82.96,3,0x00000000,96.484,97.647,-0.0,-0.028,-0.014,-0.013,0.012,-1.597,0.026,-0.042,0.048,-0.98,0x00000003,0.0,0.0,-0.006,0.0,0.001,-0.0,-0.0,0.0,0.0,0.002,-0.0,0.0,0.0,0.001,-0.013,0.75,0.0,0.0,0.75,34.991,34.991,0.0,0.0,0.0,96.484,96.484,0.0,0.0,26.375,26.25,0.0,0.0,0.0,0.0,90.0,76.711,0.109,27.438,0x00000000,0x00000000,0x00000000,0.0,1246,1279,7.373,5.426,0.0,0.0,0.135,0.086,0.0,0.0,1.0,0.981,0.981,0.981,0.196,1.0,1.0,0.462,0.584,0.57,24.267,0x00000101,192.168.0.40,8080,255.255.255.0,192.168.0.1,0xFFFFFFFF,0xFFFFFFFF,0xFFFFFFFF,0x00000000,
9.22754693031,0x00000000,0x00000000,0x00000000,0x00000000,0x00000000,0x00000000,0x00000000,0x00000000,83.01,3,0x00000000,96.484,97.647,-0.0,-0.028,-0.021,-0.013,0.006,-1.604,0.023,-0.018,0.556,-0.289,0x00000003,0.0,0.0,-0.007,-0.0,0.001,-0.001,0.0,0.0,0.0,0.002,-0.0,0.0,0.0,0.001,-1.043,1.246,0.0,0.0,1.246,34.991,34.991,0.0,0.0,0.0,96.484,96.484,0.0,0.0,26.438,26.25,0.0,0.0,0.0,0.0,90.0,76.711,0.109,27.438,0x00000000,0x00000000,0x00000000,0.0,1246,1279,8.625,2.975,0.0,0.0,0.135,0.086,0.0,0.0,1.0,0.981,0.981,0.981,0.196,1.0,1.0,0.462,0.584,0.57,24.267,0x00000101,192.168.0.40,8080,255.255.255.0,192.168.0.1,0xFFFFFFFF,0xFFFFFFFF,0xFFFFFFFF,0x00000000,
9.27758002281,0x00000000,0x00000000,0x00000000,0x00000000,0x00000000,0x00000000,0x00000000,0x00000000,83.06,3,0x00000000,96.484,97.647,-0.0,-0.028,-0.014,-0.008,-0.024,-1.604,0.227,-0.016,-0.171,0.753,0x00000003,0.0,0.0,0.003,-0.0,0.002,-0.001,0.0,0.0,0.0,0.002,-0.0,0.0,0.0,0.001,-0.229,1.717,0.0,0.0,1.717,34.991,34.991,0.0,0.0,0.0,96.484,96.484,0.0,0.0,26.438,26.25,0.0,0.0,0.0,0.0,90.0,76.711,0.109,27.438,0x00000000,0x00000000,0x00000000,0.0,1246,1279,8.342,5.512,0.0,0.0,0.135,0.086,0.0,0.0,1.0,0.981,0.981,0.981,0.196,1.0,1.0,0.462,0.584,0.57,24.267,0x00000101,192.168.0.40,8080,255.255.255.0,192.168.0.1,0xFFFFFFFF,0xFFFFFFFF,0xFFFFFFFF,0x00000000,
9.32770586014,0x00000000,0x00000000,0x00000000,0x00000000,0x00000000,0x00000000,0x00000000,0x00000000,83.11,3,0x00000000,96.484,97.647,-0.0,-0.027,-0.021,-0.017,-0.019,-1.615,-0.203,-0.026,-1.195,-1.331,0x00000003,0.0,0.0,0.017,0.0,0.003,-0.0,0.002,0.0,0.0,0.002,-0.0,0.0,0.0,0.001,0.076,0.712,0.0,0.0,0.712,34.991,34.991,0.0,0.0,0.0,96.484,96.484,0.0,0.0,26.375,26.25,0.0,0.0,0.0,0.0,90.0,76.703,0.109,27.438,0x00000000,0x00000000,0x00000000,0.0,1246,1279,7.661,3.423,0.0,0.0,0.135,0.087,0.0,0.0,1.0,0.981,0.981,0.981,0.196,1.0,1.0,0.462,0.584,0.57,24.267,0x00000101,192.168.0.40,8080,255.255.255.0,192.168.0.1,0xFFFFFFFF,0xFFFFFFFF,0xFFFFFFFF,0x00000000,
10.1290290356,0x00000000,0x00000000,0x00000000,0x00000000,0x00000000,0x00000000,0x00000000,0x00000000,83.91,3,0x00000000,96.484,97.647,0.0,-0.028,-0.017,-0.034,-0.0,-1.572,0.009,-0.048,0.088,1.106,0x00000003,0.0,0.0,0.003,0.0,0.002,-0.001,0.002,0.0,0.0,0.002,-0.0,0.0,0.0,0.001,-0.025,0.75,0.0,0.0,0.75,34.991,34.991,0.0,0.0,0.0,96.484,96.484,0.0,0.0,26.438,26.25,0.0,0.0,0.0,0.0,90.0,76.703,0.109,27.438,0x00000000,0x00000000,0x00000000,0.0,1246,1279,5.072,0.724,0.0,0.0,0.136,0.087,0.0,0.0,1.0,0.981,0.981,0.981,0.196,1.0,1.0,0.462,0.584,0.57,24.267,0x00000101,192.168.0.40,8080,255.255.255.0,192.168.0.1,0xFFFFFFFF,0xFFFFFFFF,0xFFFFFFFF,0x00000000,
10.179019928,0x00000000,0x00000000,0x00000000,0x00000000,0x00000000,0x00000000,0x00000000,0x00000000,83.96,3,0x00000000,96.484,97.647,0.001,-0.028,-0.019,-0.017,-0.019,-1.572,-0.032,-0.059,0.313,-0.289,0x00000003,0.0,0.0,0.004,0.0,0.001,0.0,0.001,0.0,0.0,0.002,-0.0,0.0,0.0,0.001,-0.025,0.75,0.0,0.0,0.75,34.991,34.991,0.0,0.0,0.0,96.484,96.484,0.0,0.0,26.438,26.25,0.0,0.0,0.0,0.0,90.0,76.703,0.109,27.438,0x00000000,0x00000000,0x00000000,0.0,1246,1279,6.164,4.413,0.0,0.0,0.137,0.088,0.0,0.0,1.0,0.981,0.981,0.981,0.196,1.0,1.0,0.462,0.584,0.57,24.267,0x00000101,192.168.0.40,8080,255.255.255.0,192.168.0.1,0xFFFFFFFF,0xFFFFFFFF,0xFFFFFFFF,0x00000000,
10.2291460037,0x00000000,0x00000000,0x00000000,0x00000000,0x00000000,0x00000000,0x00000000,0x00000000,84.01,3,0x00000000,96.484,97.647,-0.0,-0.029,-0.015,-0.017,-0.006,-1.577,0.586,-0.071,-1.182,-0.279,0x00000003,0.0,0.0,-0.011,-0.0,0.002,-0.001,-0.001,0.0,0.0,0.002,-0.0,0.0,0.0,0.001,-0.025,0.852,0.0,0.0,0.852,34.991,34.991,0.0,0.0,0.0,96.484,96.484,0.0,0.0,26.438,26.25,0.0,0.0,0.0,0.0,90.0,76.703,0.109,27.438,0x00000000,0x00000000,0x00000000,0.0,1246,1279,5.36,4.754,0.0,0.0,0.137,0.088,0.0,0.0,1.0,0.981,0.981,0.981,0.196,1.0,1.0,0.462,0.584,0.57,24.267,0x00000101,192.168.0.40,8080,255.255.255.0,192.168.0.1,0xFFFFFFFF,0xFFFFFFFF,0xFFFFFFFF,0x00000000,
10.2791728973,0x00000000,0x00000000,0x00000000,0x00000000,0x00000000,0x00000000,0x00000000,0x00000000,84.06,3,0x00000000,96.484,97.647,0.001,-0.027,-0.012,-0.03,-0.031,-1.57,0.585,-0.05,0.545,-0.624,0x00000003,0.0,0.0,0.003,-0.0,0.002,-0.0,0.0,0.0,0.0,0.002,-0.0,0.0,0.0,0.001,-0.013,0.75,0.0,0.0,0.75,34.991,34.991,0.0,0.0,0.0,96.484,96.484,0.0,0.0,26.438,26.25,0.0,0.0,0.0,0.0,90.0,76.703,0.109,27.438,0x00000000,0x00000000,0x00000000,0.0,1246,1279,5.441,4.766,0.0,0.0,0.137,0.088,0.0,0.0,1.0,0.981,0.981,0.981,0.196,1.0,1.0,0.462,0.584,0.57,24.267,0x00000101,192.168.0.40,8080,255.255.255.0,192.168.0.1,0xFFFFFFFF,0xFFFFFFFF,0xFFFFFFFF,0x00000000,
10.3293020725,0x00000000,0x00000000,0x00000000,0x00000000,0x00000000,0x00000000,0x00000000,0x00000000,84.11,3,0x00000000,96.484,97.647,0.001,-0.028,-0.018,-0.025,-0.024,-1.572,0.204,-0.039,0.796,-0.62,0x00000003,0.0,0.0,0.001,-0.0,0.001,-0.0,0.0,0.0,0.0,0.002,-0.0,0.0,0.0,0.001,0.076,0.75,0.0,0.0,0.75,34.991,34.991,0.0,0.0,0.0,96.484,96.484,0.0,0.0,26.438,26.25,0.0,0.0,0.0,0.0,90.0,76.703,0.109,27.438,0x00000000,0x00000000,0x00000000,0.0,1246,1279,5.148,3.062,0.0,0.0,0.137,0.088,0.0,0.0,1.0,0.981,0.981,0.981,0.196,1.0,1.0,0.462,0.584,0.57,24.267,0x00000101,192.168.0.40,8080,255.255.255.0,192.168.0.1,0xFFFFFFFF,0xFFFFFFFF,0xFFFFFFFF,0x00000000,
11.1306228638,0x00000000,0x00000000,0x00000000,0x00000000,0x00000000,0x00000000,0x00000000,0x00000000,84.91,3,0x00000000,96.484,97.647,-0.0,-0.028,-0.011,-0.008,-0.006,-1.578,-0.692,-0.027,-0.653,0.411,0x00000003,0.0,0.0,0.001,-0.0,0.001,-0.0,0.0,0.0,0.0,0.002,-0.0,0.0,0.0,0.001,-0.025,0.75,0.0,0.0,0.75,34.991,34.991,0.0,0.0,0.0,96.484,96.484,0.0,0.0,26.438,26.25,0.0,0.0,0.0,0.0,90.0,76.703,0.109,27.438,0x00000000,0x00000000,0x00000000,0.0,1246,1279,7.723,4.077,0.0,0.0,0.138,0.088,0.0,0.0,1.0,0.981,0.981,0.981,0.196,1.0,1.0,0.462,0.584,0.57,24.267,0x00000101,192.168.0.40,8080,255.255.255.0,192.168.0.1,0xFFFFFFFF,0xFFFFFFFF,0xFFFFFFFF,0x00000000,
11.1806130409,0x00000000,0x00000000,0x00000000,0x00000000,0x00000000,0x00000000,0x00000000,0x00000000,84.96,3,0x00000000,96.484,97.647,-0.001,-0.029,-0.021,-0.026,-0.0,-1.568,-0.229,-0.011,0.067,-0.267,0x00000003,0.0,0.0,-0.001,0.0,0.001,-0.0,0.0,0.0,0.0,0.002,-0.0,0.0,0.0,0.001,0.076,0.75,0.0,0.0,0.75,34.991,34.991,0.0,0.0,0.0,96.484,96.484,0.0,0.0,26.438,26.25,0.0,0.0,0.0,0.0,90.0,76.703,0.109,27.438,0x00000000,0x00000000,0x00000000,0.0,1246,1279,6.098,2.403,0.0,0.0,0.138,0.089,0.0,0.0,1.0,0.981,0.981,0.981,0.196,1.0,1.0,0.462,0.584,0.57,24.267,0x00000101,192.168.0.40,8080,255.255.255.0,192.168.0.1,0xFFFFFFFF,0xFFFFFFFF,0xFFFFFFFF,0x00000000,
11.2307310104,0x00000000,0x00000000,0x00000000,0x00000000,0x00000000,0x00000000,0x00000000,0x00000000,85.01,3,0x00000000,96.484,97.647,0.001,-0.027,-0.018,-0.034,-0.0,-1.565,0.226,-0.027,-0.688,-0.615,0x00000003,0.0,0.0,0.0,0.0,-0.0,0.0,0.0,0.0,0.0,0.002,-0.0,0.0,0.0,0.001,0.076,0.648,0.0,0.0,0.648,34.991,34.991,0.0,0.0,0.0,96.484,96.484,0.0,0.0,26.375,26.25,0.0,0.0,0.0,0.0,90.0,76.703,0.109,27.438,0x00000000,0x00000000,0x00000000,0.0,1246,1279,5.019,4.677,0.0,0.0,0.138,0.089,0.0,0.0,1.0,0.981,0.981,0.981,0.196,1.0,1.0,0.462,0.584,0.57,24.267,0x00000101,192.168.0.40,8080,255.255.255.0,192.168.0.1,0xFFFFFFFF,0xFFFFFFFF,0xFFFFFFFF,0x00000000,
11.2807679176,0x00000000,0x00000000,0x00000000,0x00000000,0x00000000,0x00000000,0x00000000,0x00000000,85.06,3,0x00000000,96.484,97.647,-0.0,-0.029,-0.007,-0.021,-0.025,-1.573,0.247,-0.034,-0.433,-0.273,0x00000003,0.0,0.0,0.009,0.0,0.001,-0.001,0.002,0.0,0.0,0.002,-0.0,0.0,0.0,0.001,0.076,0.712,0.0,0.0,0.712,34.991,34.991,0.0,0.0,0.0,96.484,96.484,0.0,0.0,26.438,26.25,0.0,0.0,0.0,0.0,90.0,76.703,0.109,27.438,0x00000000,0x00000000,0x00000000,0.0,1246,1279,7.361,5.699,0.0,0.0,0.138,0.089,0.0,0.0,1.0,0.981,0.981,0.981,0.196,1.0,1.0,0.462,0.584,0.57,24.267,0x00000101,192.168.0.40,8080,255.255.255.0,192.168.0.1,0xFFFFFFFF,0xFFFFFFFF,0xFFFFFFFF,0x00000000,
11.3308930397,0x00000000,0x00000000,0x00000000,0x00000000,0x00000000,0x00000000,0x00000000,0x00000000,85.11,3,0x00000000,96.484,97.647,0.0,-0.028,-0.02,-0.008,-0.025,-1.571,-0.127,-0.041,-0.906,0.77,0x00000003,0.0,0.0,-0.007,-0.0,0.002,-0.001,0.001,0.0,0.0,0.002,-0.0,0.0,0.0,0.001,0.076,0.636,0.0,0.0,0.636,34.991,34.991,0.0,0.0,0.0,96.484,96.484,0.0,0.0,26.438,26.25,0.0,0.0,0.0,0.0,90.0,76.703,0.109,27.438,0x00000000,0x00000000,0x00000000,0.0,1246,1279,4.893,4.821,0.0,0.0,0.139,0.089,0.0,0.0,1.0,0.981,0.981,0.981,0.196,1.0,1.0,0.462,0.584,0.57,24.267,0x00000101,192.168.0.40,8080,255.255.255.0,192.168.0.1,0xFFFFFFFF,0xFFFFFFFF,0xFFFFFFFF,0x00000000,
12.1322319508,0x00000000,0x00000000,0x00000000,0x00000000,0x00000000,0x00000000,0x00000000,0x00000000,85.91,3,0x00000000,96.484,97.647,-0.0,-0.028,-0.013,-0.025,-0.025,-1.605,0.048,-0.071,0.083,0.412,0x00000003,0.0,0.0,0.003,0.0,0.001,-0.0,0.001,0.0,0.0,0.002,-0.0,0.0,0.0,0.001,-1.068,1.869,0.0,0.0,1.869,34.991,34.991,0.0,0.0,0.0,96.484,96.484,0.0,0.0,26.438,26.25,0.0,0.0,0.0,0.0,90.0,76.703,0.109,27.438,0x00000000,0x00000000,0x00000000,0.0,1246,1279,5.193,4.774,0.0,0.0,0.14,0.09,0.0,0.0,1.0,0.981,0.981,0.981,0.196,1.0,1.0,0.462,0.584,0.57,24.267,0x00000101,192.168.0.40,8080,255.255.255.0,192.168.0.1,0xFFFFFFFF,0xFFFFFFFF,0xFFFFFFFF,0x00000000,
12.1822090149,0x00000000,0x00000000,0x00000000,0x00000000,0x00000000,0x00000000,0x00000000,0x00000000,85.96,3,0x00000000,96.484,97.647,-0.0,-0.027,-0.014,-0.008,0.012,-1.608,-0.564,-0.075,0.323,-0.277,0x00000003,0.0,0.0,0.001,0.0,0.001,-0.0,0.0,0.0,0.0,0.002,-0.0,0.0,0.0,0.001,0.076,0.712,0.0,0.0,0.712,34.991,34.991,0.0,0.0,0.0,96.484,96.484,0.0,0.0,26.438,26.25,0.0,0.0,0.0,0.0,90.0,76.703,0.109,27.438,0x00000000,0x00000000,0x00000000,0.0,1246,1279,5.434,2.55,0.0,0.0,0.14,0.09,0.0,0.0,1.0,0.981,0.981,0.981,0.196,1.0,1.0,0.462,0.584,0.57,24.267,0x00000101,192.168.0.40,8080,255.255.255.0,192.168.0.1,0xFFFFFFFF,0xFFFFFFFF,0xFFFFFFFF,0x00000000,
12.2323250771,0x00000000,0x00000000,0x00000000,0x00000000,0x00000000,0x00000000,0x00000000,0x00000000,86.01,3,0x00000000,96.484,97.647,-0.0,-0.028,-0.004,-0.021,-0.043,-1.603,0.082,-0.051,-0.422,0.074,0x00000003,0.0,0.0,-0.005,0.0,0.001,-0.001,0.0,0.0,0.0,0.002,-0.0,0.0,0.0,0.001,-0.025,0.75,0.0,0.0,0.75,34.991,34.991,0.0,0.0,0.0,96.484,96.484,0.0,0.0,26.375,26.25,0.0,0.0,0.0,0.0,90.0,76.703,0.109,27.438,0x00000000,0x00000000,0x00000000,0.0,1246,1279,7.379,4.344,0.0,0.0,0.14,0.09,0.0,0.0,1.0,0.981,0.981,0.981,0.196,1.0,1.0,0.462,0.584,0.57,24.267,0x00000101,192.168.0.40,8080,255.255.255.0,192.168.0.1,0xFFFFFFFF,0xFFFFFFFF,0xFFFFFFFF,0x00000000,
12.2823610306,0x00000000,0x00000000,0x00000000,0x00000000,0x00000000,0x00000000,0x00000000,0x00000000,86.06,3,0x00000000,96.484,97.647,-0.0,-0.027,-0.027,-0.017,-0.006,-1.59,0.775,-0.025,0.548,-0.618,0x00000003,0.0,0.0,0.002,-0.0,0.002,-0.0,0.0,0.0,0.0,0.002,-0.0,0.0,0.0,0.001,0.076,0.852,0.0,0.0,0.852,34.991,34.991,0.0,0.0,0.0,96.484,96.484,0.0,0.0,26.375,26.25,0.0,0.0,0.0,0.0,90.0,76.703,0.109,27.438,0x00000000,0x00000000,0x00000000,0.0,1246,1279,5.867,4.762,0.0,0.0,0.14,0.09,0.0,0.0,1.0,0.981,0.981,0.981,0.196,1.0,1.0,0.462,0.584,0.57,24.267,0x00000101,192.168.0.40,8080,255.255.255.0,192.168.0.1,0xFFFFFFFF,0xFFFFFFFF,0xFFFFFFFF,0x00000000,
12.3325059414,0x00000000,0x00000000,0x00000000,0x00000000,0x00000000,0x00000000,0x00000000,0x00000000,86.11,3,0x00000000,96.484,97.647,-0.0,-0.028,-0.014,-0.03,-0.013,-1.597,-0.11,-0.027,-0.431,-0.622,0x00000003,0.0,0.0,-0.005,-0.0,0.002,-0.001,0.001,0.0,0.0,0.002,-0.0,0.0,0.0,0.001,-0.025,0.75,0.0,0.0,0.75,34.991,34.991,0.0,0.0,0.0,96.484,96.484,0.0,0.0,26.438,26.25,0.0,0.0,0.0,0.0,90.0,76.703,0.109,27.438,0x00000000,0x00000000,0x00000000,0.0,1246,1279,7.059,4.6,0.0,0.0,0.14,0.09,0.0,0.0,1.0,0.981,0.981,0.981,0.196,1.0,1.0,0.462,0.584,0.57,24.267,0x00000101,192.168.0.40,8080,255.255.255.0,192.168.0.1,0xFFFFFFFF,0xFFFFFFFF,0xFFFFFFFF,0x00000000,
13.1338660717,0x00000000,0x00000000,0x00000000,0x00000000,0x00000000,0x00000000,0x00000000,0x00000000,86.91,3,0x00000000,96.484,97.647,0.001,-0.028,-0.017,-0.012,-0.043,-1.577,0.222,-0.002,1.045,-0.967,0x00000003,0.0,0.0,0.004,0.0,0.0,0.0,0.001,0.0,0.0,0.002,-0.0,0.0,0.0,0.001,0.076,0.75,0.0,0.0,0.75,34.991,34.991,0.0,0.0,0.0,96.484,96.484,0.0,0.0,26.375,26.25,0.0,0.0,0.0,0.0,90.0,76.711,0.109,27.438,0x00000000,0x00000000,0x00000000,0.0,1246,1279,8.378,4.504,0.0,0.0,0.142,0.091,0.0,0.0,1.0,0.981,0.981,0.981,0.196,1.0,1.0,0.462,0.584,0.57,24.267,0x00000101,192.168.0.40,8080,255.255.255.0,192.168.0.1,0xFFFFFFFF,0xFFFFFFFF,0xFFFFFFFF,0x00000000,
13.1837990284,0x00000000,0x00000000,0x00000000,0x00000000,0x00000000,0x00000000,0x00000000,0x00000000,86.96,3,0x00000000,96.484,97.647,-0.0,-0.028,-0.02,0.001,-0.025,-1.584,0.337,-0.019,-0.155,1.114,0x00000003,0.0,0.0,-0.002,0.0,0.001,0.0,0.0,0.0,0.0,0.002,-0.0,0.0,0.0,0.001,0.076,0.61,0.0,0.0,0.61,34.991,34.991,0.0,0.0,0.0,96.484,96.484,0.0,0.0,26.438,26.25,0.0,0.0,0.0,0.0,90.0,76.711,0.109,27.438,0x00000000,0x00000000,0x00000000,0.0,1246,1279,5.117,4.769,0.0,0.0,0.142,0.091,0.0,0.0,1.0,0.981,0.981,0.981,0.196,1.0,1.0,0.462,0.584,0.57,24.267,0x00000101,192.168.0.40,8080,255.255.255.0,192.168.0.1,0xFFFFFFFF,0xFFFFFFFF,0xFFFFFFFF,0x00000000,
13.2339229584,0x00000000,0x00000000,0x00000000,0x00000000,0x00000000,0x00000000,0x00000000,0x00000000,87.01,3,0x00000000,96.484,97.647,0.0,-0.028,-0.012,-0.021,-0.0,-1.592,0.218,-0.02,-0.161,0.765,0x00000003,0.0,0.0,-0.0,-0.0,0.001,-0.0,0.0,0.0,0.0,0.002,-0.0,0.0,0.0,0.001,-0.839,1.119,0.0,0.0,1.119,34.991,34.991,0.0,0.0,0.0,96.484,96.484,0.0,0.0,26.438,26.25,0.0,0.0,0.0,0.0,90.0,76.711,0.109,27.438,0x00000000,0x00000000,0x00000000,0.0,1246,1279,5.134,4.778,0.0,0.0,0.142,0.091,0.0,0.0,1.0,0.981,0.981,0.981,0.196,1.0,1.0,0.462,0.584,0.57,24.267,0x00000101,192.168.0.40,8080,255.255.255.0,192.168.0.1,0xFFFFFFFF,0xFFFFFFFF,0xFFFFFFFF,0x00000000,
13.2839479446,0x00000000,0x00000000,0x00000000,0x00000000,0x00000000,0x00000000,0x00000000,0x00000000,87.06,3,0x00000000,96.484,97.647,0.0,-0.028,-0.017,-0.004,-0.018,-1.592,-0.389,-0.029,-0.643,1.111,0x00000003,0.0,0.0,0.004,0.0,0.001,-0.0,0.001,0.0,0.0,0.002,-0.0,0.0,0.0,0.001,-0.127,1.958,0.0,0.0,1.958,34.991,34.991,0.0,0.0,0.0,96.484,96.484,0.0,0.0,26.375,26.25,0.0,0.0,0.0,0.0,90.0,76.711,0.109,27.438,0x00000000,0x00000000,0x00000000,0.0,1246,1279,3.945,3.252,0.0,0.0,0.142,0.091,0.0,0.0,1.0,0.981,0.981,0.981,0.196,1.0,1.0,0.462,0.584,0.57,24.267,0x00000101,192.168.0.40,8080,255.255.255.0,192.168.0.1,0xFFFFFFFF,0xFFFFFFFF,0xFFFFFFFF,0x00000000,
13.3340759277,0x00000000,0x00000000,0x00000000,0x00000000,0x00000000,0x00000000,0x00000000,0x00000000,87.11,3,0x00000000,96.484,97.647,-0.0,-0.028,-0.013,-0.034,-0.037,-1.597,0.075,-0.018,-0.407,0.765,0x00000003,0.0,0.0,-0.01,-0.0,0.001,-0.0,-0.001,0.0,0.0,0.002,-0.0,0.0,0.0,0.001,-0.025,0.636,0.0,0.0,0.636,34.991,34.991,0.0,0.0,0.0,96.484,96.484,0.0,0.0,26.438,26.25,0.0,0.0,0.0,0.0,90.0,76.711,0.109,27.438,0x00000000,0x00000000,0x00000000,0.0,1246,1279,5.084,3.524,0.0,0.0,0.142,0.091,0.0,0.0,1.0,0.981,0.981,0.981,0.196,1.0,1.0,0.462,0.584,0.57,24.267,0x00000101,192.168.0.40,8080,255.255.255.0,192.168.0.1,0xFFFFFFFF,0xFFFFFFFF,0xFFFFFFFF,0x00000000,
14.1353979111,0x00000000,0x00000000,0x00000000,0x00000000,0x00000000,0x00000000,0x00000000,0x00000000,87.91,3,0x00000000,96.484,97.647,0.001,-0.028,-0.005,-0.026,-0.024,-1.557,0.24,-0.089,-0.411,0.412,0x00000003,0.0,0.0,-0.004,-0.0,0.002,-0.001,0.0,0.0,0.0,0.002,-0.0,0.0,0.0,0.001,-0.013,0.712,0.0,0.0,0.712,34.991,34.991,0.0,0.0,0.0,96.484,96.484,0.0,0.0,26.375,26.25,0.0,0.0,0.0,0.0,90.0,76.711,0.109,27.438,0x00000000,0x00000000,0x00000000,0.0,1246,1279,4.225,1.306,0.0,0.0,0.144,0.092,0.0,0.0,1.0,0.981,0.981,0.981,0.196,1.0,1.0,0.462,0.584,0.57,24.267,0x00000101,192.168.0.40,8080,255.255.255.0,192.168.0.1,0xFFFFFFFF,0xFFFFFFFF,0xFFFFFFFF,0x00000000,
14.1854310036,0x00000000,0x00000000,0x00000000,0x00000000,0x00000000,0x00000000,0x00000000,0x00000000,87.96,3,0x00000000,96.484,97.647,-0.0,-0.028,-0.019,-0.008,0.006,-1.547,0.226,-0.087,-0.677,-0.624,0x00000003,0.0,0.0,0.003,-0.0,0.002,-0.0,0.0,0.0,0.0,0.002,-0.0,0.0,0.0,0.001,-0.025,0.636,0.0,0.0,0.636,34.991,34.991,0.0,0.0,0.0,96.484,96.484,0.0,0.0,26.438,26.25,0.0,0.0,0.0,0.0,90.0,76.711,0.109,27.438,0x00000000,0x00000000,0x00000000,0.0,1246,1279,5.088,4.631,0.0,0.0,0.144,0.092,0.0,0.0,1.0,0.981,0.981,0.981,0.196,1.0,1.0,0.462,0.584,0.57,24.267,0x00000101,192.168.0.40,8080,255.255.255.0,192.168.0.1,0xFFFFFFFF,0xFFFFFFFF,0xFFFFFFFF,0x00000000,
14.2355239391,0x00000000,0x00000000,0x00000000,0x00000000,0x00000000,0x00000000,0x00000000,0x00000000,88.01,3,0x00000000,96.484,97.647,0.0,-0.027,-0.011,-0.021,-0.0,-1.554,-0.031,-0.086,-0.41,0.057,0x00000003,0.0,0.0,0.0,0.0,0.001,-0.0,0.0,0.0,0.0,0.002,-0.0,0.0,0.0,0.001,-0.025,0.75,0.0,0.0,0.75,34.991,34.991,0.0,0.0,0.0,96.484,96.484,0.0,0.0,26.438,26.25,0.0,0.0,0.0,0.0,90.0,76.711,0.109,27.438,0x00000000,0x00000000,0x00000000,0.0,1246,1279,5.118,4.772,0.0,0.0,0.144,0.092,0.0,0.0,1.0,0.981,0.981,0.981,0.196,1.0,1.0,0.462,0.584,0.57,24.267,0x00000101,192.168.0.40,8080,255.255.255.0,192.168.0.1,0xFFFFFFFF,0xFFFFFFFF,0xFFFFFFFF,0x00000000,
14.2855429649,0x00000000,0x00000000,0x00000000,0x00000000,0x00000000,0x00000000,0x00000000,0x00000000,88.06,3,0x00000000,96.484,97.647,-0.001,-0.029,-0.014,-0.017,-0.024,-1.548,0.382,-0.075,0.346,1.1,0x00000003,0.0,0.0,-0.007,-0.0,0.001,-0.001,0.0,0.0,0.0,0.002,-0.0,0.0,0.0,0.001,0.076,0.712,0.0,0.0,0.712,34.991,34.991,0.0,0.0,0.0,96.484,96.484,0.0,0.0,26.438,26.25,0.0,0.0,0.0,0.0,90.0,76.711,0.109,27.438,0x00000000,0x00000000,0x00000000,0.0,1246,1279,8.216,4.144,0.0,0.0,0.144,0.092,0.0,0.0,1.0,0.981,0.981,0.981,0.196,1.0,1.0,0.462,0.584,0.57,24.267,0x00000101,192.168.0.40,8080,255.255.255.0,192.168.0.1,0xFFFFFFFF,0xFFFFFFFF,0xFFFFFFFF,0x00000000,
14.3356740475,0x00000000,0x00000000,0x00000000,0x00000000,0x00000000,0x00000000,0x00000000,0x00000000,88.11,3,0x00000000,96.484,97.647,-0.0,-0.027,-0.017,-0.008,-0.012,-1.555,-0.217,-0.071,0.345,0.756,0x00000003,0.0,0.0,-0.001,-0.0,0.002,-0.001,0.0,0.0,0.0,0.002,-0.0,0.0,0.0,0.001,-0.013,0.712,0.0,0.0,0.712,34.991,34.991,0.0,0.0,0.0,96.484,96.484,0.0,0.0,26.438,26.25,0.0,0.0,0.0,0.0,90.0,76.711,0.109,27.438,0x00000000,0x00000000,0x00000000,0.0,1246,1279,6.12,2.41,0.0,0.0,0.144,0.092,0.0,0.0,1.0,0.981,0.981,0.981,0.196,1.0,1.0,0.462,0.584,0.57,24.267,0x00000101,192.168.0.40,8080,255.255.255.0,192.168.0.1,0xFFFFFFFF,0xFFFFFFFF,0xFFFFFFFF,0x00000000,
15.1769850254,0x00000000,0x00000000,0x00000000,0x00000000,0x00000000,0x00000000,0x00000000,0x00000000,88.95,3,0x00000000,96.484,97.647,0.0,-0.027,-0.004,-0.013,-0.024,-1.571,0.325,-0.038,-0.439,-1.318,0x00000003,0.0,0.0,0.01,0.0,0.003,-0.001,0.002,0.0,0.0,0.002,-0.0,0.0,0.0,0.001,-0.013,0.75,0.0,0.0,0.75,34.991,34.991,0.0,0.0,0.0,96.484,96.484,0.0,0.0,26.375,26.25,0.0,0.0,0.0,0.0,90.0,76.703,0.109,27.438,0x00000000,0x00000000,0x00000000,0.0,1246,1279,7.645,3.427,0.0,0.0,0.145,0.093,0.0,0.0,1.0,0.981,0.981,0.981,0.196,1.0,1.0,0.462,0.584,0.57,24.267,0x00000101,192.168.0.40,8080,255.255.255.0,192.168.0.1,0xFFFFFFFF,0xFFFFFFFF,0xFFFFFFFF,0x00000000,
15.227091074,0x00000000,0x00000000,0x00000000,0x00000000,0x00000000,0x00000000,0x00000000,0x00000000,89.0,3,0x00000000,96.484,97.647,-0.0,-0.028,-0.01,-0.004,-0.018,-1.551,0.425,-0.025,0.316,-0.619,0x00000003,0.0,0.0,-0.01,0.0,0.003,-0.001,0.0,0.0,0.0,0.002,-0.0,0.0,0.0,0.001,-0.025,0.75,0.0,0.0,0.75,34.991,34.991,0.0,0.0,0.0,96.484,96.484,0.0,0.0,26.438,26.25,0.0,0.0,0.0,0.0,90.0,76.703,0.109,27.438,0x00000000,0x00000000,0x00000000,0.0,1246,1279,6.04,7.291,0.0,0.0,0.146,0.093,0.0,0.0,1.0,0.981,0.981,0.981,0.196,1.0,1.0,0.462,0.584,0.57,24.267,0x00000101,192.168.0.40,8080,255.255.255.0,192.168.0.1,0xFFFFFFFF,0xFFFFFFFF,0xFFFFFFFF,0x00000000,
15.2771229744,0x00000000,0x00000000,0x00000000,0x00000000,0x00000000,0x00000000,0x00000000,0x00000000,89.05,3,0x00000000,96.484,97.647,0.0,-0.028,-0.019,-0.013,0.012,-1.557,-0.402,-0.024,-0.395,0.409,0x00000003,0.0,0.0,0.022,0.0,0.003,0.001,0.002,0.0,0.0,0.002,-0.0,0.0,0.0,0.001,-0.013,0.852,0.0,0.0,0.852,34.991,34.991,0.0,0.0,0.0,96.484,96.484,0.0,0.0,26.438,26.25,0.0,0.0,0.0,0.0,90.0,76.703,0.109,27.438,0x00000000,0x00000000,0x00000000,0.0,1246,1279,6.82,2.652,0.0,0.0,0.146,0.093,0.0,0.0,1.0,0.981,0.981,0.981,0.196,1.0,1.0,0.462,0.584,0.57,24.267,0x00000101,192.168.0.40,8080,255.255.255.0,192.168.0.1,0xFFFFFFFF,0xFFFFFFFF,0xFFFFFFFF,0x00000000,
15.3272650242,0x00000000,0x00000000,0x00000000,0x00000000,0x00000000,0x00000000,0x00000000,0x00000000,89.1,3,0x00000000,96.484,97.647,0.0,-0.027,-0.01,-0.021,-0.043,-1.564,-0.172,-0.013,-0.169,-0.632,0x00000003,0.0,0.0,-0.002,0.001,0.002,0.001,0.0,0.0,0.0,0.002,-0.0,0.0,0.0,0.001,-0.229,0.572,0.0,0.0,0.572,34.991,34.991,0.0,0.0,0.0,96.484,96.484,0.0,0.0,26.438,26.25,0.0,0.0,0.0,0.0,90.0,76.703,0.109,27.438,0x00000000,0x00000000,0x00000000,0.0,1246,1279,7.258,3.704,0.0,0.0,0.146,0.093,0.0,0.0,1.0,0.981,0.981,0.981,0.196,1.0,1.0,0.462,0.584,0.57,24.267,0x00000101,192.168.0.40,8080,255.255.255.0,192.168.0.1,0xFFFFFFFF,0xFFFFFFFF,0xFFFFFFFF,0x00000000,
15.3772928715,0x00000000,0x00000000,0x00000000,0x00000000,0x00000000,0x00000000,0x00000000,0x00000000,89.15,3,0x00000000,96.484,97.647,0.0,-0.028,-0.015,-0.021,-0.024,-1.566,0.045,0.006,0.794,-2.016,0x00000003,0.0,0.0,-0.003,0.0,0.002,-0.0,0.001,0.0,0.0,0.002,-0.0,0.0,0.0,0.001,-0.229,0.534,0.0,0.0,0.534,34.991,34.991,0.0,0.0,0.0,96.484,96.484,0.0,0.0,26.438,26.25,0.0,0.0,0.0,0.0,90.0,76.703,0.109,27.438,0x00000000,0x00000000,0x00000000,0.0,1246,1279,8.463,1.13,0.0,0.0,0.146,0.093,0.0,0.0,1.0,0.981,0.981,0.981,0.196,1.0,1.0,0.462,0.584,0.57,24.267,0x00000101,192.168.0.40,8080,255.255.255.0,192.168.0.1,0xFFFFFFFF,0xFFFFFFFF,0xFFFFFFFF,0x00000000,
16.1785759926,0x00000000,0x00000000,0x00000000,0x00000000,0x00000000,0x00000000,0x00000000,0x00000000,89.95,3,0x00000000,96.484,97.647,0.0,-0.028,-0.023,-0.034,-0.006,-1.545,-0.219,0.054,-0.896,0.413,0x00000003,0.0,0.0,-0.006,-0.0,0.002,-0.0,-0.001,0.0,0.0,0.002,-0.0,0.0,0.0,0.001,0.076,0.712,0.0,0.0,0.712,34.991,34.991,0.0,0.0,0.0,96.484,96.484,0.0,0.0,26.438,26.25,0.0,0.0,0.0,0.0,90.0,76.711,0.109,27.438,0x00000000,0x00000000,0x00000000,0.0,1246,1279,5.072,3.795,0.0,0.0,0.147,0.094,0.0,0.0,1.0,0.981,0.981,0.981,0.196,1.0,1.0,0.462,0.584,0.57,24.267,0x00000101,192.168.0.40,8080,255.255.255.0,192.168.0.1,0xFFFFFFFF,0xFFFFFFFF,0xFFFFFFFF,0x00000000,
16.2286839485,0x00000000,0x00000000,0x00000000,0x00000000,0x00000000,0x00000000,0x00000000,0x00000000,90.0,3,0x00000000,96.484,97.647,0.0,-0.028,-0.005,-0.03,-0.006,-1.543,-0.287,0.065,1.817,-0.285,0x00000003,0.0,0.0,0.001,-0.0,0.002,-0.0,0.0,0.0,0.0,0.002,-0.0,0.0,0.0,0.001,0.076,0.75,0.0,0.0,0.75,34.991,34.991,0.0,0.0,0.0,96.484,96.484,0.0,0.0,26.438,26.25,0.0,0.0,0.0,0.0,90.0,76.711,0.109,27.438,0x00000000,0x00000000,0x00000000,0.0,1246,1279,4.959,4.724,0.0,0.0,0.147,0.094,0.0,0.0,1.0,0.981,0.981,0.981,0.196,1.0,1.0,0.462,0.584,0.57,24.267,0x00000101,192.168.0.40,8080,255.255.255.0,192.168.0.1,0xFFFFFFFF,0xFFFFFFFF,0xFFFFFFFF,0x00000000,
16.2787189484,0x00000000,0x00000000,0x00000000,0x00000000,0x00000000,0x00000000,0x00000000,0x00000000,90.05,3,0x00000000,96.484,97.647,-0.0,-0.028,-0.019,-0.034,0.006,-1.533,-0.04,0.055,-0.659,0.072,0x00000003,0.0,0.0,0.01,-0.0,0.001,-0.0,0.001,0.0,0.0,0.002,-0.0,0.0,0.0,0.001,-0.025,0.75,0.0,0.0,0.75,34.991,34.991,0.0,0.0,0.0,96.484,96.484,0.0,0.0,26.375,26.25,0.0,0.0,0.0,0.0,90.0,76.711,0.109,27.438,0x00000000,0x00000000,0x00000000,0.0,1246,1279,7.177,4.584,0.0,0.0,0.147,0.094,0.0,0.0,1.0,0.981,0.981,0.981,0.196,1.0,1.0,0.462,0.584,0.57,24.267,0x00000101,192.168.0.40,8080,255.255.255.0,192.168.0.1,0xFFFFFFFF,0xFFFFFFFF,0xFFFFFFFF,0x00000000,
16.3288378716,0x00000000,0x00000000,0x00000000,0x00000000,0x00000000,0x00000000,0x00000000,0x00000000,90.1,3,0x00000000,96.484,97.647,0.0,-0.027,-0.013,-0.017,0.012,-1.539,0.013,0.044,0.333,0.066,0x00000003,0.0,0.0,0.002,0.0,0.002,-0.0,0.001,0.0,0.0,0.002,-0.0,0.0,0.0,0.001,-0.025,0.75,0.0,0.0,0.75,34.991,34.991,0.0,0.0,0.0,96.484,96.484,0.0,0.0,26.375,26.25,0.0,0.0,0.0,0.0,90.0,76.711,0.109,27.438,0x00000000,0x00000000,0x00000000,0.0,1246,1279,6.056,4.907,0.0,0.0,0.148,0.095,0.0,0.0,1.0,0.981,0.981,0.981,0.196,1.0,1.0,0.462,0.584,0.57,24.267,0x00000101,192.168.0.40,8080,255.255.255.0,192.168.0.1,0xFFFFFFFF,0xFFFFFFFF,0xFFFFFFFF,0x00000000,
16.3788759708,0x00000000,0x00000000,0x00000000,0x00000000,0x00000000,0x00000000,0x00000000,0x00000000,90.15,3,0x00000000,96.484,97.647,-0.0,-0.028,-0.012,-0.008,-0.0,-1.539,0.435,0.032,-0.652,0.764,0x00000003,0.0,0.0,-0.017,0.0,0.002,-0.001,0.0,0.0,0.0,0.002,-0.0,0.0,0.0,0.001,-0.025,0.636,0.0,0.0,0.636,34.991,34.991,0.0,0.0,0.0,96.484,96.484,0.0,0.0,26.438,26.25,0.0,0.0,0.0,0.0,90.0,76.711,0.109,27.438,0x00000000,0x00000000,0x00000000,0.0,1246,1279,4.606,0.73,0.0,0.0,0.148,0.095,0.0,0.0,1.0,0.981,0.981,0.981,0.196,1.0,1.0,0.462,0.584,0.57,24.267,0x00000101,192.168.0.40,8080,255.255.255.0,192.168.0.1,0xFFFFFFFF,0xFFFFFFFF,0xFFFFFFFF,0x00000000,
17.1801688671,0x00000000,0x00000000,0x00000000,0x00000000,0x00000000,0x00000000,0x00000000,0x00000000,90.95,3,0x00000000,96.484,97.647,-0.001,-0.028,-0.014,-0.017,-0.024,-1.607,-0.393,-0.001,0.327,-0.275,0x00000003,0.0,0.0,0.005,-0.0,0.003,-0.001,0.0,0.0,0.0,0.002,-0.0,0.0,0.0,0.001,0.076,0.75,0.0,0.0,0.75,34.991,34.991,0.0,0.0,0.0,96.484,96.484,0.0,0.0,26.375,26.25,0.0,0.0,0.0,0.0,90.0,76.703,0.109,27.438,0x00000000,0x00000000,0x00000000,0.0,1246,1279,6.612,3.144,0.0,0.0,0.149,0.095,0.0,0.0,1.0,0.981,0.981,0.981,0.196,1.0,1.0,0.462,0.584,0.57,24.267,0x00000101,192.168.0.40,8080,255.255.255.0,192.168.0.1,0xFFFFFFFF,0xFFFFFFFF,0xFFFFFFFF,0x00000000,
17.2302720547,0x00000000,0x00000000,0x00000000,0x00000000,0x00000000,0x00000000,0x00000000,0x00000000,91.0,3,0x00000000,96.484,97.647,-0.0,-0.028,-0.008,-0.008,0.006,-1.602,0.112,0.001,0.069,-0.625,0x00000003,0.0,0.0,-0.004,0.0,0.003,-0.001,0.001,0.0,0.0,0.002,-0.0,0.0,0.0,0.001,-1.055,-0.191,0.0,0.0,-1.055,34.991,34.991,0.0,0.0,0.0,96.484,96.484,0.0,0.0,26.375,26.25,0.0,0.0,0.0,0.0,90.0,76.703,0.109,27.438,0x00000000,0x00000000,0x00000000,0.0,1246,1279,7.002,2.477,0.0,0.0,0.149,0.096,0.0,0.0,1.0,0.981,0.981,0.981,0.196,1.0,1.0,0.462,0.584,0.57,24.267,0x00000101,192.168.0.40,8080,255.255.255.0,192.168.0.1,0xFFFFFFFF,0xFFFFFFFF,0xFFFFFFFF,0x00000000,
