Time_stamp,fault_status_word_1,fault_status_word_2,fault_status_word_3,fault_status_word_4,mcu_0_fault_status,mcu_1_fault_status,mcu_2_fault_status,mcu_3_fault_status,operational_time,operational_state,dynamic_response,min_propulsion_batt_soc,aux_batt_soc,inertial_x_acc_g,inertial_y_acc_g,inertial_x_rate_rps,inertial_y_rate_rps,inertial_z_rate_rps,pse_pitch_deg,pse_pitch_rate_dps,pse_roll_deg,pse_roll_rate_dps,pse_yaw_rate_dps,pse_data_is_valid,yaw_rate_limit_rps,vel_limit_mps,linear_accel_mps2,linear_vel_mps,differential_wheel_vel_rps,right_front_vel_mps,left_front_vel_mps,right_rear_vel_mps,left_rear_vel_mps,right_front_pos_m,left_front_pos_m,right_rear_pos_m,left_rear_pos_m,linear_pos_m,right_front_current_A0pk,left_front_current_A0pk,right_rear_current_A0pk,left_rear_current_A0pk,max_motor_current_A0pk,right_front_current_limit_A0pk,left_front_current_limit_A0pk,right_rear_current_limit_A0pk,left_rear_current_limit_A0pk,min_motor_current_limit_A0pk,front_base_batt_1_soc,front_base_batt_2_soc,rear_base_batt_1_soc,rear_base_batt_2_soc,front_base_batt_1_temp_degC,front_base_batt_2_temp_degC,rear_base_batt_1_temp_degC,rear_base_batt_2_temp_degC,vel_target_mps,yaw_rate_target_rps,angle_target_deg,aux_batt_voltage_V,aux_batt_current_A,aux_batt_temp_degC,abb_system_status,aux_batt_status,aux_batt_faults,7p2V_battery_voltage,ccu_sp_sw_build_id,ccu_uip_sw_build_id,mcu_0_inst_power_W,mcu_1_inst_power_W,mcu_2_inst_power_W,mcu_3_inst_power_W,mcu_0_total_energy_Wh,mcu_1_total_energy_Wh,mcu_2_total_energy_Wh,mcu_3_total_energy_Wh,fram_vel_limit_mps,fram_accel_limit_mps2,fram_decel_limit_mps2,fram_dtz_decel_limit_mps2,fram_coastdown_decel_mps2,fram_yaw_rate_limit_rps,fram_yaw_accel_limit_rps2,fram_tire_diameter_m,fram_wheelbase_length_m,fram_wheel_track_width_m,fram_transmission_ratio,fram_config_bitmap,fram_eth_ip_address,fram_eth_port_number,fram_eth_subnet_mask,fram_eth_gateway,user_feedback_bitmap_1,user_feedback_bitmap_2,user_feedback_bitmap_3,user_feedback_bitmap_4,
0.0761590003967,0x00000000,0x00000000,0x00000000,0x00000000,0x00000000,0x00000000,0x00000000,0x00000000,39.49,3,0x00000000,96.875,98.039,0.005,0.012,-0.031,-0.025,-0.031,0.689,0.307,0.302,-0.403,0.219,0x00000003,0.0,0.0,-0.005,0.0,0.003,-0.0,0.0,0.0,0.0,0.016,0.031,0.0,0.0,0.024,0.331,-0.203,0.0,0.0,0.331,34.991,34.991,0.0,0.0,0.0,97.266,96.875,0.0,0.0,26.25,26.125,0.0,0.0,0.0,0.0,90.0,76.758,0.109,27.188,0x00000000,0x00000000,0x00000000,0.0,1246,1279,4.423,3.832,0.0,0.0,0.031,0.033,0.0,0.0,1.0,0.981,0.981,0.981,0.196,1.0,1.0,0.462,0.584,0.57,24.267,0x00000101,192.168.0.40,8080,255.255.255.0,192.168.0.1,0xFFFFFFFF,0xFFFFFFFF,0xFFFFFFFF,0x00000000,
0.126164913177,0x00000000,0x00000000,0x00000000,0x00000000,0x00000000,0x00000000,0x00000000,0x00000000,39.54,4,0x00000000,96.875,98.039,0.003,0.012,-0.013,-0.013,-0.018,0.683,0.273,0.3,0.587,0.225,0x00000003,0.01,0.01,-0.001,0.0,0.002,-0.0,0.001,0.0,0.0,0.016,0.031,0.0,0.0,0.024,0.331,0.0,0.0,0.0,0.331,34.991,34.991,0.0,0.0,0.0,97.266,96.875,0.0,0.0,26.25,26.125,0.0,0.0,0.0,0.0,90.0,76.758,0.109,27.188,0x00000000,0x00000000,0x00000000,0.0,1246,1279,1.898,4.56,0.0,0.0,0.031,0.033,0.0,0.0,1.0,0.981,0.981,0.981,0.196,1.0,1.0,0.462,0.584,0.57,24.267,0x00000101,192.168.0.40,8080,255.255.255.0,192.168.0.1,0xFFFFFFFF,0xFFFFFFFF,0xFFFFFFFF,0x00000000,
0.176198959351,0x00000000,0x00000000,0x00000000,0x00000000,0x00000000,0x00000000,0x00000000,0x00000000,39.59,4,0x00000000,96.875,98.039,0.005,0.013,-0.016,-0.008,0.006,0.678,-0.685,0.311,0.098,0.556,0x00000003,0.06,0.059,0.001,0.0,0.002,-0.0,0.001,0.0,0.0,0.016,0.031,0.0,0.0,0.024,0.75,0.331,0.0,0.0,0.75,34.991,34.991,0.0,0.0,0.0,97.266,96.875,0.0,0.0,26.25,26.125,0.0,0.0,0.0,0.01,90.0,76.758,0.109,27.188,0x00000000,0x00000000,0x00000000,0.0,1246,1279,3.462,1.724,0.0,0.0,0.031,0.033,0.0,0.0,1.0,0.981,0.981,0.981,0.196,1.0,1.0,0.462,0.584,0.57,24.267,0x00000101,192.168.0.40,8080,255.255.255.0,192.168.0.1,0xFFFFFFFF,0xFFFFFFFF,0xFFFFFFFF,0x00000000,
0.226272821426,0x00000000,0x00000000,0x00000000,0x00000000,0x00000000,0x00000000,0x00000000,0x00000000,39.64,4,0x00000000,96.875,98.039,0.006,0.013,-0.005,-0.03,0.006,0.698,0.353,0.316,0.079,0.911,0x00000003,0.11,0.108,0.009,0.0,0.002,-0.0,0.001,0.0,0.0,0.016,0.031,0.0,0.0,0.024,-0.178,1.666,0.0,0.0,1.666,34.991,34.991,0.0,0.0,0.0,97.266,96.875,0.0,0.0,26.25,26.125,0.0,0.0,0.0,0.06,90.0,76.758,0.109,27.188,0x00000000,0x00000000,0x00000000,0.0,1246,1279,2.312,6.596,0.0,0.0,0.032,0.034,0.0,0.0,1.0,0.981,0.981,0.981,0.196,1.0,1.0,0.462,0.584,0.57,24.267,0x00000101,192.168.0.40,8080,255.255.255.0,192.168.0.1,0xFFFFFFFF,0xFFFFFFFF,0xFFFFFFFF,0x00000000,
0.276345014572,0x00000000,0x00000000,0x00000000,0x00000000,0x00000000,0x00000000,0x00000000,0x00000000,39.69,4,0x00000000,96.875,98.039,0.005,0.016,-0.02,-0.004,-0.007,0.714,0.053,0.299,0.334,0.569,0x00000003,0.16,0.157,0.072,0.001,0.008,-0.004,0.014,0.0,0.0,0.016,0.031,0.0,0.0,0.024,-0.992,1.119,0.0,0.0,1.119,34.991,34.991,0.0,0.0,0.0,97.266,96.875,0.0,0.0,26.25,26.125,0.0,0.0,0.0,0.11,90.0,76.758,0.109,27.188,0x00000000,0x00000000,0x00000000,0.0,1246,1279,4.494,1.778,0.0,0.0,0.032,0.034,0.0,0.0,1.0,0.981,0.981,0.981,0.196,1.0,1.0,0.462,0.584,0.57,24.267,0x00000101,192.168.0.40,8080,255.255.255.0,192.168.0.1,0xFFFFFFFF,0xFFFFFFFF,0xFFFFFFFF,0x00000000,
0.326433897018,0x00000000,0x00000000,0x00000000,0x00000000,0x00000000,0x00000000,0x00000000,0x00000000,39.74,4,0x00000000,96.875,98.039,0.003,0.016,-0.014,-0.03,0.018,0.724,0.015,0.308,0.6,-0.126,0x00000003,0.21,0.206,0.091,0.008,0.081,-0.036,0.06,0.0,0.0,0.015,0.033,0.0,0.0,0.024,-1.602,1.386,0.0,0.0,-1.602,34.991,34.991,0.0,0.0,0.0,97.266,96.875,0.0,0.0,26.25,26.125,0.0,0.0,0.0,0.16,90.0,76.758,0.109,27.188,0x00000000,0x00000000,0x00000000,0.0,1246,1279,4.758,4.64,0.0,0.0,0.032,0.034,0.0,0.0,1.0,0.981,0.981,0.981,0.196,1.0,1.0,0.462,0.584,0.57,24.267,0x00000101,192.168.0.40,8080,255.255.255.0,192.168.0.1,0xFFFFFFFF,0xFFFFFFFF,0xFFFFFFFF,0x00000000,
0.376492023468,0x00000000,0x00000000,0x00000000,0x00000000,0x00000000,0x00000000,0x00000000,0x00000000,39.79,4,0x00000000,96.875,98.039,0.006,0.012,-0.019,-0.004,-0.012,0.712,-0.435,0.28,-0.385,-0.11,0x00000003,0.26,0.255,-0.048,0.006,0.169,-0.061,0.069,0.0,0.0,0.012,0.036,0.0,0.0,0.024,-0.89,0.941,0.0,0.0,0.941,34.991,34.991,0.0,0.0,0.0,97.266,96.875,0.0,0.0,26.25,26.125,0.0,0.0,0.0,0.196,90.0,76.75,0.109,27.188,0x00000000,0x00000000,0x00000000,0.0,1246,1279,2.03,2.537,0.0,0.0,0.032,0.034,0.0,0.0,1.0,0.981,0.981,0.981,0.196,1.0,1.0,0.462,0.584,0.57,24.267,0x00000101,192.168.0.40,8080,255.255.255.0,192.168.0.1,0xFFFFFFFF,0xFFFFFFFF,0xFFFFFFFF,0x00000000,
0.42658996582,0x00000000,0x00000000,0x00000000,0x00000000,0x00000000,0x00000000,0x00000000,0x00000000,39.84,4,0x00000000,96.875,98.039,0.005,0.011,-0.018,-0.008,-0.007,0.713,0.104,0.278,0.35,-0.066,0x00000003,0.31,0.304,-0.091,0.003,0.214,-0.07,0.067,0.0,0.0,0.009,0.04,0.0,0.0,0.024,-0.331,0.331,0.0,0.0,-0.331,34.991,34.991,0.0,0.0,0.0,97.266,96.875,0.0,0.0,26.25,26.125,0.0,0.0,0.0,0.199,90.0,76.75,0.109,27.188,0x00000000,0x00000000,0x00000000,0.0,1246,1279,3.126,5.361,0.0,0.0,0.032,0.034,0.0,0.0,1.0,0.981,0.981,0.981,0.196,1.0,1.0,0.462,0.584,0.57,24.267,0x00000101,192.168.0.40,8080,255.255.255.0,192.168.0.1,0xFFFFFFFF,0xFFFFFFFF,0xFFFFFFFF,0x00000000,
0.476670026779,0x00000000,0x00000000,0x00000000,0x00000000,0x00000000,0x00000000,0x00000000,0x00000000,39.89,4,0x00000000,96.875,98.039,0.004,0.011,-0.01,-0.008,-0.012,0.707,0.09,0.29,-0.175,1.358,0x00000003,0.36,0.353,0.027,0.001,0.214,-0.055,0.061,0.0,0.0,0.006,0.043,0.0,0.0,0.024,-0.826,0.559,0.0,0.0,-0.826,34.991,34.991,0.0,0.0,0.0,97.266,96.875,0.0,0.0,26.25,26.125,0.0,0.0,0.0,0.199,90.0,76.75,0.109,27.188,0x00000000,0x00000000,0x00000000,0.0,1246,1279,4.357,1.602,0.0,0.0,0.032,0.034,0.0,0.0,1.0,0.981,0.981,0.981,0.196,1.0,1.0,0.462,0.584,0.57,24.267,0x00000101,192.168.0.40,8080,255.255.255.0,192.168.0.1,0xFFFFFFFF,0xFFFFFFFF,0xFFFFFFFF,0x00000000,
0.526736974716,0x00000000,0x00000000,0x00000000,0x00000000,0x00000000,0x00000000,0x00000000,0x00000000,39.94,4,0x00000000,96.875,98.039,0.004,0.013,-0.005,-0.008,-0.012,0.739,0.01,0.288,1.079,0.699,0x00000003,0.41,0.402,-0.115,0.002,0.2,-0.059,0.053,0.0,0.0,0.004,0.045,0.0,0.0,0.024,-0.89,0.737,0.0,0.0,-0.89,34.991,34.991,0.0,0.0,0.0,97.266,96.875,0.0,0.0,26.25,26.125,0.0,0.0,0.0,0.2,90.0,76.75,0.109,27.188,0x00000000,0x00000000,0x00000000,0.0,1246,1279,1.339,4.461,0.0,0.0,0.032,0.034,0.0,0.0,1.0,0.981,0.981,0.981,0.196,1.0,1.0,0.462,0.584,0.57,24.267,0x00000101,192.168.0.40,8080,255.255.255.0,192.168.0.1,0xFFFFFFFF,0xFFFFFFFF,0xFFFFFFFF,0x00000000,
0.576831817627,0x00000000,0x00000000,0x00000000,0x00000000,0x00000000,0x00000000,0x00000000,0x00000000,39.99,4,0x00000000,96.875,98.039,0.005,0.016,-0.011,-0.013,-0.012,0.734,0.21,0.286,0.341,0.39,0x00000003,0.46,0.451,-0.152,-0.004,0.194,-0.065,0.042,0.0,0.0,0.001,0.047,0.0,0.0,0.024,-1.017,0.903,0.0,0.0,-1.017,34.991,34.991,0.0,0.0,0.0,97.266,96.875,0.0,0.0,26.25,26.125,0.0,0.0,0.0,0.2,90.0,76.75,0.109,27.188,0x00000000,0x00000000,0x00000000,0.0,1246,1279,2.396,2.356,0.0,0.0,0.032,0.034,0.0,0.0,1.0,0.981,0.981,0.981,0.196,1.0,1.0,0.462,0.584,0.57,24.267,0x00000101,192.168.0.40,8080,255.255.255.0,192.168.0.1,0xFFFFFFFF,0xFFFFFFFF,0xFFFFFFFF,0x00000000,
0.626899957657,0x00000000,0x00000000,0x00000000,0x00000000,0x00000000,0x00000000,0x00000000,0x00000000,40.04,4,0x00000000,96.875,98.039,0.004,0.014,-0.031,-0.017,0.006,0.711,-0.214,0.276,-0.67,1.468,0x00000003,0.51,0.5,0.047,-0.009,0.194,-0.064,0.051,0.0,0.0,-0.002,0.049,0.0,0.0,0.023,-0.776,0.521,0.0,0.0,-0.776,34.991,34.991,0.0,0.0,0.0,97.266,96.875,0.0,0.0,26.25,26.125,0.0,0.0,0.0,0.2,90.0,76.75,0.109,27.188,0x00000000,0x00000000,0x00000000,0.0,1246,1279,4.676,2.446,0.0,0.0,0.032,0.034,0.0,0.0,1.0,0.981,0.981,0.981,0.196,1.0,1.0,0.462,0.584,0.57,24.267,0x00000101,192.168.0.40,8080,255.255.255.0,192.168.0.1,0xFFFFFFFF,0xFFFFFFFF,0xFFFFFFFF,0x00000000,
0.67699098587,0x00000000,0x00000000,0x00000000,0x00000000,0x00000000,0x00000000,0x00000000,0x00000000,40.09,4,0x00000000,96.875,98.039,0.004,0.012,-0.012,-0.03,-0.024,0.706,-0.138,0.28,-0.413,1.148,0x00000003,0.56,0.549,0.027,-0.005,0.201,-0.061,0.053,0.0,0.0,-0.005,0.052,0.0,0.0,0.023,-1.284,0.661,0.0,0.0,-1.284,34.991,34.991,0.0,0.0,0.0,97.266,96.875,0.0,0.0,26.25,26.125,0.0,0.0,0.0,0.2,90.0,76.75,0.109,27.188,0x00000000,0x00000000,0x00000000,0.0,1246,1279,4.771,8.622,0.0,0.0,0.032,0.034,0.0,0.0,1.0,0.981,0.981,0.981,0.196,1.0,1.0,0.462,0.584,0.57,24.267,0x00000101,192.168.0.40,8080,255.255.255.0,192.168.0.1,0xFFFFFFFF,0xFFFFFFFF,0xFFFFFFFF,0x00000000,
0.727062940598,0x00000000,0x00000000,0x00000000,0x00000000,0x00000000,0x00000000,0x00000000,0x00000000,40.14,4,0x00000000,96.875,98.039,0.006,0.01,-0.008,-0.026,0.012,0.707,-0.019,0.26,-0.406,0.837,0x00000003,0.61,0.598,-0.003,-0.006,0.203,-0.064,0.051,0.0,0.0,-0.008,0.054,0.0,0.0,0.023,-0.636,0.432,0.0,0.0,-0.636,34.991,34.991,0.0,0.0,0.0,97.266,96.875,0.0,0.0,26.25,26.125,0.0,0.0,0.0,0.2,90.0,76.75,0.109,27.188,0x00000000,0x00000000,0x00000000,0.0,1246,1279,4.781,4.609,0.0,0.0,0.032,0.034,0.0,0.0,1.0,0.981,0.981,0.981,0.196,1.0,1.0,0.462,0.584,0.57,24.267,0x00000101,192.168.0.40,8080,255.255.255.0,192.168.0.1,0xFFFFFFFF,0xFFFFFFFF,0xFFFFFFFF,0x00000000,
0.777148008347,0x00000000,0x00000000,0x00000000,0x00000000,0x00000000,0x00000000,0x00000000,0x00000000,40.19,4,0x00000000,96.875,98.039,0.005,0.013,-0.018,0.005,0.006,0.71,0.641,0.272,0.335,0.534,0x00000003,0.66,0.647,-0.001,-0.007,0.207,-0.067,0.053,0.0,0.0,-0.011,0.056,0.0,0.0,0.023,-0.165,0.509,0.0,0.0,0.509,34.991,34.991,0.0,0.0,0.0,97.266,96.875,0.0,0.0,26.25,26.125,0.0,0.0,0.0,0.2,90.0,76.75,0.109,27.188,0x00000000,0x00000000,0x00000000,0.0,1246,1279,4.442,4.435,0.0,0.0,0.032,0.034,0.0,0.0,1.0,0.981,0.981,0.981,0.196,1.0,1.0,0.462,0.584,0.57,24.267,0x00000101,192.168.0.40,8080,255.255.255.0,192.168.0.1,0xFFFFFFFF,0xFFFFFFFF,0xFFFFFFFF,0x00000000,
0.827214956284,0x00000000,0x00000000,0x00000000,0x00000000,0x00000000,0x00000000,0x00000000,0x00000000,40.24,4,0x00000000,96.875,98.039,0.003,0.014,-0.006,-0.026,-0.012,0.715,-0.406,0.277,-0.651,0.909,0x00000003,0.71,0.697,0.068,-0.006,0.188,-0.045,0.039,0.0,0.0,-0.013,0.058,0.0,0.0,0.023,-0.928,0.928,0.0,0.0,-0.928,34.991,34.991,0.0,0.0,0.0,97.266,96.875,0.0,0.0,26.25,26.125,0.0,0.0,0.0,0.2,90.0,76.75,0.109,27.188,0x00000000,0x00000000,0x00000000,0.0,1246,1279,3.572,4.766,0.0,0.0,0.032,0.034,0.0,0.0,1.0,0.981,0.981,0.981,0.196,1.0,1.0,0.462,0.584,0.57,24.267,0x00000101,192.168.0.40,8080,255.255.255.0,192.168.0.1,0xFFFFFFFF,0xFFFFFFFF,0xFFFFFFFF,0x00000000,
0.877306938171,0x00000000,0x00000000,0x00000000,0x00000000,0x00000000,0x00000000,0x00000000,0x00000000,40.29,4,0x00000000,96.875,98.039,0.004,0.014,-0.019,-0.021,-0.0,0.731,-0.416,0.271,0.366,-0.109,0x00000003,0.76,0.746,0.123,0.001,0.177,-0.045,0.059,0.0,0.0,-0.015,0.061,0.0,0.0,0.023,-1.271,0.712,0.0,0.0,-1.271,34.991,34.991,0.0,0.0,0.0,97.266,96.875,0.0,0.0,26.25,26.125,0.0,0.0,0.0,0.2,90.0,76.75,0.109,27.188,0x00000000,0x00000000,0x00000000,0.0,1246,1279,1.522,4.766,0.0,0.0,0.032,0.034,0.0,0.0,1.0,0.981,0.981,0.981,0.196,1.0,1.0,0.462,0.584,0.57,24.267,0x00000101,192.168.0.40,8080,255.255.255.0,192.168.0.1,0xFFFFFFFF,0xFFFFFFFF,0xFFFFFFFF,0x00000000,
0.927373886108,0x00000000,0x00000000,0x00000000,0x00000000,0x00000000,0x00000000,0x00000000,0x00000000,40.34,4,0x00000000,96.875,98.039,0.005,0.011,-0.026,-0.004,-0.013,0.73,0.004,0.278,0.6,0.279,0x00000003,0.81,0.795,0.068,0.003,0.202,-0.058,0.071,0.0,0.0,-0.018,0.064,0.0,0.0,0.023,-0.699,0.636,0.0,0.0,-0.699,34.991,34.991,0.0,0.0,0.0,97.266,96.875,0.0,0.0,26.25,26.125,0.0,0.0,0.0,0.2,90.0,76.75,0.109,27.188,0x00000000,0x00000000,0x00000000,0.0,1246,1279,4.454,2.549,0.0,0.0,0.032,0.034,0.0,0.0,1.0,0.981,0.981,0.981,0.196,1.0,1.0,0.462,0.584,0.57,24.267,0x00000101,192.168.0.40,8080,255.255.255.0,192.168.0.1,0xFFFFFFFF,0xFFFFFFFF,0xFFFFFFFF,0x00000000,
0.977463006973,0x00000000,0x00000000,0x00000000,0x00000000,0x00000000,0x00000000,0x00000000,0x00000000,40.39,4,0x00000000,96.875,98.039,0.005,0.012,-0.008,-0.017,0.006,0.739,0.065,0.291,0.827,1.014,0x00000003,0.86,0.844,0.071,0.007,0.198,-0.045,0.065,0.0,0.0,-0.02,0.067,0.0,0.0,0.023,-0.763,0.598,0.0,0.0,-0.763,34.991,34.991,0.0,0.0,0.0,97.266,96.875,0.0,0.0,26.25,26.125,0.0,0.0,0.0,0.2,90.0,76.75,0.109,27.188,0x00000000,0x00000000,0x00000000,0.0,1246,1279,0.71,4.685,0.0,0.0,0.032,0.034,0.0,0.0,1.0,0.981,0.981,0.981,0.196,1.0,1.0,0.462,0.584,0.57,24.267,0x00000101,192.168.0.40,8080,255.255.255.0,192.168.0.1,0xFFFFFFFF,0xFFFFFFFF,0xFFFFFFFF,0x00000000,
1.02752900124,0x00000000,0x00000000,0x00000000,0x00000000,0x00000000,0x00000000,0x00000000,0x00000000,40.44,4,0x00000000,96.875,98.039,0.005,0.012,-0.005,-0.009,0.012,0.745,-0.364,0.282,-0.381,0.002,0x00000003,0.91,0.893,-0.081,0.004,0.205,-0.06,0.061,0.0,0.0,-0.022,0.07,0.0,0.0,0.024,-0.687,0.547,0.0,0.0,-0.687,34.991,34.991,0.0,0.0,0.0,97.266,96.875,0.0,0.0,26.25,26.125,0.0,0.0,0.0,0.2,90.0,76.75,0.109,27.188,0x00000000,0x00000000,0x00000000,0.0,1246,1279,2.187,4.777,0.0,0.0,0.032,0.034,0.0,0.0,1.0,0.981,0.981,0.981,0.196,1.0,1.0,0.462,0.584,0.57,24.267,0x00000101,192.168.0.40,8080,255.255.255.0,192.168.0.1,0xFFFFFFFF,0xFFFFFFFF,0xFFFFFFFF,0x00000000,
1.07762002945,0x00000000,0x00000000,0x00000000,0x00000000,0x00000000,0x00000000,0x00000000,0x00000000,40.49,4,0x00000000,96.875,98.039,0.004,0.014,-0.018,-0.013,0.006,0.756,-0.105,0.294,0.322,1.766,0x00000003,0.96,0.942,-0.004,0.003,0.198,-0.055,0.061,0.0,0.0,-0.025,0.072,0.0,0.0,0.024,-1.157,0.687,0.0,0.0,-1.157,34.991,34.991,0.0,0.0,0.0,97.266,96.875,0.0,0.0,26.25,26.125,0.0,0.0,0.0,0.2,90.0,76.75,0.109,27.188,0x00000000,0x00000000,0x00000000,0.0,1246,1279,4.474,4.781,0.0,0.0,0.032,0.035,0.0,0.0,1.0,0.981,0.981,0.981,0.196,1.0,1.0,0.462,0.584,0.57,24.267,0x00000101,192.168.0.40,8080,255.255.255.0,192.168.0.1,0xFFFFFFFF,0xFFFFFFFF,0xFFFFFFFF,0x00000000,
1.12768983841,0x00000000,0x00000000,0x00000000,0x00000000,0x00000000,0x00000000,0x00000000,0x00000000,40.54,4,0x00000000,96.875,98.039,0.004,0.015,-0.006,-0.004,-0.006,0.768,0.442,0.286,0.324,1.126,0x00000003,1.0,0.991,-0.02,0.001,0.203,-0.057,0.057,0.0,0.0,-0.028,0.075,0.0,0.0,0.024,-0.979,0.636,0.0,0.0,-0.979,34.991,34.991,0.0,0.0,0.0,97.266,96.875,0.0,0.0,26.25,26.125,0.0,0.0,0.0,0.2,90.0,76.75,0.109,27.188,0x00000000,0x00000000,0x00000000,0.0,1246,1279,3.229,4.781,0.0,0.0,0.032,0.035,0.0,0.0,1.0,0.981,0.981,0.981,0.196,1.0,1.0,0.462,0.584,0.57,24.267,0x00000101,192.168.0.40,8080,255.255.255.0,192.168.0.1,0xFFFFFFFF,0xFFFFFFFF,0xFFFFFFFF,0x00000000,
1.17778396606,0x00000000,0x00000000,0x00000000,0x00000000,0x00000000,0x00000000,0x00000000,0x00000000,40.59,4,0x00000000,96.875,98.039,0.004,0.014,-0.018,-0.012,-0.015,0.759,-0.016,0.285,-0.145,0.449,0x00000003,1.0,1.0,-0.181,-0.003,0.179,-0.06,0.036,0.0,0.0,-0.03,0.077,0.0,0.0,0.023,-0.826,0.915,0.0,0.0,0.915,34.991,34.991,0.0,0.0,0.0,97.266,96.875,0.0,0.0,26.25,26.125,0.0,0.0,0.0,0.2,90.0,76.75,0.109,27.188,0x00000000,0x00000000,0x00000000,0.0,1246,1279,4.066,4.146,0.0,0.0,0.032,0.035,0.0,0.0,1.0,0.981,0.981,0.981,0.196,1.0,1.0,0.462,0.584,0.57,24.267,0x00000101,192.168.0.40,8080,255.255.255.0,192.168.0.1,0xFFFFFFFF,0xFFFFFFFF,0xFFFFFFFF,0x00000000,
1.227850914,0x00000000,0x00000000,0x00000000,0x00000000,0x00000000,0x00000000,0x00000000,0x00000000,40.64,4,0x00000000,96.875,98.039,0.005,0.013,-0.013,-0.019,-0.018,0.734,-0.368,0.298,0.474,0.65,0x00000003,1.0,1.0,0.009,-0.006,0.183,-0.066,0.054,0.0,0.0,-0.033,0.079,0.0,0.0,0.023,-1.208,0.623,0.0,0.0,-1.208,34.991,34.991,0.0,0.0,0.0,97.266,96.875,0.0,0.0,26.25,26.125,0.0,0.0,0.0,0.2,90.0,76.75,0.109,27.188,0x00000000,0x00000000,0x00000000,0.0,1246,1279,4.398,4.741,0.0,0.0,0.033,0.035,0.0,0.0,1.0,0.981,0.981,0.981,0.196,1.0,1.0,0.462,0.584,0.57,24.267,0x00000101,192.168.0.40,8080,255.255.255.0,192.168.0.1,0xFFFFFFFF,0xFFFFFFFF,0xFFFFFFFF,0x00000000,
1.27794194221,0x00000000,0x00000000,0x00000000,0x00000000,0x00000000,0x00000000,0x00000000,0x00000000,40.69,4,0x00000000,96.875,98.039,0.005,0.011,-0.01,-0.008,-0.015,0.728,0.081,0.296,0.612,-0.179,0x00000003,1.0,1.0,-0.059,-0.008,0.204,-0.071,0.048,0.0,0.0,-0.036,0.081,0.0,0.0,0.023,-0.42,0.814,0.0,0.0,0.814,34.991,34.991,0.0,0.0,0.0,97.266,96.875,0.0,0.0,26.25,26.125,0.0,0.0,0.0,0.2,90.0,76.75,0.109,27.188,0x00000000,0x00000000,0x00000000,0.0,1246,1279,4.75,2.204,0.0,0.0,0.033,0.035,0.0,0.0,1.0,0.981,0.981,0.981,0.196,1.0,1.0,0.462,0.584,0.57,24.267,0x00000101,192.168.0.40,8080,255.255.255.0,192.168.0.1,0xFFFFFFFF,0xFFFFFFFF,0xFFFFFFFF,0x00000000,
1.32800793648,0x00000000,0x00000000,0x00000000,0x00000000,0x00000000,0x00000000,0x00000000,0x00000000,40.74,4,0x00000000,96.875,98.039,0.004,0.013,-0.008,-0.021,0.003,0.735,-0.37,0.292,-0.411,1.583,0x00000003,1.0,1.0,0.032,-0.008,0.201,-0.064,0.051,0.0,0.0,-0.039,0.083,0.0,0.0,0.023,-0.75,0.432,0.0,0.0,-0.75,34.991,34.991,0.0,0.0,0.0,97.266,96.875,0.0,0.0,26.25,26.125,0.0,0.0,0.0,0.2,90.0,76.75,0.109,27.188,0x00000000,0x00000000,0x00000000,0.0,1246,1279,3.579,1.799,0.0,0.0,0.033,0.035,0.0,0.0,1.0,0.981,0.981,0.981,0.196,1.0,1.0,0.462,0.584,0.57,24.267,0x00000101,192.168.0.40,8080,255.255.255.0,192.168.0.1,0xFFFFFFFF,0xFFFFFFFF,0xFFFFFFFF,0x00000000,
1.37809896469,0x00000000,0x00000000,0x00000000,0x00000000,0x00000000,0x00000000,0x00000000,0x00000000,40.79,4,0x00000000,96.875,98.039,0.004,0.013,-0.019,-0.004,-0.006,0.756,0.144,0.279,0.21,1.108,0x00000003,1.0,1.0,0.035,-0.006,0.2,-0.058,0.05,0.0,0.0,-0.042,0.086,0.0,0.0,0.023,-0.788,0.61,0.0,0.0,-0.788,34.991,34.991,0.0,0.0,0.0,97.266,96.875,0.0,0.0,26.25,26.125,0.0,0.0,0.0,0.2,90.0,76.758,0.109,27.188,0x00000000,0x00000000,0x00000000,0.0,1246,1279,4.534,4.637,0.0,0.0,0.033,0.035,0.0,0.0,1.0,0.981,0.981,0.981,0.196,1.0,1.0,0.462,0.584,0.57,24.267,0x00000101,192.168.0.40,8080,255.255.255.0,192.168.0.1,0xFFFFFFFF,0xFFFFFFFF,0xFFFFFFFF,0x00000000,
1.42816996574,0x00000000,0x00000000,0x00000000,0x00000000,0x00000000,0x00000000,0x00000000,0x00000000,40.84,4,0x00000000,96.875,98.039,0.005,0.013,-0.016,-0.015,-0.018,0.749,-0.437,0.285,0.111,0.437,0x00000003,1.0,1.0,0.113,-0.003,0.176,-0.043,0.047,0.0,0.0,-0.044,0.088,0.0,0.0,0.023,-1.297,0.915,0.0,0.0,-1.297,34.991,34.991,0.0,0.0,0.0,97.266,96.875,0.0,0.0,26.25,26.125,0.0,0.0,0.0,0.2,90.0,76.758,0.109,27.188,0x00000000,0x00000000,0x00000000,0.0,1246,1279,3.605,9.207,0.0,0.0,0.033,0.035,0.0,0.0,1.0,0.981,0.981,0.981,0.196,1.0,1.0,0.462,0.584,0.57,24.267,0x00000101,192.168.0.40,8080,255.255.255.0,192.168.0.1,0xFFFFFFFF,0xFFFFFFFF,0xFFFFFFFF,0x00000000,
1.47826480865,0x00000000,0x00000000,0x00000000,0x00000000,0x00000000,0x00000000,0x00000000,0x00000000,40.89,4,0x00000000,96.875,98.039,0.004,0.012,-0.014,-0.019,-0.025,0.761,-0.427,0.29,0.109,0.635,0x00000003,1.0,1.0,0.042,0.0,0.189,-0.058,0.063,0.0,0.0,-0.046,0.09,0.0,0.0,0.023,-0.89,1.17,0.0,0.0,1.17,34.991,34.991,0.0,0.0,0.0,97.266,96.875,0.0,0.0,26.25,26.125,0.0,0.0,0.0,0.2,90.0,76.758,0.109,27.188,0x00000000,0x00000000,0x00000000,0.0,1246,1279,4.378,4.325,0.0,0.0,0.033,0.035,0.0,0.0,1.0,0.981,0.981,0.981,0.196,1.0,1.0,0.462,0.584,0.57,24.267,0x00000101,192.168.0.40,8080,255.255.255.0,192.168.0.1,0xFFFFFFFF,0xFFFFFFFF,0xFFFFFFFF,0x00000000,
1.52832388878,0x00000000,0x00000000,0x00000000,0x00000000,0x00000000,0x00000000,0x00000000,0x00000000,40.94,4,0x00000000,96.875,98.039,0.005,0.013,-0.015,-0.01,-0.024,0.782,0.32,0.277,0.234,-0.006,0x00000003,1.0,1.0,0.101,0.005,0.203,-0.047,0.066,0.0,0.0,-0.049,0.094,0.0,0.0,0.023,-0.979,0.521,0.0,0.0,-0.979,34.991,34.991,0.0,0.0,0.0,97.266,96.875,0.0,0.0,26.25,26.125,0.0,0.0,0.0,0.2,90.0,76.758,0.109,27.188,0x00000000,0x00000000,0x00000000,0.0,1246,1279,3.598,4.747,0.0,0.0,0.033,0.035,0.0,0.0,1.0,0.981,0.981,0.981,0.196,1.0,1.0,0.462,0.584,0.57,24.267,0x00000101,192.168.0.40,8080,255.255.255.0,192.168.0.1,0xFFFFFFFF,0xFFFFFFFF,0xFFFFFFFF,0x00000000,
1.57841897011,0x00000000,0x00000000,0x00000000,0x00000000,0x00000000,0x00000000,0x00000000,0x00000000,40.99,4,0x00000000,96.875,98.039,0.004,0.012,-0.016,-0.017,-0.003,0.787,0.112,0.285,0.085,1.406,0x00000003,1.0,1.0,0.037,0.007,0.206,-0.055,0.073,0.0,0.0,-0.051,0.097,0.0,0.0,0.023,-0.801,0.559,0.0,0.0,-0.801,34.991,34.991,0.0,0.0,0.0,97.266,96.875,0.0,0.0,26.25,26.125,0.0,0.0,0.0,0.19,90.0,76.758,0.109,27.188,0x00000000,0x00000000,0x00000000,0.0,1246,1279,2.559,3.579,0.0,0.0,0.033,0.035,0.0,0.0,1.0,0.981,0.981,0.981,0.196,1.0,1.0,0.462,0.584,0.57,24.267,0x00000101,192.168.0.40,8080,255.255.255.0,192.168.0.1,0xFFFFFFFF,0xFFFFFFFF,0xFFFFFFFF,0x00000000,
1.62848496437,0x00000000,0x00000000,0x00000000,0x00000000,0x00000000,0x00000000,0x00000000,0x00000000,41.04,4,0x00000000,96.875,98.039,0.004,0.013,-0.023,-0.008,-0.006,0.781,0.23,0.274,0.084,1.441,0x00000003,1.0,1.0,0.152,0.008,0.193,-0.026,0.057,0.0,0.0,-0.053,0.099,0.0,0.0,0.023,-0.954,0.343,0.0,0.0,-0.954,34.991,34.991,0.0,0.0,0.0,97.266,96.875,0.0,0.0,26.25,26.125,0.0,0.0,0.0,0.14,90.0,76.758,0.109,27.188,0x00000000,0x00000000,0x00000000,0.0,1246,1279,4.038,8.528,0.0,0.0,0.033,0.035,0.0,0.0,1.0,0.981,0.981,0.981,0.196,1.0,1.0,0.462,0.584,0.57,24.267,0x00000101,192.168.0.40,8080,255.255.255.0,192.168.0.1,0xFFFFFFFF,0xFFFFFFFF,0xFFFFFFFF,0x00000000,
1.67857980728,0x00000000,0x00000000,0x00000000,0x00000000,0x00000000,0x00000000,0x00000000,0x00000000,41.09,4,0x00000000,96.875,98.039,0.004,0.013,-0.01,-0.008,-0.0,0.781,0.166,0.277,-0.143,0.433,0x00000003,1.0,1.0,-0.092,0.007,0.104,-0.003,0.009,0.0,0.0,-0.053,0.1,0.0,0.0,0.023,-1.221,0.903,0.0,0.0,-1.221,34.991,34.991,0.0,0.0,0.0,97.266,96.875,0.0,0.0,26.25,26.125,0.0,0.0,0.0,0.161,90.0,76.758,0.109,27.188,0x00000000,0x00000000,0x00000000,0.0,1246,1279,4.554,4.928,0.0,0.0,0.033,0.035,0.0,0.0,1.0,0.981,0.981,0.981,0.196,1.0,1.0,0.462,0.584,0.57,24.267,0x00000101,192.168.0.40,8080,255.255.255.0,192.168.0.1,0xFFFFFFFF,0xFFFFFFFF,0xFFFFFFFF,0x00000000,
1.72864890099,0x00000000,0x00000000,0x00000000,0x00000000,0x00000000,0x00000000,0x00000000,0x00000000,41.14,4,0x00000000,96.875,98.039,0.004,0.013,-0.021,0.001,-0.013,0.781,-0.997,0.294,-0.625,0.438,0x00000003,1.0,1.0,-0.082,0.006,0.101,-0.048,0.053,0.0,0.0,-0.054,0.102,0.0,0.0,0.024,-1.844,1.043,0.0,0.0,-1.844,34.991,34.991,0.0,0.0,0.0,97.266,96.875,0.0,0.0,26.25,26.125,0.0,0.0,0.0,0.185,90.0,76.758,0.109,27.188,0x00000000,0x00000000,0x00000000,0.0,1246,1279,3.233,11.591,0.0,0.0,0.033,0.035,0.0,0.0,1.0,0.981,0.981,0.981,0.196,1.0,1.0,0.462,0.584,0.57,24.267,0x00000101,192.168.0.40,8080,255.255.255.0,192.168.0.1,0xFFFFFFFF,0xFFFFFFFF,0xFFFFFFFF,0x00000000,
1.77873587608,0x00000000,0x00000000,0x00000000,0x00000000,0x00000000,0x00000000,0x00000000,0x00000000,41.19,4,0x00000000,96.875,98.039,0.005,0.012,-0.01,-0.017,-0.006,0.757,0.43,0.3,-0.624,-0.229,0x00000003,1.0,1.0,-0.123,-0.002,0.185,-0.08,0.064,0.0,0.0,-0.057,0.104,0.0,0.0,0.023,-0.826,0.788,0.0,0.0,-0.826,34.991,34.991,0.0,0.0,0.0,97.266,96.875,0.0,0.0,26.25,26.125,0.0,0.0,0.0,0.194,90.0,76.758,0.109,27.188,0x00000000,0x00000000,0x00000000,0.0,1246,1279,3.513,5.061,0.0,0.0,0.033,0.035,0.0,0.0,1.0,0.981,0.981,0.981,0.196,1.0,1.0,0.462,0.584,0.57,24.267,0x00000101,192.168.0.40,8080,255.255.255.0,192.168.0.1,0xFFFFFFFF,0xFFFFFFFF,0xFFFFFFFF,0x00000000,
1.82880401611,0x00000000,0x00000000,0x00000000,0x00000000,0x00000000,0x00000000,0x00000000,0x00000000,41.24,4,0x00000000,96.875,98.039,0.006,0.013,-0.006,-0.017,0.012,0.757,-0.165,0.294,0.35,0.844,0x00000003,1.0,1.0,-0.026,-0.004,0.219,-0.067,0.057,0.0,0.0,-0.061,0.107,0.0,0.0,0.023,-0.954,0.839,0.0,0.0,-0.954,34.991,34.991,0.0,0.0,0.0,97.266,96.875,0.0,0.0,26.25,26.125,0.0,0.0,0.0,0.198,90.0,76.758,0.109,27.188,0x00000000,0x00000000,0x00000000,0.0,1246,1279,4.374,2.555,0.0,0.0,0.033,0.036,0.0,0.0,1.0,0.981,0.981,0.981,0.196,1.0,1.0,0.462,0.584,0.57,24.267,0x00000101,192.168.0.40,8080,255.255.255.0,192.168.0.1,0xFFFFFFFF,0xFFFFFFFF,0xFFFFFFFF,0x00000000,
1.87889695168,0x00000000,0x00000000,0x00000000,0x00000000,0x00000000,0x00000000,0x00000000,0x00000000,41.29,4,0x00000000,96.875,98.039,0.004,0.014,-0.008,-0.013,0.012,0.756,-0.374,0.287,-0.622,0.18,0x00000003,1.0,1.0,-0.095,-0.006,0.211,-0.067,0.045,0.0,0.0,-0.064,0.11,0.0,0.0,0.023,-0.852,0.89,0.0,0.0,0.89,34.991,34.991,0.0,0.0,0.0,97.266,96.875,0.0,0.0,26.25,26.125,0.0,0.0,0.0,0.199,90.0,76.75,0.109,27.188,0x00000000,0x00000000,0x00000000,0.0,1246,1279,4.231,4.037,0.0,0.0,0.033,0.036,0.0,0.0,1.0,0.981,0.981,0.981,0.196,1.0,1.0,0.462,0.584,0.57,24.267,0x00000101,192.168.0.40,8080,255.255.255.0,192.168.0.1,0xFFFFFFFF,0xFFFFFFFF,0xFFFFFFFF,0x00000000,
1.92896294594,0x00000000,0x00000000,0x00000000,0x00000000,0x00000000,0x00000000,0x00000000,0x00000000,41.34,4,0x00000000,96.875,98.039,0.004,0.015,-0.008,0.0,-0.0,0.754,-0.044,0.293,-0.92,2.297,0x00000003,1.0,1.0,0.107,-0.006,0.201,-0.058,0.057,0.0,0.0,-0.067,0.112,0.0,0.0,0.023,-1.055,0.102,0.0,0.0,-1.055,34.991,34.991,0.0,0.0,0.0,97.266,96.875,0.0,0.0,26.25,26.125,0.0,0.0,0.0,0.2,90.0,76.75,0.109,27.188,0x00000000,0x00000000,0x00000000,0.0,1246,1279,4.562,3.764,0.0,0.0,0.033,0.036,0.0,0.0,1.0,0.981,0.981,0.981,0.196,1.0,1.0,0.462,0.584,0.57,24.267,0x00000101,192.168.0.40,8080,255.255.255.0,192.168.0.1,0xFFFFFFFF,0xFFFFFFFF,0xFFFFFFFF,0x00000000,
1.97905898094,0x00000000,0x00000000,0x00000000,0x00000000,0x00000000,0x00000000,0x00000000,0x00000000,41.39,4,0x00000000,96.875,98.039,0.003,0.014,-0.013,-0.008,-0.0,0.756,-0.441,0.318,0.379,-0.108,0x00000003,1.0,1.0,-0.0,-0.006,0.2,-0.06,0.048,0.0,0.0,-0.07,0.114,0.0,0.0,0.023,-0.687,0.636,0.0,0.0,-0.687,34.991,34.991,0.0,0.0,0.0,97.266,96.875,0.0,0.0,26.25,26.125,0.0,0.0,0.0,0.2,90.0,76.75,0.109,27.188,0x00000000,0x00000000,0x00000000,0.0,1246,1279,2.938,5.693,0.0,0.0,0.033,0.036,0.0,0.0,1.0,0.981,0.981,0.981,0.196,1.0,1.0,0.462,0.584,0.57,24.267,0x00000101,192.168.0.40,8080,255.255.255.0,192.168.0.1,0xFFFFFFFF,0xFFFFFFFF,0xFFFFFFFF,0x00000000,
2.02912402153,0x00000000,0x00000000,0x00000000,0x00000000,0x00000000,0x00000000,0x00000000,0x00000000,41.44,4,0x00000000,96.875,98.039,0.005,0.012,-0.015,-0.013,-0.012,0.762,0.096,0.329,0.587,1.32,0x00000003,1.0,1.0,0.069,-0.005,0.18,-0.048,0.046,0.0,0.0,-0.072,0.116,0.0,0.0,0.023,-0.954,0.915,0.0,0.0,-0.954,34.991,34.991,0.0,0.0,0.0,97.266,96.875,0.0,0.0,26.25,26.125,0.0,0.0,0.0,0.2,90.0,76.75,0.109,27.188,0x00000000,0x00000000,0x00000000,0.0,1246,1279,4.687,4.806,0.0,0.0,0.033,0.036,0.0,0.0,1.0,0.981,0.981,0.981,0.196,1.0,1.0,0.462,0.584,0.57,24.267,0x00000101,192.168.0.40,8080,255.255.255.0,192.168.0.1,0xFFFFFFFF,0xFFFFFFFF,0xFFFFFFFF,0x00000000,
2.07921481133,0x00000000,0x00000000,0x00000000,0x00000000,0x00000000,0x00000000,0x00000000,0x00000000,41.49,4,0x00000000,96.875,98.039,0.005,0.012,-0.012,-0.017,0.006,0.768,-0.28,0.322,0.358,0.658,0x00000003,1.0,1.0,0.054,-0.0,0.192,-0.057,0.061,0.0,0.0,-0.075,0.119,0.0,0.0,0.023,-0.674,1.271,0.0,0.0,1.271,34.991,34.991,0.0,0.0,0.0,97.266,96.875,0.0,0.0,26.25,26.125,0.0,0.0,0.0,0.2,90.0,76.75,0.109,27.188,0x00000000,0x00000000,0x00000000,0.0,1246,1279,3.576,4.767,0.0,0.0,0.033,0.036,0.0,0.0,1.0,0.981,0.981,0.981,0.196,1.0,1.0,0.462,0.584,0.57,24.267,0x00000101,192.168.0.40,8080,255.255.255.0,192.168.0.1,0xFFFFFFFF,0xFFFFFFFF,0xFFFFFFFF,0x00000000,
2.12928390503,0x00000000,0x00000000,0x00000000,0x00000000,0x00000000,0x00000000,0x00000000,0x00000000,41.54,4,0x00000000,96.875,98.039,0.006,0.013,-0.004,-0.021,-0.012,0.769,-0.051,0.331,1.073,1.733,0x00000003,1.0,1.0,0.092,0.004,0.203,-0.048,0.065,0.0,0.0,-0.077,0.122,0.0,0.0,0.023,-0.928,0.509,0.0,0.0,-0.928,34.991,34.991,0.0,0.0,0.0,97.266,96.875,0.0,0.0,26.25,26.125,0.0,0.0,0.0,0.2,90.0,76.75,0.109,27.188,0x00000000,0x00000000,0x00000000,0.0,1246,1279,2.153,4.766,0.0,0.0,0.033,0.036,0.0,0.0,1.0,0.981,0.981,0.981,0.196,1.0,1.0,0.462,0.584,0.57,24.267,0x00000101,192.168.0.40,8080,255.255.255.0,192.168.0.1,0xFFFFFFFF,0xFFFFFFFF,0xFFFFFFFF,0x00000000,
2.17937302589,0x00000000,0x00000000,0x00000000,0x00000000,0x00000000,0x00000000,0x00000000,0x00000000,41.59,4,0x00000000,96.875,98.039,0.004,0.013,-0.018,-0.004,-0.0,0.787,0.169,0.302,-1.406,1.77,0x00000003,1.0,1.0,0.036,0.007,0.206,-0.056,0.073,0.0,0.0,-0.079,0.125,0.0,0.0,0.023,-1.246,1.373,0.0,0.0,1.373,34.991,34.991,0.0,0.0,0.0,97.266,96.875,0.0,0.0,26.25,26.125,0.0,0.0,0.0,0.2,90.0,76.75,0.109,27.188,0x00000000,0x00000000,0x00000000,0.0,1246,1279,4.473,4.766,0.0,0.0,0.033,0.036,0.0,0.0,1.0,0.981,0.981,0.981,0.196,1.0,1.0,0.462,0.584,0.57,24.267,0x00000101,192.168.0.40,8080,255.255.255.0,192.168.0.1,0xFFFFFFFF,0xFFFFFFFF,0xFFFFFFFF,0x00000000,
2.22944092751,0x00000000,0x00000000,0x00000000,0x00000000,0x00000000,0x00000000,0x00000000,0x00000000,41.64,4,0x00000000,96.875,98.039,0.003,0.013,-0.018,-0.021,-0.025,0.778,0.569,0.305,0.836,1.107,0x00000003,1.0,1.0,-0.044,0.005,0.203,-0.05,0.056,0.0,0.0,-0.082,0.128,0.0,0.0,0.023,-0.229,-0.242,0.0,0.0,-0.242,34.991,34.991,0.0,0.0,0.0,97.266,96.875,0.0,0.0,26.25,26.125,0.0,0.0,0.0,0.2,90.0,76.75,0.109,27.188,0x00000000,0x00000000,0x00000000,0.0,1246,1279,1.344,4.766,0.0,0.0,0.033,0.036,0.0,0.0,1.0,0.981,0.981,0.981,0.196,1.0,1.0,0.462,0.584,0.57,24.267,0x00000101,192.168.0.40,8080,255.255.255.0,192.168.0.1,0xFFFFFFFF,0xFFFFFFFF,0xFFFFFFFF,0x00000000,
2.27953386307,0x00000000,0x00000000,0x00000000,0x00000000,0x00000000,0x00000000,0x00000000,0x00000000,41.69,4,0x00000000,96.875,98.039,0.005,0.013,-0.025,-0.03,0.018,0.765,0.047,0.285,-0.437,2.873,0x00000003,1.0,1.0,-0.098,0.004,0.199,-0.059,0.057,0.0,0.0,-0.084,0.13,0.0,0.0,0.023,-1.958,1.589,0.0,0.0,-1.958,34.991,34.991,0.0,0.0,0.0,97.266,96.875,0.0,0.0,26.25,26.125,0.0,0.0,0.0,0.2,90.0,76.75,0.109,27.188,0x00000000,0x00000000,0x00000000,0.0,1246,1279,4.1,4.586,0.0,0.0,0.033,0.036,0.0,0.0,1.0,0.981,0.981,0.981,0.196,1.0,1.0,0.462,0.584,0.57,24.267,0x00000101,192.168.0.40,8080,255.255.255.0,192.168.0.1,0xFFFFFFFF,0xFFFFFFFF,0xFFFFFFFF,0x00000000,
2.32961297035,0x00000000,0x00000000,0x00000000,0x00000000,0x00000000,0x00000000,0x00000000,0x00000000,41.74,4,0x00000000,96.875,98.039,0.005,0.013,-0.007,-0.013,-0.0,0.751,-0.096,0.287,-0.158,1.52,0x00000003,1.0,1.0,-0.013,0.001,0.196,-0.052,0.052,0.0,0.0,-0.087,0.133,0.0,0.0,0.023,-0.178,0.102,0.0,0.0,-0.178,34.991,34.991,0.0,0.0,0.0,97.266,96.875,0.0,0.0,26.25,26.125,0.0,0.0,0.0,0.2,90.0,76.75,0.109,27.188,0x00000000,0x00000000,0x00000000,0.0,1246,1279,4.737,4.758,0.0,0.0,0.034,0.036,0.0,0.0,1.0,0.981,0.981,0.981,0.196,1.0,1.0,0.462,0.584,0.57,24.267,0x00000101,192.168.0.40,8080,255.255.255.0,192.168.0.1,0xFFFFFFFF,0xFFFFFFFF,0xFFFFFFFF,0x00000000,
2.37969303131,0x00000000,0x00000000,0x00000000,0x00000000,0x00000000,0x00000000,0x00000000,0x00000000,41.79,4,0x00000000,96.875,98.039,0.004,0.012,-0.029,-0.021,-0.001,0.739,0.256,0.286,-0.633,0.51,0x00000003,1.0,1.0,-0.083,-0.004,0.185,-0.059,0.044,0.0,0.0,-0.089,0.135,0.0,0.0,0.023,-1.081,1.03,0.0,0.0,-1.081,34.991,34.991,0.0,0.0,0.0,97.266,96.875,0.0,0.0,26.25,26.125,0.0,0.0,0.0,0.2,90.0,76.75,0.109,27.188,0x00000000,0x00000000,0x00000000,0.0,1246,1279,4.764,4.765,0.0,0.0,0.034,0.036,0.0,0.0,1.0,0.981,0.981,0.981,0.196,1.0,1.0,0.462,0.584,0.57,24.267,0x00000101,192.168.0.40,8080,255.255.255.0,192.168.0.1,0xFFFFFFFF,0xFFFFFFFF,0xFFFFFFFF,0x00000000,
2.42975902557,0x00000000,0x00000000,0x00000000,0x00000000,0x00000000,0x00000000,0x00000000,0x00000000,41.84,4,0x00000000,96.875,98.039,0.004,0.012,-0.028,-0.012,-0.007,0.75,0.429,0.289,0.351,0.884,0x00000003,1.0,1.0,-0.062,-0.004,0.197,-0.067,0.053,0.0,0.0,-0.092,0.137,0.0,0.0,0.023,-1.691,1.233,0.0,0.0,-1.691,34.991,34.991,0.0,0.0,0.0,97.266,96.875,0.0,0.0,26.25,26.125,0.0,0.0,0.0,0.2,90.0,76.75,0.109,27.188,0x00000000,0x00000000,0x00000000,0.0,1246,1279,3.242,4.766,0.0,0.0,0.034,0.036,0.0,0.0,1.0,0.981,0.981,0.981,0.196,1.0,1.0,0.462,0.584,0.57,24.267,0x00000101,192.168.0.40,8080,255.255.255.0,192.168.0.1,0xFFFFFFFF,0xFFFFFFFF,0xFFFFFFFF,0x00000000,
2.47984981537,0x00000000,0x00000000,0x00000000,0x00000000,0x00000000,0x00000000,0x00000000,0x00000000,41.89,4,0x00000000,96.875,98.039,0.005,0.012,-0.01,-0.03,-0.013,0.741,-0.168,0.277,-0.402,1.607,0x00000003,1.0,1.0,-0.006,-0.007,0.199,-0.062,0.047,0.0,0.0,-0.095,0.14,0.0,0.0,0.023,-0.483,0.242,0.0,0.0,-0.483,34.991,34.991,0.0,0.0,0.0,97.266,96.875,0.0,0.0,26.25,26.125,0.0,0.0,0.0,0.2,90.0,76.75,0.109,27.188,0x00000000,0x00000000,0x00000000,0.0,1246,1279,4.362,5.126,0.0,0.0,0.034,0.036,0.0,0.0,1.0,0.981,0.981,0.981,0.196,1.0,1.0,0.462,0.584,0.57,24.267,0x00000101,192.168.0.40,8080,255.255.255.0,192.168.0.1,0xFFFFFFFF,0xFFFFFFFF,0xFFFFFFFF,0x00000000,
2.52992081642,0x00000000,0x00000000,0x00000000,0x00000000,0x00000000,0x00000000,0x00000000,0x00000000,41.94,4,0x00000000,96.875,98.039,0.005,0.014,-0.025,-0.004,0.006,0.726,-0.385,0.275,-0.143,1.288,0x00000003,1.0,1.0,-0.019,-0.009,0.2,-0.07,0.05,0.0,0.0,-0.098,0.142,0.0,0.0,0.023,-1.132,1.335,0.0,0.0,1.335,34.991,34.991,0.0,0.0,0.0,97.266,96.875,0.0,0.0,26.25,26.125,0.0,0.0,0.0,0.2,90.0,76.75,0.109,27.188,0x00000000,0x00000000,0x00000000,0.0,1246,1279,3.935,9.228,0.0,0.0,0.034,0.036,0.0,0.0,1.0,0.981,0.981,0.981,0.196,1.0,1.0,0.462,0.584,0.57,24.267,0x00000101,192.168.0.40,8080,255.255.255.0,192.168.0.1,0xFFFFFFFF,0xFFFFFFFF,0xFFFFFFFF,0x00000000,
2.58001494408,0x00000000,0x00000000,0x00000000,0x00000000,0x00000000,0x00000000,0x00000000,0x00000000,41.99,4,0x00000000,96.875,98.039,0.004,0.013,-0.021,-0.012,-0.019,0.725,0.187,0.289,0.847,0.978,0x00000003,1.0,1.0,0.066,-0.005,0.196,-0.053,0.048,0.0,0.0,-0.101,0.144,0.0,0.0,0.023,0.28,-0.305,0.0,0.0,-0.305,34.991,34.991,0.0,0.0,0.0,97.266,96.875,0.0,0.0,26.25,26.125,0.0,0.0,0.0,0.2,90.0,76.75,0.109,27.188,0x00000000,0x00000000,0x00000000,0.0,1246,1279,4.55,4.958,0.0,0.0,0.034,0.037,0.0,0.0,1.0,0.981,0.981,0.981,0.196,1.0,1.0,0.462,0.584,0.57,24.267,0x00000101,192.168.0.40,8080,255.255.255.0,192.168.0.1,0xFFFFFFFF,0xFFFFFFFF,0xFFFFFFFF,0x00000000,
2.63008189201,0x00000000,0x00000000,0x00000000,0x00000000,0x00000000,0x00000000,0x00000000,0x00000000,42.04,4,0x00000000,96.875,98.039,0.005,0.013,-0.013,-0.004,0.006,0.71,-0.917,0.285,-0.398,2.036,0x00000003,1.0,1.0,0.091,-0.003,0.182,-0.052,0.054,0.0,0.0,-0.103,0.146,0.0,0.0,0.023,-1.068,1.043,0.0,0.0,-1.068,34.991,34.991,0.0,0.0,0.0,97.266,96.875,0.0,0.0,26.25,26.125,0.0,0.0,0.0,0.2,90.0,76.75,0.109,27.188,0x00000000,0x00000000,0x00000000,0.0,1246,1279,4.576,4.774,0.0,0.0,0.034,0.037,0.0,0.0,1.0,0.981,0.981,0.981,0.196,1.0,1.0,0.462,0.584,0.57,24.267,0x00000101,192.168.0.40,8080,255.255.255.0,192.168.0.1,0xFFFFFFFF,0xFFFFFFFF,0xFFFFFFFF,0x00000000,
2.68016791344,0x00000000,0x00000000,0x00000000,0x00000000,0x00000000,0x00000000,0x00000000,0x00000000,42.09,4,0x00000000,96.875,98.039,0.005,0.012,-0.015,-0.004,-0.025,0.722,-0.074,0.3,0.084,2.078,0x00000003,1.0,1.0,0.11,0.0,0.199,-0.057,0.067,0.0,0.0,-0.106,0.149,0.0,0.0,0.023,0.14,0.013,0.0,0.0,0.14,34.991,34.991,0.0,0.0,0.0,97.266,96.875,0.0,0.0,26.25,26.125,0.0,0.0,0.0,0.2,90.0,76.75,0.109,27.188,0x00000000,0x00000000,0x00000000,0.0,1246,1279,1.348,5.694,0.0,0.0,0.034,0.037,0.0,0.0,1.0,0.981,0.981,0.981,0.196,1.0,1.0,0.462,0.584,0.57,24.267,0x00000101,192.168.0.40,8080,255.255.255.0,192.168.0.1,0xFFFFFFFF,0xFFFFFFFF,0xFFFFFFFF,0x00000000,
2.73024296761,0x00000000,0x00000000,0x00000000,0x00000000,0x00000000,0x00000000,0x00000000,0x00000000,42.14,4,0x00000000,96.875,98.039,0.005,0.012,-0.018,-0.004,-0.0,0.735,-0.481,0.298,-0.615,0.37,0x00000003,1.0,1.0,0.035,0.007,0.199,-0.047,0.063,0.0,0.0,-0.108,0.152,0.0,0.0,0.023,-0.445,0.725,0.0,0.0,0.725,34.991,34.991,0.0,0.0,0.0,97.266,96.875,0.0,0.0,26.25,26.125,0.0,0.0,0.0,0.2,90.0,76.75,0.109,27.188,0x00000000,0x00000000,0x00000000,0.0,1246,1279,2.281,4.806,0.0,0.0,0.034,0.037,0.0,0.0,1.0,0.981,0.981,0.981,0.196,1.0,1.0,0.462,0.584,0.57,24.267,0x00000101,192.168.0.40,8080,255.255.255.0,192.168.0.1,0xFFFFFFFF,0xFFFFFFFF,0xFFFFFFFF,0x00000000,
2.78032898903,0x00000000,0x00000000,0x00000000,0x00000000,0x00000000,0x00000000,0x00000000,0x00000000,42.19,4,0x00000000,96.875,98.039,0.005,0.012,-0.009,-0.021,-0.031,0.728,-0.185,0.308,0.107,1.102,0x00000003,1.0,1.0,-0.009,0.006,0.208,-0.058,0.068,0.0,0.0,-0.11,0.155,0.0,0.0,0.023,-0.712,0.445,0.0,0.0,-0.712,34.991,34.991,0.0,0.0,0.0,97.266,96.875,0.0,0.0,26.25,26.125,0.0,0.0,0.0,0.2,90.0,76.75,0.109,27.188,0x00000000,0x00000000,0x00000000,0.0,1246,1279,2.502,5.442,0.0,0.0,0.034,0.037,0.0,0.0,1.0,0.981,0.981,0.981,0.196,1.0,1.0,0.462,0.584,0.57,24.267,0x00000101,192.168.0.40,8080,255.255.255.0,192.168.0.1,0xFFFFFFFF,0xFFFFFFFF,0xFFFFFFFF,0x00000000,
2.83039784431,0x00000000,0x00000000,0x00000000,0x00000000,0x00000000,0x00000000,0x00000000,0x00000000,42.24,4,0x00000000,96.875,98.039,0.004,0.013,-0.017,-0.017,-0.013,0.712,-0.301,0.296,0.084,2.505,0x00000003,1.0,1.0,-0.001,0.005,0.196,-0.043,0.053,0.0,0.0,-0.113,0.158,0.0,0.0,0.023,-0.776,0.903,0.0,0.0,0.903,34.991,34.991,0.0,0.0,0.0,97.266,96.875,0.0,0.0,26.25,26.125,0.0,0.0,0.0,0.2,90.0,76.75,0.109,27.188,0x00000000,0x00000000,0x00000000,0.0,1246,1279,4.668,1.386,0.0,0.0,0.034,0.037,0.0,0.0,1.0,0.981,0.981,0.981,0.196,1.0,1.0,0.462,0.584,0.57,24.267,0x00000101,192.168.0.40,8080,255.255.255.0,192.168.0.1,0xFFFFFFFF,0xFFFFFFFF,0xFFFFFFFF,0x00000000,
2.88045787811,0x00000000,0x00000000,0x00000000,0x00000000,0x00000000,0x00000000,0x00000000,0x00000000,42.29,4,0x00000000,96.875,98.039,0.004,0.013,-0.022,-0.021,-0.025,0.721,0.593,0.289,0.329,1.866,0x00000003,1.0,1.0,-0.101,0.006,0.194,-0.056,0.058,0.0,0.0,-0.115,0.161,0.0,0.0,0.023,-0.674,0.648,0.0,0.0,-0.674,34.991,34.991,0.0,0.0,0.0,97.266,96.875,0.0,0.0,26.25,26.125,0.0,0.0,0.0,0.2,90.0,76.75,0.109,27.188,0x00000000,0x00000000,0x00000000,0.0,1246,1279,4.761,7.542,0.0,0.0,0.034,0.037,0.0,0.0,1.0,0.981,0.981,0.981,0.196,1.0,1.0,0.462,0.584,0.57,24.267,0x00000101,192.168.0.40,8080,255.255.255.0,192.168.0.1,0xFFFFFFFF,0xFFFFFFFF,0xFFFFFFFF,0x00000000,
2.93055701256,0x00000000,0x00000000,0x00000000,0x00000000,0x00000000,0x00000000,0x00000000,0x00000000,42.34,4,0x00000000,96.875,98.039,0.004,0.014,-0.013,-0.004,-0.006,0.713,0.411,0.304,0.589,1.54,0x00000003,1.0,1.0,-0.171,-0.0,0.195,-0.064,0.047,0.0,0.0,-0.118,0.163,0.0,0.0,0.023,-1.119,0.865,0.0,0.0,-1.119,34.991,34.991,0.0,0.0,0.0,97.266,96.875,0.0,0.0,26.25,26.125,0.0,0.0,0.0,0.2,90.0,76.742,0.109,27.188,0x00000000,0x00000000,0x00000000,0.0,1246,1279,2.362,2.145,0.0,0.0,0.034,0.037,0.0,0.0,1.0,0.981,0.981,0.981,0.196,1.0,1.0,0.462,0.584,0.57,24.267,0x00000101,192.168.0.40,8080,255.255.255.0,192.168.0.1,0xFFFFFFFF,0xFFFFFFFF,0xFFFFFFFF,0x00000000,
2.98065400124,0x00000000,0x00000000,0x00000000,0x00000000,0x00000000,0x00000000,0x00000000,0x00000000,42.39,4,0x00000000,96.875,98.039,0.005,0.013,-0.017,-0.004,-0.019,0.689,0.062,0.301,0.841,1.567,0x00000003,1.0,1.0,-0.047,-0.006,0.194,-0.063,0.046,0.0,0.0,-0.121,0.165,0.0,0.0,0.023,-1.17,0.75,0.0,0.0,-1.17,34.991,34.991,0.0,0.0,0.0,97.266,96.875,0.0,0.0,26.25,26.125,0.0,0.0,0.0,0.2,90.0,76.742,0.109,27.188,0x00000000,0x00000000,0x00000000,0.0,1246,1279,4.662,4.472,0.0,0.0,0.034,0.037,0.0,0.0,1.0,0.981,0.981,0.981,0.196,1.0,1.0,0.462,0.584,0.57,24.267,0x00000101,192.168.0.40,8080,255.255.255.0,192.168.0.1,0xFFFFFFFF,0xFFFFFFFF,0xFFFFFFFF,0x00000000,
3.03072094917,0x00000000,0x00000000,0x00000000,0x00000000,0x00000000,0x00000000,0x00000000,0x00000000,42.44,4,0x00000000,96.875,98.039,0.004,0.012,-0.023,-0.008,-0.006,0.7,-0.115,0.307,0.575,2.631,0x00000003,1.0,1.0,-0.025,-0.006,0.206,-0.069,0.056,0.0,0.0,-0.124,0.168,0.0,0.0,0.023,-0.547,0.737,0.0,0.0,0.737,34.991,34.991,0.0,0.0,0.0,97.266,96.875,0.0,0.0,26.25,26.125,0.0,0.0,0.0,0.2,90.0,76.742,0.109,27.188,0x00000000,0x00000000,0x00000000,0.0,1246,1279,4.581,4.235,0.0,0.0,0.034,0.037,0.0,0.0,1.0,0.981,0.981,0.981,0.196,1.0,1.0,0.462,0.584,0.57,24.267,0x00000101,192.168.0.40,8080,255.255.255.0,192.168.0.1,0xFFFFFFFF,0xFFFFFFFF,0xFFFFFFFF,0x00000000,
3.08100700378,0x00000000,0x00000000,0x00000000,0x00000000,0x00000000,0x00000000,0x00000000,0x00000000,42.49,4,0x00000000,96.875,98.039,0.005,0.012,-0.018,0.005,-0.013,0.69,0.293,0.315,-0.167,2.325,0x00000003,1.0,1.0,0.003,-0.007,0.193,-0.055,0.041,0.0,0.0,-0.126,0.17,0.0,0.0,0.023,-1.004,0.496,0.0,0.0,-1.004,34.991,34.991,0.0,0.0,0.0,97.266,96.875,0.0,0.0,26.25,26.125,0.0,0.0,0.0,0.19,90.0,76.742,0.109,27.188,0x00000000,0x00000000,0x00000000,0.0,1246,1279,4.758,4.405,0.0,0.0,0.034,0.037,0.0,0.0,1.0,0.981,0.981,0.981,0.196,1.0,1.0,0.462,0.584,0.57,24.267,0x00000101,192.168.0.40,8080,255.255.255.0,192.168.0.1,0xFFFFFFFF,0xFFFFFFFF,0xFFFFFFFF,0x00000000,
3.13087701797,0x00000000,0x00000000,0x00000000,0x00000000,0x00000000,0x00000000,0x00000000,0x00000000,42.54,4,0x00000000,96.875,98.039,0.005,0.013,-0.015,-0.004,-0.025,0.681,-0.524,0.331,0.09,2.347,0x00000003,1.0,1.0,-0.035,-0.008,0.18,-0.053,0.035,0.0,0.0,-0.129,0.171,0.0,0.0,0.023,-0.394,0.318,0.0,0.0,-0.394,34.991,34.991,0.0,0.0,0.0,97.266,96.875,0.0,0.0,26.25,26.125,0.0,0.0,0.0,0.14,90.0,76.742,0.109,27.188,0x00000000,0x00000000,0x00000000,0.0,1246,1279,4.428,4.829,0.0,0.0,0.034,0.037,0.0,0.0,1.0,0.981,0.981,0.981,0.196,1.0,1.0,0.462,0.584,0.57,24.267,0x00000101,192.168.0.40,8080,255.255.255.0,192.168.0.1,0xFFFFFFFF,0xFFFFFFFF,0xFFFFFFFF,0x00000000,
3.1809220314,0x00000000,0x00000000,0x00000000,0x00000000,0x00000000,0x00000000,0x00000000,0x00000000,42.59,4,0x00000000,96.875,98.039,0.004,0.013,-0.026,-0.021,0.024,0.671,-0.264,0.342,0.329,2.713,0x00000003,1.0,1.0,0.116,-0.008,0.108,-0.009,0.003,0.0,0.0,-0.13,0.172,0.0,0.0,0.022,-0.585,0.725,0.0,0.0,0.725,34.991,34.991,0.0,0.0,0.0,97.266,96.875,0.0,0.0,26.25,26.125,0.0,0.0,0.0,0.161,90.0,76.742,0.109,27.188,0x00000000,0x00000000,0x00000000,0.0,1246,1279,4.118,3.582,0.0,0.0,0.034,0.037,0.0,0.0,1.0,0.981,0.981,0.981,0.196,1.0,1.0,0.462,0.584,0.57,24.267,0x00000101,192.168.0.40,8080,255.255.255.0,192.168.0.1,0xFFFFFFFF,0xFFFFFFFF,0xFFFFFFFF,0x00000000,
3.23106002808,0x00000000,0x00000000,0x00000000,0x00000000,0x00000000,0x00000000,0x00000000,0x00000000,42.64,4,0x00000000,96.875,98.039,0.004,0.013,0.003,-0.004,-0.012,0.686,-0.588,0.356,0.58,2.719,0x00000003,1.0,1.0,0.223,-0.002,0.074,-0.021,0.04,0.0,0.0,-0.131,0.172,0.0,0.0,0.022,-1.666,1.538,0.0,0.0,-1.666,34.991,34.991,0.0,0.0,0.0,97.266,96.875,0.0,0.0,26.25,26.125,0.0,0.0,0.0,0.185,90.0,76.742,0.109,27.188,0x00000000,0x00000000,0x00000000,0.0,1246,1279,3.552,4.714,0.0,0.0,0.034,0.037,0.0,0.0,1.0,0.981,0.981,0.981,0.196,1.0,1.0,0.462,0.584,0.57,24.267,0x00000101,192.168.0.40,8080,255.255.255.0,192.168.0.1,0xFFFFFFFF,0xFFFFFFFF,0xFFFFFFFF,0x00000000,
3.28107595444,0x00000000,0x00000000,0x00000000,0x00000000,0x00000000,0x00000000,0x00000000,0x00000000,42.69,4,0x00000000,96.875,98.039,0.005,0.013,-0.005,-0.03,-0.018,0.716,-0.483,0.35,-0.648,2.045,0x00000003,1.0,1.0,-0.025,0.006,0.187,-0.078,0.087,0.0,0.0,-0.133,0.176,0.0,0.0,0.023,-0.47,1.043,0.0,0.0,1.043,34.991,34.991,0.0,0.0,0.0,97.266,96.875,0.0,0.0,26.25,26.125,0.0,0.0,0.0,0.194,90.0,76.742,0.109,27.188,0x00000000,0x00000000,0x00000000,0.0,1246,1279,2.894,4.763,0.0,0.0,0.035,0.037,0.0,0.0,1.0,0.981,0.981,0.981,0.196,1.0,1.0,0.462,0.584,0.57,24.267,0x00000101,192.168.0.40,8080,255.255.255.0,192.168.0.1,0xFFFFFFFF,0xFFFFFFFF,0xFFFFFFFF,0x00000000,
3.33118987083,0x00000000,0x00000000,0x00000000,0x00000000,0x00000000,0x00000000,0x00000000,0x00000000,42.74,4,0x00000000,96.875,98.039,0.005,0.013,-0.017,-0.008,0.012,0.716,-0.477,0.335,-0.137,1.384,0x00000003,1.0,1.0,0.025,0.009,0.229,-0.052,0.072,0.0,0.0,-0.136,0.18,0.0,0.0,0.023,-0.852,0.826,0.0,0.0,-0.852,34.991,34.991,0.0,0.0,0.0,97.266,96.875,0.0,0.0,26.25,26.125,0.0,0.0,0.0,0.198,90.0,76.742,0.109,27.188,0x00000000,0x00000000,0x00000000,0.0,1246,1279,4.505,4.766,0.0,0.0,0.035,0.037,0.0,0.0,1.0,0.981,0.981,0.981,0.196,1.0,1.0,0.462,0.584,0.57,24.267,0x00000101,192.168.0.40,8080,255.255.255.0,192.168.0.1,0xFFFFFFFF,0xFFFFFFFF,0xFFFFFFFF,0x00000000,
3.38123703003,0x00000000,0x00000000,0x00000000,0x00000000,0x00000000,0x00000000,0x00000000,0x00000000,42.79,4,0x00000000,96.875,98.039,0.004,0.012,-0.021,-0.021,-0.019,0.718,-0.144,0.316,-0.404,2.116,0x00000003,1.0,1.0,0.059,0.009,0.215,-0.047,0.071,0.0,0.0,-0.139,0.183,0.0,0.0,0.023,-0.801,0.445,0.0,0.0,-0.801,34.991,34.991,0.0,0.0,0.0,97.266,96.875,0.0,0.0,26.25,26.125,0.0,0.0,0.0,0.199,90.0,76.742,0.109,27.188,0x00000000,0x00000000,0x00000000,0.0,1246,1279,3.051,4.766,0.0,0.0,0.035,0.037,0.0,0.0,1.0,0.981,0.981,0.981,0.196,1.0,1.0,0.462,0.584,0.57,24.267,0x00000101,192.168.0.40,8080,255.255.255.0,192.168.0.1,0xFFFFFFFF,0xFFFFFFFF,0xFFFFFFFF,0x00000000,
3.43135595322,0x00000000,0x00000000,0x00000000,0x00000000,0x00000000,0x00000000,0x00000000,0x00000000,42.84,4,0x00000000,96.875,98.039,0.005,0.013,-0.014,-0.013,0.006,0.707,-0.135,0.31,0.617,0.762,0x00000003,1.0,1.0,-0.061,0.007,0.199,-0.049,0.057,0.0,0.0,-0.141,0.186,0.0,0.0,0.023,-1.246,0.725,0.0,0.0,-1.246,34.991,34.991,0.0,0.0,0.0,97.266,96.875,0.0,0.0,26.25,26.125,0.0,0.0,0.0,0.2,90.0,76.75,0.109,27.188,0x00000000,0x00000000,0x00000000,0.0,1246,1279,3.721,4.766,0.0,0.0,0.035,0.038,0.0,0.0,1.0,0.981,0.981,0.981,0.196,1.0,1.0,0.462,0.584,0.57,24.267,0x00000101,192.168.0.40,8080,255.255.255.0,192.168.0.1,0xFFFFFFFF,0xFFFFFFFF,0xFFFFFFFF,0x00000000,
3.48139595985,0x00000000,0x00000000,0x00000000,0x00000000,0x00000000,0x00000000,0x00000000,0x00000000,42.89,4,0x00000000,96.875,98.039,0.004,0.013,-0.011,-0.026,0.006,0.692,-0.744,0.314,0.585,2.523,0x00000003,1.0,1.0,-0.07,0.004,0.201,-0.061,0.063,0.0,0.0,-0.143,0.189,0.0,0.0,0.023,-0.648,0.254,0.0,0.0,-0.648,34.991,34.991,0.0,0.0,0.0,97.266,96.875,0.0,0.0,26.25,26.125,0.0,0.0,0.0,0.2,90.0,76.75,0.109,27.188,0x00000000,0x00000000,0x00000000,0.0,1246,1279,4.72,3.58,0.0,0.0,0.035,0.038,0.0,0.0,1.0,0.981,0.981,0.981,0.196,1.0,1.0,0.462,0.584,0.57,24.267,0x00000101,192.168.0.40,8080,255.255.255.0,192.168.0.1,0xFFFFFFFF,0xFFFFFFFF,0xFFFFFFFF,0x00000000,
3.53151702881,0x00000000,0x00000000,0x00000000,0x00000000,0x00000000,0x00000000,0x00000000,0x00000000,42.94,4,0x00000000,96.875,98.039,0.005,0.013,-0.011,-0.008,-0.006,0.674,-0.471,0.313,0.075,3.24,0x00000003,1.0,1.0,0.016,0.002,0.2,-0.051,0.058,0.0,0.0,-0.146,0.191,0.0,0.0,0.023,-1.132,0.75,0.0,0.0,-1.132,34.991,34.991,0.0,0.0,0.0,97.266,96.875,0.0,0.0,26.25,26.125,0.0,0.0,0.0,0.2,90.0,76.75,0.109,27.188,0x00000000,0x00000000,0x00000000,0.0,1246,1279,4.253,2.896,0.0,0.0,0.035,0.038,0.0,0.0,1.0,0.981,0.981,0.981,0.196,1.0,1.0,0.462,0.584,0.57,24.267,0x00000101,192.168.0.40,8080,255.255.255.0,192.168.0.1,0xFFFFFFFF,0xFFFFFFFF,0xFFFFFFFF,0x00000000,
3.58155488968,0x00000000,0x00000000,0x00000000,0x00000000,0x00000000,0x00000000,0x00000000,0x00000000,42.99,4,0x00000000,96.875,98.039,0.004,0.013,-0.01,-0.021,-0.013,0.65,-0.705,0.307,-0.628,1.536,0x00000003,1.0,1.0,-0.125,-0.005,0.19,-0.063,0.041,0.0,0.0,-0.149,0.193,0.0,0.0,0.023,-1.081,1.017,0.0,0.0,-1.081,34.991,34.991,0.0,0.0,0.0,97.266,96.875,0.0,0.0,26.25,26.125,0.0,0.0,0.0,0.2,90.0,76.75,0.109,27.188,0x00000000,0x00000000,0x00000000,0.0,1246,1279,4.563,3.499,0.0,0.0,0.035,0.038,0.0,0.0,1.0,0.981,0.981,0.981,0.196,1.0,1.0,0.462,0.584,0.57,24.267,0x00000101,192.168.0.40,8080,255.255.255.0,192.168.0.1,0xFFFFFFFF,0xFFFFFFFF,0xFFFFFFFF,0x00000000,
3.63167095184,0x00000000,0x00000000,0x00000000,0x00000000,0x00000000,0x00000000,0x00000000,0x00000000,43.04,4,0x00000000,96.875,98.039,0.004,0.013,-0.027,-0.004,-0.012,0.653,0.146,0.291,-0.909,2.617,0x00000003,1.0,1.0,0.014,-0.004,0.194,-0.06,0.053,0.0,0.0,-0.151,0.195,0.0,0.0,0.023,-1.462,0.852,0.0,0.0,-1.462,34.991,34.991,0.0,0.0,0.0,97.266,96.875,0.0,0.0,26.25,26.125,0.0,0.0,0.0,0.2,90.0,76.75,0.109,27.188,0x00000000,0x00000000,0x00000000,0.0,1246,1279,4.757,6.934,0.0,0.0,0.035,0.038,0.0,0.0,1.0,0.981,0.981,0.981,0.196,1.0,1.0,0.462,0.584,0.57,24.267,0x00000101,192.168.0.40,8080,255.255.255.0,192.168.0.1,0xFFFFFFFF,0xFFFFFFFF,0xFFFFFFFF,0x00000000,
3.68172287941,0x00000000,0x00000000,0x00000000,0x00000000,0x00000000,0x00000000,0x00000000,0x00000000,43.09,4,0x00000000,96.875,98.039,0.005,0.012,-0.016,-0.017,0.006,0.637,0.387,0.286,-0.402,1.952,0x00000003,1.0,1.0,-0.03,-0.008,0.194,-0.061,0.043,0.0,0.0,-0.154,0.198,0.0,0.0,0.023,-0.941,1.004,0.0,0.0,1.004,34.991,34.991,0.0,0.0,0.0,97.266,96.875,0.0,0.0,26.25,26.125,0.0,0.0,0.0,0.2,90.0,76.75,0.109,27.188,0x00000000,0x00000000,0x00000000,0.0,1246,1279,2.542,2.636,0.0,0.0,0.035,0.038,0.0,0.0,1.0,0.981,0.981,0.981,0.196,1.0,1.0,0.462,0.584,0.57,24.267,0x00000101,192.168.0.40,8080,255.255.255.0,192.168.0.1,0xFFFFFFFF,0xFFFFFFFF,0xFFFFFFFF,0x00000000,
3.73183298111,0x00000000,0x00000000,0x00000000,0x00000000,0x00000000,0x00000000,0x00000000,0x00000000,43.14,4,0x00000000,96.875,98.039,0.005,0.013,-0.016,-0.021,-0.012,0.638,0.265,0.276,-0.408,2.326,0x00000003,1.0,1.0,0.023,-0.009,0.199,-0.067,0.052,0.0,0.0,-0.157,0.2,0.0,0.0,0.022,-0.292,0.623,0.0,0.0,0.623,34.991,34.991,0.0,0.0,0.0,97.266,96.875,0.0,0.0,26.25,26.125,0.0,0.0,0.0,0.2,90.0,76.75,0.109,27.188,0x00000000,0x00000000,0x00000000,0.0,1246,1279,4.67,4.494,0.0,0.0,0.035,0.038,0.0,0.0,1.0,0.981,0.981,0.981,0.196,1.0,1.0,0.462,0.584,0.57,24.267,0x00000101,192.168.0.40,8080,255.255.255.0,192.168.0.1,0xFFFFFFFF,0xFFFFFFFF,0xFFFFFFFF,0x00000000,
3.7818748951,0x00000000,0x00000000,0x00000000,0x00000000,0x00000000,0x00000000,0x00000000,0x00000000,43.19,4,0x00000000,96.875,98.039,0.004,0.013,-0.002,-0.021,-0.043,0.651,-0.75,0.277,0.104,2.334,0x00000003,1.0,1.0,0.054,-0.004,0.192,-0.052,0.049,0.0,0.0,-0.16,0.202,0.0,0.0,0.022,-0.814,0.954,0.0,0.0,0.954,34.991,34.991,0.0,0.0,0.0,97.266,96.875,0.0,0.0,26.25,26.125,0.0,0.0,0.0,0.2,90.0,76.75,0.109,27.188,0x00000000,0x00000000,0x00000000,0.0,1246,1279,4.581,5.839,0.0,0.0,0.035,0.038,0.0,0.0,1.0,0.981,0.981,0.981,0.196,1.0,1.0,0.462,0.584,0.57,24.267,0x00000101,192.168.0.40,8080,255.255.255.0,192.168.0.1,0xFFFFFFFF,0xFFFFFFFF,0xFFFFFFFF,0x00000000,
3.83199286461,0x00000000,0x00000000,0x00000000,0x00000000,0x00000000,0x00000000,0x00000000,0x00000000,43.24,4,0x00000000,96.875,98.039,0.005,0.013,-0.025,-0.021,0.006,0.668,0.309,0.277,-0.125,0.647,0x00000003,1.0,1.0,0.162,-0.0,0.172,-0.039,0.055,0.0,0.0,-0.162,0.204,0.0,0.0,0.022,-1.36,0.763,0.0,0.0,-1.36,34.991,34.991,0.0,0.0,0.0,97.266,96.875,0.0,0.0,26.25,26.125,0.0,0.0,0.0,0.2,90.0,76.75,0.109,27.188,0x00000000,0x00000000,0x00000000,0.0,1246,1279,3.787,4.812,0.0,0.0,0.035,0.038,0.0,0.0,1.0,0.981,0.981,0.981,0.196,1.0,1.0,0.462,0.584,0.57,24.267,0x00000101,192.168.0.40,8080,255.255.255.0,192.168.0.1,0xFFFFFFFF,0xFFFFFFFF,0xFFFFFFFF,0x00000000,
3.88203287125,0x00000000,0x00000000,0x00000000,0x00000000,0x00000000,0x00000000,0x00000000,0x00000000,43.29,4,0x00000000,96.875,98.039,0.004,0.012,-0.032,-0.021,-0.007,0.664,0.362,0.268,-0.405,2.066,0x00000003,1.0,1.0,0.051,0.002,0.196,-0.059,0.067,0.0,0.0,-0.164,0.207,0.0,0.0,0.022,-0.89,1.195,0.0,0.0,1.195,34.991,34.991,0.0,0.0,0.0,97.266,96.875,0.0,0.0,26.25,26.125,0.0,0.0,0.0,0.2,90.0,76.75,0.109,27.188,0x00000000,0x00000000,0x00000000,0.0,1246,1279,3.753,6.802,0.0,0.0,0.035,0.038,0.0,0.0,1.0,0.981,0.981,0.981,0.196,1.0,1.0,0.462,0.584,0.57,24.267,0x00000101,192.168.0.40,8080,255.255.255.0,192.168.0.1,0xFFFFFFFF,0xFFFFFFFF,0xFFFFFFFF,0x00000000,
3.93215298653,0x00000000,0x00000000,0x00000000,0x00000000,0x00000000,0x00000000,0x00000000,0x00000000,43.34,4,0x00000000,96.875,98.039,0.005,0.015,-0.002,-0.013,-0.006,0.666,0.614,0.264,0.088,2.097,0x00000003,1.0,1.0,-0.009,0.005,0.207,-0.055,0.065,0.0,0.0,-0.167,0.21,0.0,0.0,0.023,-0.458,0.839,0.0,0.0,0.839,34.991,34.991,0.0,0.0,0.0,97.266,96.875,0.0,0.0,26.25,26.125,0.0,0.0,0.0,0.2,90.0,76.75,0.109,27.188,0x00000000,0x00000000,0x00000000,0.0,1246,1279,4.089,4.674,0.0,0.0,0.035,0.038,0.0,0.0,1.0,0.981,0.981,0.981,0.196,1.0,1.0,0.462,0.584,0.57,24.267,0x00000101,192.168.0.40,8080,255.255.255.0,192.168.0.1,0xFFFFFFFF,0xFFFFFFFF,0xFFFFFFFF,0x00000000,
3.98219490051,0x00000000,0x00000000,0x00000000,0x00000000,0x00000000,0x00000000,0x00000000,0x00000000,43.39,4,0x00000000,96.875,98.039,0.004,0.012,-0.012,-0.026,-0.0,0.684,-0.002,0.252,-0.142,1.767,0x00000003,1.0,1.0,-0.035,0.005,0.213,-0.058,0.066,0.0,0.0,-0.169,0.213,0.0,0.0,0.023,-0.712,0.47,0.0,0.0,-0.712,34.991,34.991,0.0,0.0,0.0,97.266,96.875,0.0,0.0,26.25,26.125,0.0,0.0,0.0,0.2,90.0,76.75,0.109,27.188,0x00000000,0x00000000,0x00000000,0.0,1246,1279,3.213,4.762,0.0,0.0,0.035,0.038,0.0,0.0,1.0,0.981,0.981,0.981,0.196,1.0,1.0,0.462,0.584,0.57,24.267,0x00000101,192.168.0.40,8080,255.255.255.0,192.168.0.1,0xFFFFFFFF,0xFFFFFFFF,0xFFFFFFFF,0x00000000,
4.03231692314,0x00000000,0x00000000,0x00000000,0x00000000,0x00000000,0x00000000,0x00000000,0x00000000,43.44,4,0x00000000,96.875,98.039,0.004,0.012,-0.025,-0.008,0.012,0.677,0.314,0.24,0.327,2.841,0x00000003,1.0,1.0,0.006,0.004,0.195,-0.041,0.051,0.0,0.0,-0.172,0.216,0.0,0.0,0.023,-1.157,0.852,0.0,0.0,-1.157,34.991,34.991,0.0,0.0,0.0,97.266,96.875,0.0,0.0,26.25,26.125,0.0,0.0,0.0,0.2,90.0,76.75,0.109,27.188,0x00000000,0x00000000,0x00000000,0.0,1246,1279,0.657,4.765,0.0,0.0,0.035,0.038,0.0,0.0,1.0,0.981,0.981,0.981,0.196,1.0,1.0,0.462,0.584,0.57,24.267,0x00000101,192.168.0.40,8080,255.255.255.0,192.168.0.1,0xFFFFFFFF,0xFFFFFFFF,0xFFFFFFFF,0x00000000,
4.08235502243,0x00000000,0x00000000,0x00000000,0x00000000,0x00000000,0x00000000,0x00000000,0x00000000,43.49,4,0x00000000,96.875,98.039,0.004,0.013,-0.019,-0.021,-0.025,0.692,-0.055,0.213,-0.669,3.212,0x00000003,1.0,1.0,-0.081,0.005,0.194,-0.056,0.059,0.0,0.0,-0.174,0.219,0.0,0.0,0.023,-0.47,0.839,0.0,0.0,0.839,34.991,34.991,0.0,0.0,0.0,97.266,96.875,0.0,0.0,26.25,26.125,0.0,0.0,0.0,0.2,90.0,76.75,0.109,27.188,0x00000000,0x00000000,0x00000000,0.0,1246,1279,4.261,4.133,0.0,0.0,0.035,0.038,0.0,0.0,1.0,0.981,0.981,0.981,0.196,1.0,1.0,0.462,0.584,0.57,24.267,0x00000101,192.168.0.40,8080,255.255.255.0,192.168.0.1,0xFFFFFFFF,0xFFFFFFFF,0xFFFFFFFF,0x00000000,
4.13247299194,0x00000000,0x00000000,0x00000000,0x00000000,0x00000000,0x00000000,0x00000000,0x00000000,43.54,4,0x00000000,96.875,98.039,0.005,0.014,-0.006,-0.013,-0.018,0.662,-0.247,0.217,0.342,2.543,0x00000003,1.0,1.0,-0.095,0.001,0.191,-0.054,0.047,0.0,0.0,-0.176,0.221,0.0,0.0,0.023,-1.068,0.865,0.0,0.0,-1.068,34.991,34.991,0.0,0.0,0.0,97.266,96.875,0.0,0.0,26.25,26.125,0.0,0.0,0.0,0.2,90.0,76.75,0.109,27.188,0x00000000,0x00000000,0x00000000,0.0,1246,1279,4.576,4.738,0.0,0.0,0.035,0.038,0.0,0.0,1.0,0.981,0.981,0.981,0.196,1.0,1.0,0.462,0.584,0.57,24.267,0x00000101,192.168.0.40,8080,255.255.255.0,192.168.0.1,0xFFFFFFFF,0xFFFFFFFF,0xFFFFFFFF,0x00000000,
4.18251991272,0x00000000,0x00000000,0x00000000,0x00000000,0x00000000,0x00000000,0x00000000,0x00000000,43.59,4,0x00000000,96.875,98.039,0.005,0.014,-0.014,-0.021,-0.006,0.645,0.076,0.221,0.076,3.268,0x00000003,1.0,1.0,0.028,-0.005,0.19,-0.061,0.054,0.0,0.0,-0.179,0.223,0.0,0.0,0.023,-0.865,0.407,0.0,0.0,-0.865,34.991,34.991,0.0,0.0,0.0,97.266,96.875,0.0,0.0,26.25,26.125,0.0,0.0,0.0,0.2,90.0,76.75,0.109,27.188,0x00000000,0x00000000,0x00000000,0.0,1246,1279,4.25,4.132,0.0,0.0,0.035,0.038,0.0,0.0,1.0,0.981,0.981,0.981,0.196,1.0,1.0,0.462,0.584,0.57,24.267,0x00000101,192.168.0.40,8080,255.255.255.0,192.168.0.1,0xFFFFFFFF,0xFFFFFFFF,0xFFFFFFFF,0x00000000,
4.23263883591,0x00000000,0x00000000,0x00000000,0x00000000,0x00000000,0x00000000,0x00000000,0x00000000,43.64,4,0x00000000,96.875,98.039,0.004,0.013,-0.027,-0.012,-0.007,0.667,0.487,0.233,0.607,1.225,0x00000003,1.0,1.0,-0.102,-0.006,0.202,-0.071,0.049,0.0,0.0,-0.182,0.226,0.0,0.0,0.022,-1.081,0.89,0.0,0.0,-1.081,34.991,34.991,0.0,0.0,0.0,97.266,96.875,0.0,0.0,26.25,26.125,0.0,0.0,0.0,0.2,90.0,76.75,0.109,27.188,0x00000000,0x00000000,0x00000000,0.0,1246,1279,4.237,3.586,0.0,0.0,0.035,0.039,0.0,0.0,1.0,0.981,0.981,0.981,0.196,1.0,1.0,0.462,0.584,0.57,24.267,0x00000101,192.168.0.40,8080,255.255.255.0,192.168.0.1,0xFFFFFFFF,0xFFFFFFFF,0xFFFFFFFF,0x00000000,
4.28268384933,0x00000000,0x00000000,0x00000000,0x00000000,0x00000000,0x00000000,0x00000000,0x00000000,43.69,4,0x00000000,96.875,98.039,0.004,0.012,-0.015,-0.017,-0.006,0.649,0.136,0.227,-0.132,1.25,0x00000003,1.0,1.0,0.001,-0.007,0.201,-0.065,0.05,0.0,0.0,-0.185,0.228,0.0,0.0,0.022,-0.534,0.42,0.0,0.0,-0.534,34.991,34.991,0.0,0.0,0.0,97.266,96.875,0.0,0.0,26.25,26.125,0.0,0.0,0.0,0.2,90.0,76.75,0.109,27.188,0x00000000,0x00000000,0x00000000,0.0,1246,1279,4.395,3.54,0.0,0.0,0.035,0.039,0.0,0.0,1.0,0.981,0.981,0.981,0.196,1.0,1.0,0.462,0.584,0.57,24.267,0x00000101,192.168.0.40,8080,255.255.255.0,192.168.0.1,0xFFFFFFFF,0xFFFFFFFF,0xFFFFFFFF,0x00000000,
4.33279299736,0x00000000,0x00000000,0x00000000,0x00000000,0x00000000,0x00000000,0x00000000,0x00000000,43.74,4,0x00000000,96.875,98.039,0.004,0.013,-0.007,-0.021,-0.0,0.663,0.288,0.205,-0.677,3.701,0x00000003,1.0,1.0,0.025,-0.007,0.202,-0.062,0.051,0.0,0.0,-0.188,0.23,0.0,0.0,0.022,-0.381,0.623,0.0,0.0,0.623,34.991,34.991,0.0,0.0,0.0,97.266,96.875,0.0,0.0,26.25,26.125,0.0,0.0,0.0,0.2,90.0,76.75,0.109,27.188,0x00000000,0x00000000,0x00000000,0.0,1246,1279,4.756,5.768,0.0,0.0,0.036,0.039,0.0,0.0,1.0,0.981,0.981,0.981,0.196,1.0,1.0,0.462,0.584,0.57,24.267,0x00000101,192.168.0.40,8080,255.255.255.0,192.168.0.1,0xFFFFFFFF,0xFFFFFFFF,0xFFFFFFFF,0x00000000,
4.38283491135,0x00000000,0x00000000,0x00000000,0x00000000,0x00000000,0x00000000,0x00000000,0x00000000,43.79,4,0x00000000,96.875,98.039,0.005,0.013,-0.029,-0.008,0.005,0.671,0.573,0.209,0.314,3.39,0x00000003,1.0,1.0,0.177,-0.005,0.182,-0.037,0.044,0.0,0.0,-0.191,0.232,0.0,0.0,0.022,-1.157,1.119,0.0,0.0,-1.157,34.991,34.991,0.0,0.0,0.0,97.266,96.875,0.0,0.0,26.25,26.125,0.0,0.0,0.0,0.2,90.0,76.75,0.109,27.188,0x00000000,0x00000000,0x00000000,0.0,1246,1279,4.143,4.824,0.0,0.0,0.036,0.039,0.0,0.0,1.0,0.981,0.981,0.981,0.196,1.0,1.0,0.462,0.584,0.57,24.267,0x00000101,192.168.0.40,8080,255.255.255.0,192.168.0.1,0xFFFFFFFF,0xFFFFFFFF,0xFFFFFFFF,0x00000000,
