Time_stamp,fault_status_word_1,fault_status_word_2,fault_status_word_3,fault_status_word_4,mcu_0_fault_status,mcu_1_fault_status,mcu_2_fault_status,mcu_3_fault_status,operational_time,operational_state,dynamic_response,min_propulsion_batt_soc,aux_batt_soc,inertial_x_acc_g,inertial_y_acc_g,inertial_x_rate_rps,inertial_y_rate_rps,inertial_z_rate_rps,pse_pitch_deg,pse_pitch_rate_dps,pse_roll_deg,pse_roll_rate_dps,pse_yaw_rate_dps,pse_data_is_valid,yaw_rate_limit_rps,vel_limit_mps,linear_accel_mps2,linear_vel_mps,differential_wheel_vel_rps,right_front_vel_mps,left_front_vel_mps,right_rear_vel_mps,left_rear_vel_mps,right_front_pos_m,left_front_pos_m,right_rear_pos_m,left_rear_pos_m,linear_pos_m,right_front_current_A0pk,left_front_current_A0pk,right_rear_current_A0pk,left_rear_current_A0pk,max_motor_current_A0pk,right_front_current_limit_A0pk,left_front_current_limit_A0pk,right_rear_current_limit_A0pk,left_rear_current_limit_A0pk,min_motor_current_limit_A0pk,front_base_batt_1_soc,front_base_batt_2_soc,rear_base_batt_1_soc,rear_base_batt_2_soc,front_base_batt_1_temp_degC,front_base_batt_2_temp_degC,rear_base_batt_1_temp_degC,rear_base_batt_2_temp_degC,vel_target_mps,yaw_rate_target_rps,angle_target_deg,aux_batt_voltage_V,aux_batt_current_A,aux_batt_temp_degC,abb_system_status,aux_batt_status,aux_batt_faults,7p2V_battery_voltage,ccu_sp_sw_build_id,ccu_uip_sw_build_id,mcu_0_inst_power_W,mcu_1_inst_power_W,mcu_2_inst_power_W,mcu_3_inst_power_W,mcu_0_total_energy_Wh,mcu_1_total_energy_Wh,mcu_2_total_energy_Wh,mcu_3_total_energy_Wh,fram_vel_limit_mps,fram_accel_limit_mps2,fram_decel_limit_mps2,fram_dtz_decel_limit_mps2,fram_coastdown_decel_mps2,fram_yaw_rate_limit_rps,fram_yaw_accel_limit_rps2,fram_tire_diameter_m,fram_wheelbase_length_m,fram_wheel_track_width_m,fram_transmission_ratio,fram_config_bitmap,fram_eth_ip_address,fram_eth_port_number,fram_eth_subnet_mask,fram_eth_gateway,user_feedback_bitmap_1,user_feedback_bitmap_2,user_feedback_bitmap_3,user_feedback_bitmap_4,
0.0768349170685,0x00000000,0x00000000,0x00000000,0x00000000,0x00000000,0x00000000,0x00000000,0x00000000,16.17,3,0x00000000,96.484,97.647,0.002,-0.088,-0.019,-0.017,-0.006,-5.075,-0.211,-1.697,-0.152,-0.371,0x00000003,0.0,0.0,0.001,-0.0,0.001,-0.001,0.001,0.0,0.0,0.002,-0.0,0.0,0.0,0.0,-0.763,0.025,0.0,0.0,-0.763,34.991,34.991,0.0,0.0,0.0,96.875,96.484,0.0,0.0,26.438,26.25,0.0,0.0,0.0,0.0,90.0,76.703,0.109,27.438,0x00000000,0x00000000,0x00000000,0.0,1246,1279,1.426,9.519,0.0,0.0,0.007,0.019,0.0,0.0,1.0,0.981,0.981,0.981,0.196,1.0,1.0,0.462,0.584,0.57,24.267,0x00000101,192.168.0.40,8080,255.255.255.0,192.168.0.1,0xFFFFFFFF,0xFFFFFFFF,0xFFFFFFFF,0x00000000,
0.126920938492,0x00000000,0x00000000,0x00000000,0x00000000,0x00000000,0x00000000,0x00000000,0x00000000,16.22,3,0x00000000,96.484,97.647,0.001,-0.087,-0.026,-0.025,-0.025,-5.067,0.019,-1.666,-0.424,-0.722,0x00000003,0.0,0.0,-0.007,-0.0,0.003,-0.002,0.001,0.0,0.0,0.002,-0.0,0.0,0.0,0.0,-0.712,0.025,0.0,0.0,-0.712,34.991,34.991,0.0,0.0,0.0,96.875,96.484,0.0,0.0,26.438,26.25,0.0,0.0,0.0,0.0,90.0,76.703,0.109,27.438,0x00000000,0x00000000,0x00000000,0.0,1246,1279,3.946,9.561,0.0,0.0,0.007,0.019,0.0,0.0,1.0,0.981,0.981,0.981,0.196,1.0,1.0,0.462,0.584,0.57,24.267,0x00000101,192.168.0.40,8080,255.255.255.0,192.168.0.1,0xFFFFFFFF,0xFFFFFFFF,0xFFFFFFFF,0x00000000,
0.17698597908,0x00000000,0x00000000,0x00000000,0x00000000,0x00000000,0x00000000,0x00000000,0x00000000,16.27,3,0x00000000,96.484,97.647,0.001,-0.088,-0.02,-0.03,-0.006,-5.059,0.492,-1.668,-0.311,0.648,0x00000003,0.0,0.0,0.009,-0.0,0.002,-0.0,0.001,0.0,0.0,0.002,-0.0,0.0,0.0,0.0,-0.763,-0.089,0.0,0.0,-0.763,34.991,34.991,0.0,0.0,0.0,96.875,96.484,0.0,0.0,26.438,26.25,0.0,0.0,0.0,0.0,90.0,76.703,0.109,27.438,0x00000000,0x00000000,0x00000000,0.0,1246,1279,-0.391,9.704,0.0,0.0,0.007,0.019,0.0,0.0,1.0,0.981,0.981,0.981,0.196,1.0,1.0,0.462,0.584,0.57,24.267,0x00000101,192.168.0.40,8080,255.255.255.0,192.168.0.1,0xFFFFFFFF,0xFFFFFFFF,0xFFFFFFFF,0x00000000,
0.227089881897,0x00000000,0x00000000,0x00000000,0x00000000,0x00000000,0x00000000,0x00000000,0x00000000,16.32,3,0x00000000,96.484,97.647,0.002,-0.088,-0.013,-0.008,-0.025,-5.044,0.692,-1.68,-0.774,-2.135,0x00000003,0.0,0.0,-0.013,-0.0,0.002,-0.002,0.0,0.0,0.0,0.002,-0.0,0.0,0.0,0.0,-0.75,0.114,0.0,0.0,-0.75,34.991,34.991,0.0,0.0,0.0,96.875,96.484,0.0,0.0,26.438,26.25,0.0,0.0,0.0,0.0,90.0,76.703,0.109,27.438,0x00000000,0x00000000,0x00000000,0.0,1246,1279,2.171,9.539,0.0,0.0,0.007,0.019,0.0,0.0,1.0,0.981,0.981,0.981,0.196,1.0,1.0,0.462,0.584,0.57,24.267,0x00000101,192.168.0.40,8080,255.255.255.0,192.168.0.1,0xFFFFFFFF,0xFFFFFFFF,0xFFFFFFFF,0x00000000,
0.277156829834,0x00000000,0x00000000,0x00000000,0x00000000,0x00000000,0x00000000,0x00000000,0x00000000,16.37,3,0x00000000,96.484,97.647,0.001,-0.088,-0.014,-0.017,-0.019,-5.037,-0.67,-1.669,-0.785,0.686,0x00000003,0.0,0.0,-0.003,-0.0,0.003,-0.001,0.0,0.0,0.0,0.002,-0.0,0.0,0.0,0.0,-0.865,0.114,0.0,0.0,-0.865,34.991,34.991,0.0,0.0,0.0,96.875,96.484,0.0,0.0,26.438,26.25,0.0,0.0,0.0,0.0,90.0,76.703,0.109,27.438,0x00000000,0x00000000,0x00000000,0.0,1246,1279,4.656,9.259,0.0,0.0,0.007,0.019,0.0,0.0,1.0,0.981,0.981,0.981,0.196,1.0,1.0,0.462,0.584,0.57,24.267,0x00000101,192.168.0.40,8080,255.255.255.0,192.168.0.1,0xFFFFFFFF,0xFFFFFFFF,0xFFFFFFFF,0x00000000,
0.327223062515,0x00000000,0x00000000,0x00000000,0x00000000,0x00000000,0x00000000,0x00000000,0x00000000,16.42,3,0x00000000,96.484,97.647,0.002,-0.088,0.0,-0.039,-0.024,-5.018,0.394,-1.66,-0.432,-1.076,0x00000003,0.0,0.0,-0.001,-0.0,0.002,-0.001,0.0,0.0,0.0,0.002,-0.0,0.0,0.0,0.0,-0.852,0.051,0.0,0.0,-0.852,34.991,34.991,0.0,0.0,0.0,96.875,96.484,0.0,0.0,26.438,26.25,0.0,0.0,0.0,0.0,90.0,76.703,0.109,27.438,0x00000000,0x00000000,0x00000000,0.0,1246,1279,2.029,5.935,0.0,0.0,0.007,0.02,0.0,0.0,1.0,0.981,0.981,0.981,0.196,1.0,1.0,0.462,0.584,0.57,24.267,0x00000101,192.168.0.40,8080,255.255.255.0,192.168.0.1,0xFFFFFFFF,0xFFFFFFFF,0xFFFFFFFF,0x00000000,
0.377331018448,0x00000000,0x00000000,0x00000000,0x00000000,0x00000000,0x00000000,0x00000000,0x00000000,16.47,3,0x00000000,96.484,97.647,0.002,-0.088,-0.019,-0.017,-0.006,-5.011,0.372,-1.646,0.124,-0.38,0x00000003,0.0,0.0,-0.003,-0.0,0.002,-0.001,0.0,0.0,0.0,0.002,-0.0,0.0,0.0,0.0,-0.852,0.025,0.0,0.0,-0.852,34.991,34.991,0.0,0.0,0.0,96.875,96.484,0.0,0.0,26.438,26.25,0.0,0.0,0.0,0.0,90.0,76.703,0.109,27.438,0x00000000,0x00000000,0x00000000,0.0,1246,1279,4.287,8.418,0.0,0.0,0.007,0.02,0.0,0.0,1.0,0.981,0.981,0.981,0.196,1.0,1.0,0.462,0.584,0.57,24.267,0x00000101,192.168.0.40,8080,255.255.255.0,192.168.0.1,0xFFFFFFFF,0xFFFFFFFF,0xFFFFFFFF,0x00000000,
0.427407026291,0x00000000,0x00000000,0x00000000,0x00000000,0x00000000,0x00000000,0x00000000,0x00000000,16.52,3,0x00000000,96.484,97.647,0.001,-0.088,-0.018,-0.017,-0.031,-5.026,-0.535,-1.618,-0.16,-1.061,0x00000003,0.0,0.0,-0.006,-0.0,0.003,-0.001,0.0,0.0,0.0,0.002,-0.0,0.0,0.0,0.0,-0.712,0.025,0.0,0.0,-0.712,34.991,34.991,0.0,0.0,0.0,96.875,96.484,0.0,0.0,26.438,26.25,0.0,0.0,0.0,0.0,90.0,76.703,0.109,27.438,0x00000000,0x00000000,0x00000000,0.0,1246,1279,4.745,8.317,0.0,0.0,0.007,0.02,0.0,0.0,1.0,0.981,0.981,0.981,0.196,1.0,1.0,0.462,0.584,0.57,24.267,0x00000101,192.168.0.40,8080,255.255.255.0,192.168.0.1,0xFFFFFFFF,0xFFFFFFFF,0xFFFFFFFF,0x00000000,
0.477493047714,0x00000000,0x00000000,0x00000000,0x00000000,0x00000000,0x00000000,0x00000000,0x00000000,16.57,3,0x00000000,96.484,97.647,0.001,-0.088,-0.016,-0.012,-0.019,-5.029,0.086,-1.6,-0.438,-1.414,0x00000003,0.0,0.0,-0.004,-0.0,0.003,-0.002,0.001,0.0,0.0,0.002,-0.0,0.0,0.0,0.0,-0.852,0.229,0.0,0.0,-0.852,34.991,34.991,0.0,0.0,0.0,96.875,96.484,0.0,0.0,26.438,26.25,0.0,0.0,0.0,0.0,90.0,76.703,0.109,27.438,0x00000000,0x00000000,0x00000000,0.0,1246,1279,3.729,6.754,0.0,0.0,0.007,0.02,0.0,0.0,1.0,0.981,0.981,0.981,0.196,1.0,1.0,0.462,0.584,0.57,24.267,0x00000101,192.168.0.40,8080,255.255.255.0,192.168.0.1,0xFFFFFFFF,0xFFFFFFFF,0xFFFFFFFF,0x00000000,
0.527552843094,0x00000000,0x00000000,0x00000000,0x00000000,0x00000000,0x00000000,0x00000000,0x00000000,16.62,3,0x00000000,96.484,97.647,0.001,-0.087,-0.013,-0.025,-0.037,-5.023,0.744,-1.586,-0.526,0.666,0x00000003,0.0,0.0,0.009,-0.0,0.003,-0.001,0.001,0.0,0.0,0.002,-0.0,0.0,0.0,0.0,-0.865,0.051,0.0,0.0,-0.865,34.991,34.991,0.0,0.0,0.0,96.875,96.484,0.0,0.0,26.438,26.25,0.0,0.0,0.0,0.0,90.0,76.703,0.109,27.438,0x00000000,0x00000000,0x00000000,0.0,1246,1279,3.455,8.615,0.0,0.0,0.007,0.02,0.0,0.0,1.0,0.981,0.981,0.981,0.196,1.0,1.0,0.462,0.584,0.57,24.267,0x00000101,192.168.0.40,8080,255.255.255.0,192.168.0.1,0xFFFFFFFF,0xFFFFFFFF,0xFFFFFFFF,0x00000000,
0.577637910843,0x00000000,0x00000000,0x00000000,0x00000000,0x00000000,0x00000000,0x00000000,0x00000000,16.67,3,0x00000000,96.484,97.647,0.001,-0.086,-0.012,-0.029,-0.055,-5.011,0.27,-1.564,0.504,1.015,0x00000003,0.0,0.0,0.006,-0.0,0.002,-0.0,0.0,0.0,0.0,0.002,-0.0,0.0,0.0,0.0,-0.852,0.025,0.0,0.0,-0.852,34.991,34.991,0.0,0.0,0.0,96.875,96.484,0.0,0.0,26.438,26.25,0.0,0.0,0.0,0.0,90.0,76.703,0.109,27.438,0x00000000,0x00000000,0x00000000,0.0,1246,1279,2.768,7.797,0.0,0.0,0.007,0.02,0.0,0.0,1.0,0.981,0.981,0.981,0.196,1.0,1.0,0.462,0.584,0.57,24.267,0x00000101,192.168.0.40,8080,255.255.255.0,192.168.0.1,0xFFFFFFFF,0xFFFFFFFF,0xFFFFFFFF,0x00000000,
0.627701997757,0x00000000,0x00000000,0x00000000,0x00000000,0x00000000,0x00000000,0x00000000,0x00000000,16.72,3,0x00000000,96.484,97.647,0.001,-0.088,-0.008,-0.038,-0.055,-4.982,0.65,-1.569,-0.235,-2.112,0x00000003,0.0,0.0,-0.005,-0.0,0.002,-0.001,0.0,0.0,0.0,0.002,-0.0,0.0,0.0,0.0,-0.75,-0.064,0.0,0.0,-0.75,34.991,34.991,0.0,0.0,0.0,96.875,96.484,0.0,0.0,26.438,26.25,0.0,0.0,0.0,0.0,90.0,76.703,0.109,27.438,0x00000000,0x00000000,0x00000000,0.0,1246,1279,2.307,9.276,0.0,0.0,0.007,0.02,0.0,0.0,1.0,0.981,0.981,0.981,0.196,1.0,1.0,0.462,0.584,0.57,24.267,0x00000101,192.168.0.40,8080,255.255.255.0,192.168.0.1,0xFFFFFFFF,0xFFFFFFFF,0xFFFFFFFF,0x00000000,
0.677795886993,0x00000000,0x00000000,0x00000000,0x00000000,0x00000000,0x00000000,0x00000000,0x00000000,16.77,3,0x00000000,96.484,97.647,0.0,-0.087,-0.012,-0.021,-0.012,-4.968,0.206,-1.579,-0.753,0.685,0x00000003,0.0,0.0,-0.004,-0.0,0.002,-0.001,0.0,0.0,0.0,0.002,-0.0,0.0,0.0,0.0,-0.763,0.14,0.0,0.0,-0.763,34.991,34.991,0.0,0.0,0.0,96.875,96.484,0.0,0.0,26.438,26.25,0.0,0.0,0.0,0.0,90.0,76.703,0.109,27.438,0x00000000,0x00000000,0x00000000,0.0,1246,1279,4.659,7.297,0.0,0.0,0.007,0.02,0.0,0.0,1.0,0.981,0.981,0.981,0.196,1.0,1.0,0.462,0.584,0.57,24.267,0x00000101,192.168.0.40,8080,255.255.255.0,192.168.0.1,0xFFFFFFFF,0xFFFFFFFF,0xFFFFFFFF,0x00000000,
0.72786283493,0x00000000,0x00000000,0x00000000,0x00000000,0x00000000,0x00000000,0x00000000,0x00000000,16.82,3,0x00000000,96.484,97.647,0.002,-0.087,-0.009,-0.008,-0.012,-4.958,0.15,-1.578,-1.024,0.348,0x00000003,0.0,0.0,0.002,-0.0,0.001,-0.0,0.0,0.0,0.0,0.002,-0.0,0.0,0.0,0.0,-0.763,0.025,0.0,0.0,-0.763,34.991,34.991,0.0,0.0,0.0,96.875,96.484,0.0,0.0,26.438,26.25,0.0,0.0,0.0,0.0,90.0,76.703,0.109,27.438,0x00000000,0x00000000,0x00000000,0.0,1246,1279,0.315,8.802,0.0,0.0,0.007,0.02,0.0,0.0,1.0,0.981,0.981,0.981,0.196,1.0,1.0,0.462,0.584,0.57,24.267,0x00000101,192.168.0.40,8080,255.255.255.0,192.168.0.1,0xFFFFFFFF,0xFFFFFFFF,0xFFFFFFFF,0x00000000,
0.777943849564,0x00000000,0x00000000,0x00000000,0x00000000,0x00000000,0x00000000,0x00000000,0x00000000,16.87,3,0x00000000,96.484,97.647,0.002,-0.086,-0.026,-0.025,-0.019,-4.943,0.132,-1.581,-0.548,-0.007,0x00000003,0.0,0.0,0.005,-0.0,0.002,-0.0,0.0,0.0,0.0,0.002,-0.0,0.0,0.0,0.0,-0.954,0.14,0.0,0.0,-0.954,34.991,34.991,0.0,0.0,0.0,96.875,96.484,0.0,0.0,26.438,26.25,0.0,0.0,0.0,0.0,90.0,76.703,0.109,27.438,0x00000000,0x00000000,0x00000000,0.0,1246,1279,0.127,10.357,0.0,0.0,0.007,0.021,0.0,0.0,1.0,0.981,0.981,0.981,0.196,1.0,1.0,0.462,0.584,0.57,24.267,0x00000101,192.168.0.40,8080,255.255.255.0,192.168.0.1,0xFFFFFFFF,0xFFFFFFFF,0xFFFFFFFF,0x00000000,
0.828014850616,0x00000000,0x00000000,0x00000000,0x00000000,0x00000000,0x00000000,0x00000000,0x00000000,16.92,3,0x00000000,96.484,97.647,0.002,-0.087,-0.017,-0.004,-0.043,-4.931,-0.172,-1.585,-0.565,-0.348,0x00000003,0.0,0.0,0.003,-0.0,0.001,-0.0,0.0,0.0,0.0,0.002,-0.0,0.0,0.0,0.0,-0.75,-0.064,0.0,0.0,-0.75,34.991,34.991,0.0,0.0,0.0,96.875,96.484,0.0,0.0,26.438,26.25,0.0,0.0,0.0,0.0,90.0,76.703,0.109,27.438,0x00000000,0x00000000,0x00000000,0.0,1246,1279,4.565,9.229,0.0,0.0,0.007,0.021,0.0,0.0,1.0,0.981,0.981,0.981,0.196,1.0,1.0,0.462,0.584,0.57,24.267,0x00000101,192.168.0.40,8080,255.255.255.0,192.168.0.1,0xFFFFFFFF,0xFFFFFFFF,0xFFFFFFFF,0x00000000,
0.878141880035,0x00000000,0x00000000,0x00000000,0x00000000,0x00000000,0x00000000,0x00000000,0x00000000,16.97,3,0x00000000,96.484,97.647,0.001,-0.087,-0.015,-0.017,-0.031,-4.929,0.452,-1.589,-0.92,-1.752,0x00000003,0.0,0.0,-0.006,-0.0,0.001,-0.001,0.0,0.0,0.0,0.002,-0.0,0.0,0.0,0.0,-0.75,0.025,0.0,0.0,-0.75,34.991,34.991,0.0,0.0,0.0,96.875,96.484,0.0,0.0,26.438,26.25,0.0,0.0,0.0,0.0,90.0,76.703,0.109,27.438,0x00000000,0x00000000,0x00000000,0.0,1246,1279,4.757,8.152,0.0,0.0,0.007,0.021,0.0,0.0,1.0,0.981,0.981,0.981,0.196,1.0,1.0,0.462,0.584,0.57,24.267,0x00000101,192.168.0.40,8080,255.255.255.0,192.168.0.1,0xFFFFFFFF,0xFFFFFFFF,0xFFFFFFFF,0x00000000,
0.928185939789,0x00000000,0x00000000,0x00000000,0x00000000,0x00000000,0x00000000,0x00000000,0x00000000,17.02,3,0x00000000,96.484,97.647,0.001,-0.088,-0.017,-0.021,-0.031,-4.924,-0.053,-1.568,-0.856,-1.039,0x00000003,0.0,0.0,-0.005,-0.0,0.001,-0.001,0.0,0.0,0.0,0.002,-0.0,0.0,0.0,0.0,-0.725,0.025,0.0,0.0,-0.725,34.991,34.991,0.0,0.0,0.0,96.875,96.484,0.0,0.0,26.438,26.25,0.0,0.0,0.0,0.0,90.0,76.703,0.109,27.438,0x00000000,0x00000000,0x00000000,0.0,1246,1279,2.033,7.948,0.0,0.0,0.007,0.021,0.0,0.0,1.0,0.981,0.981,0.981,0.196,1.0,1.0,0.462,0.584,0.57,24.267,0x00000101,192.168.0.40,8080,255.255.255.0,192.168.0.1,0xFFFFFFFF,0xFFFFFFFF,0xFFFFFFFF,0x00000000,
0.978262901306,0x00000000,0x00000000,0x00000000,0x00000000,0x00000000,0x00000000,0x00000000,0x00000000,17.07,3,0x00000000,96.484,97.647,0.002,-0.087,-0.019,-0.021,-0.0,-4.921,-0.045,-1.583,-1.788,-0.345,0x00000003,0.0,0.0,0.002,-0.0,0.001,-0.001,0.0,0.0,0.0,0.002,-0.0,0.0,0.0,0.0,-0.865,0.025,0.0,0.0,-0.865,34.991,34.991,0.0,0.0,0.0,96.875,96.484,0.0,0.0,26.438,26.25,0.0,0.0,0.0,0.0,90.0,76.703,0.109,27.438,0x00000000,0x00000000,0x00000000,0.0,1246,1279,3.972,7.939,0.0,0.0,0.007,0.021,0.0,0.0,1.0,0.981,0.981,0.981,0.196,1.0,1.0,0.462,0.584,0.57,24.267,0x00000101,192.168.0.40,8080,255.255.255.0,192.168.0.1,0xFFFFFFFF,0xFFFFFFFF,0xFFFFFFFF,0x00000000,
1.02834796906,0x00000000,0x00000000,0x00000000,0x00000000,0x00000000,0x00000000,0x00000000,0x00000000,17.12,3,0x00000000,96.484,97.647,0.001,-0.087,-0.009,-0.013,-0.018,-4.922,-0.192,-1.553,0.5,0.355,0x00000003,0.0,0.0,-0.006,-0.0,0.002,-0.002,0.001,0.0,0.0,0.002,-0.0,0.0,0.0,0.0,-0.75,0.14,0.0,0.0,-0.75,34.991,34.991,0.0,0.0,0.0,96.875,96.484,0.0,0.0,26.438,26.25,0.0,0.0,0.0,0.0,90.0,76.703,0.109,27.438,0x00000000,0x00000000,0x00000000,0.0,1246,1279,4.731,9.462,0.0,0.0,0.007,0.021,0.0,0.0,1.0,0.981,0.981,0.981,0.196,1.0,1.0,0.462,0.584,0.57,24.267,0x00000101,192.168.0.40,8080,255.255.255.0,192.168.0.1,0xFFFFFFFF,0xFFFFFFFF,0xFFFFFFFF,0x00000000,
1.07845401764,0x00000000,0x00000000,0x00000000,0x00000000,0x00000000,0x00000000,0x00000000,0x00000000,17.17,3,0x00000000,96.484,97.647,0.001,-0.088,-0.019,-0.017,-0.018,-4.919,0.054,-1.53,-0.32,-0.692,0x00000003,0.0,0.0,0.011,-0.0,0.003,-0.001,0.001,0.0,0.0,0.002,-0.0,0.0,0.0,0.0,-0.852,-0.089,0.0,0.0,-0.852,34.991,34.991,0.0,0.0,0.0,96.875,96.484,0.0,0.0,26.438,26.25,0.0,0.0,0.0,0.0,90.0,76.703,0.109,27.438,0x00000000,0x00000000,0x00000000,0.0,1246,1279,3.499,6.119,0.0,0.0,0.007,0.021,0.0,0.0,1.0,0.981,0.981,0.981,0.196,1.0,1.0,0.462,0.584,0.57,24.267,0x00000101,192.168.0.40,8080,255.255.255.0,192.168.0.1,0xFFFFFFFF,0xFFFFFFFF,0xFFFFFFFF,0x00000000,
1.13856983185,0x00000000,0x00000000,0x00000000,0x00000000,0x00000000,0x00000000,0x00000000,0x00000000,17.23,3,0x00000000,96.484,97.647,0.001,-0.088,-0.012,-0.026,-0.013,-4.912,0.438,-1.546,-1.311,-0.689,0x00000003,0.0,0.0,-0.004,-0.0,0.001,-0.001,0.0,0.0,0.0,0.002,-0.0,0.0,0.0,0.0,0.064,-0.089,0.0,0.0,-0.089,34.991,34.991,0.0,0.0,0.0,96.875,96.484,0.0,0.0,26.438,26.25,0.0,0.0,0.0,0.0,90.0,76.703,0.109,27.438,0x00000000,0x00000000,0x00000000,0.0,1246,1279,4.736,8.899,0.0,0.0,0.007,0.021,0.0,0.0,1.0,0.981,0.981,0.981,0.196,1.0,1.0,0.462,0.584,0.57,24.267,0x00000101,192.168.0.40,8080,255.255.255.0,192.168.0.1,0xFFFFFFFF,0xFFFFFFFF,0xFFFFFFFF,0x00000000,
1.1886138916,0x00000000,0x00000000,0x00000000,0x00000000,0x00000000,0x00000000,0x00000000,0x00000000,17.28,3,0x00000000,96.484,97.647,0.002,-0.088,-0.006,-0.013,-0.018,-4.904,0.435,-1.534,-0.589,-1.033,0x00000003,0.0,0.0,0.004,-0.0,0.001,-0.0,0.0,0.0,0.0,0.002,-0.0,0.0,0.0,0.0,0.318,0.852,0.0,0.0,0.852,34.991,34.991,0.0,0.0,0.0,96.875,96.484,0.0,0.0,26.438,26.25,0.0,0.0,0.0,0.0,90.0,76.703,0.109,27.438,0x00000000,0x00000000,0x00000000,0.0,1246,1279,0.318,7.281,0.0,0.0,0.007,0.021,0.0,0.0,1.0,0.981,0.981,0.981,0.196,1.0,1.0,0.462,0.584,0.57,24.267,0x00000101,192.168.0.40,8080,255.255.255.0,192.168.0.1,0xFFFFFFFF,0xFFFFFFFF,0xFFFFFFFF,0x00000000,
1.23869585991,0x00000000,0x00000000,0x00000000,0x00000000,0x00000000,0x00000000,0x00000000,0x00000000,17.33,3,0x00000000,96.484,97.647,0.001,-0.087,-0.011,-0.012,-0.025,-4.891,0.139,-1.514,-0.332,-1.029,0x00000003,0.0,0.0,-0.003,0.0,0.001,-0.0,0.0,0.0,0.0,0.002,-0.0,0.0,0.0,0.0,-0.191,1.157,0.0,0.0,1.157,34.991,34.991,0.0,0.0,0.0,96.875,96.484,0.0,0.0,26.438,26.25,0.0,0.0,0.0,0.0,90.0,76.703,0.109,27.438,0x00000000,0x00000000,0x00000000,0.0,1246,1279,4.573,9.583,0.0,0.0,0.008,0.022,0.0,0.0,1.0,0.981,0.981,0.981,0.196,1.0,1.0,0.462,0.584,0.57,24.267,0x00000101,192.168.0.40,8080,255.255.255.0,192.168.0.1,0xFFFFFFFF,0xFFFFFFFF,0xFFFFFFFF,0x00000000,
1.28876805305,0x00000000,0x00000000,0x00000000,0x00000000,0x00000000,0x00000000,0x00000000,0x00000000,17.38,3,0x00000000,96.484,97.647,0.002,-0.088,-0.012,-0.026,-0.018,-4.886,-0.127,-1.484,0.368,-1.721,0x00000003,0.0,0.0,-0.006,-0.0,0.001,-0.001,0.0,0.0,0.0,0.002,-0.0,0.0,0.0,0.0,-0.865,0.025,0.0,0.0,-0.865,34.991,34.991,0.0,0.0,0.0,96.875,96.484,0.0,0.0,26.438,26.25,0.0,0.0,0.0,0.0,90.0,76.703,0.109,27.438,0x00000000,0x00000000,0x00000000,0.0,1246,1279,4.757,9.533,0.0,0.0,0.008,0.022,0.0,0.0,1.0,0.981,0.981,0.981,0.196,1.0,1.0,0.462,0.584,0.57,24.267,0x00000101,192.168.0.40,8080,255.255.255.0,192.168.0.1,0xFFFFFFFF,0xFFFFFFFF,0xFFFFFFFF,0x00000000,
1.33885598183,0x00000000,0x00000000,0x00000000,0x00000000,0x00000000,0x00000000,0x00000000,0x00000000,17.43,3,0x00000000,96.484,97.647,0.001,-0.088,-0.015,-0.017,-0.018,-4.877,0.396,-1.481,-0.27,-0.34,0x00000003,0.0,0.0,0.003,-0.0,0.001,-0.0,0.0,0.0,0.0,0.002,-0.0,0.0,0.0,0.0,-0.852,-0.089,0.0,0.0,-0.852,34.991,34.991,0.0,0.0,0.0,96.875,96.484,0.0,0.0,26.438,26.25,0.0,0.0,0.0,0.0,90.0,76.703,0.109,27.438,0x00000000,0x00000000,0x00000000,0.0,1246,1279,-2.053,9.194,0.0,0.0,0.008,0.022,0.0,0.0,1.0,0.981,0.981,0.981,0.196,1.0,1.0,0.462,0.584,0.57,24.267,0x00000101,192.168.0.40,8080,255.255.255.0,192.168.0.1,0xFFFFFFFF,0xFFFFFFFF,0xFFFFFFFF,0x00000000,
1.38891983032,0x00000000,0x00000000,0x00000000,0x00000000,0x00000000,0x00000000,0x00000000,0x00000000,17.48,3,0x00000000,96.484,97.647,0.0,-0.088,-0.008,-0.039,0.012,-4.867,0.441,-1.452,0.307,0.708,0x00000003,0.0,0.0,-0.001,0.0,0.002,-0.0,0.0,0.0,0.0,0.002,-0.0,0.0,0.0,0.0,-0.661,0.025,0.0,0.0,-0.661,34.991,34.991,0.0,0.0,0.0,96.875,96.484,0.0,0.0,26.438,26.25,0.0,0.0,0.0,0.0,90.0,76.703,0.109,27.438,0x00000000,0x00000000,0x00000000,0.0,1246,1279,4.471,8.151,0.0,0.0,0.008,0.022,0.0,0.0,1.0,0.981,0.981,0.981,0.196,1.0,1.0,0.462,0.584,0.57,24.267,0x00000101,192.168.0.40,8080,255.255.255.0,192.168.0.1,0xFFFFFFFF,0xFFFFFFFF,0xFFFFFFFF,0x00000000,
1.43900895119,0x00000000,0x00000000,0x00000000,0x00000000,0x00000000,0x00000000,0x00000000,0x00000000,17.53,3,0x00000000,96.484,97.647,0.002,-0.087,-0.005,-0.017,-0.024,-4.856,0.245,-1.464,0.209,-0.676,0x00000003,0.0,0.0,-0.016,-0.0,0.003,-0.002,0.001,0.0,0.0,0.002,-0.0,0.0,0.0,0.0,-0.712,0.051,0.0,0.0,-0.712,34.991,34.991,0.0,0.0,0.0,96.875,96.484,0.0,0.0,26.438,26.25,0.0,0.0,0.0,0.0,90.0,76.703,0.109,27.438,0x00000000,0x00000000,0x00000000,0.0,1246,1279,0.306,11.211,0.0,0.0,0.008,0.022,0.0,0.0,1.0,0.981,0.981,0.981,0.196,1.0,1.0,0.462,0.584,0.57,24.267,0x00000101,192.168.0.40,8080,255.255.255.0,192.168.0.1,0xFFFFFFFF,0xFFFFFFFF,0xFFFFFFFF,0x00000000,
1.48909902573,0x00000000,0x00000000,0x00000000,0x00000000,0x00000000,0x00000000,0x00000000,0x00000000,17.58,3,0x00000000,96.484,97.647,0.0,-0.088,-0.015,-0.021,-0.024,-4.847,0.274,-1.449,-1.377,-2.063,0x00000003,0.0,0.0,0.002,-0.0,0.002,-0.0,0.0,0.0,0.0,0.002,-0.0,0.0,0.0,0.0,-0.852,0.14,0.0,0.0,-0.852,34.991,34.991,0.0,0.0,0.0,96.875,96.484,0.0,0.0,26.438,26.25,0.0,0.0,0.0,0.0,90.0,76.703,0.109,27.438,0x00000000,0x00000000,0x00000000,0.0,1246,1279,4.573,7.785,0.0,0.0,0.008,0.022,0.0,0.0,1.0,0.981,0.981,0.981,0.196,1.0,1.0,0.462,0.584,0.57,24.267,0x00000101,192.168.0.40,8080,255.255.255.0,192.168.0.1,0xFFFFFFFF,0xFFFFFFFF,0xFFFFFFFF,0x00000000,
1.53931593895,0x00000000,0x00000000,0x00000000,0x00000000,0x00000000,0x00000000,0x00000000,0x00000000,17.63,3,0x00000000,96.484,97.647,0.002,-0.087,-0.006,-0.008,-0.0,-4.844,0.573,-1.44,-0.634,-2.063,0x00000003,0.0,0.0,0.002,-0.0,0.002,-0.0,0.0,0.0,0.0,0.002,-0.0,0.0,0.0,0.0,-0.75,0.025,0.0,0.0,-0.75,34.991,34.991,0.0,0.0,0.0,96.875,96.484,0.0,0.0,26.438,26.25,0.0,0.0,0.0,0.0,90.0,76.703,0.109,27.438,0x00000000,0x00000000,0x00000000,0.0,1246,1279,2.385,12.379,0.0,0.0,0.008,0.022,0.0,0.0,1.0,0.981,0.981,0.981,0.196,1.0,1.0,0.462,0.584,0.57,24.267,0x00000101,192.168.0.40,8080,255.255.255.0,192.168.0.1,0xFFFFFFFF,0xFFFFFFFF,0xFFFFFFFF,0x00000000,
1.58936095238,0x00000000,0x00000000,0x00000000,0x00000000,0x00000000,0x00000000,0x00000000,0x00000000,17.68,3,0x00000000,96.484,97.647,0.001,-0.087,-0.017,-0.03,-0.043,-4.827,0.267,-1.424,-1.262,-0.672,0x00000003,0.0,0.0,0.004,-0.0,0.002,-0.0,0.0,0.0,0.0,0.002,-0.0,0.0,0.0,0.0,-0.75,0.051,0.0,0.0,-0.75,34.991,34.991,0.0,0.0,0.0,96.875,96.484,0.0,0.0,26.438,26.25,0.0,0.0,0.0,0.0,90.0,76.703,0.109,27.438,0x00000000,0x00000000,0x00000000,0.0,1246,1279,0.216,8.468,0.0,0.0,0.008,0.023,0.0,0.0,1.0,0.981,0.981,0.981,0.196,1.0,1.0,0.462,0.584,0.57,24.267,0x00000101,192.168.0.40,8080,255.255.255.0,192.168.0.1,0xFFFFFFFF,0xFFFFFFFF,0xFFFFFFFF,0x00000000,
1.63946390152,0x00000000,0x00000000,0x00000000,0x00000000,0x00000000,0x00000000,0x00000000,0x00000000,17.73,3,0x00000000,96.484,97.647,0.003,-0.087,-0.017,-0.017,-0.025,-4.834,-0.312,-1.423,-1.004,-0.656,0x00000003,0.0,0.0,0.005,0.0,-0.0,0.001,0.0,0.0,0.0,0.002,-0.0,0.0,0.0,0.0,-0.75,0.14,0.0,0.0,-0.75,34.991,34.991,0.0,0.0,0.0,96.875,96.484,0.0,0.0,26.438,26.25,0.0,0.0,0.0,0.0,90.0,76.703,0.109,27.438,0x00000000,0x00000000,0x00000000,0.0,1246,1279,-0.238,7.329,0.0,0.0,0.008,0.023,0.0,0.0,1.0,0.981,0.981,0.981,0.196,1.0,1.0,0.462,0.584,0.57,24.267,0x00000101,192.168.0.40,8080,255.255.255.0,192.168.0.1,0xFFFFFFFF,0xFFFFFFFF,0xFFFFFFFF,0x00000000,
1.6894030571,0x00000000,0x00000000,0x00000000,0x00000000,0x00000000,0x00000000,0x00000000,0x00000000,17.78,3,0x00000000,96.484,97.647,0.001,-0.088,-0.01,-0.026,-0.012,-4.829,0.255,-1.424,-1.031,-1.01,0x00000003,0.0,0.0,-0.003,-0.0,0.001,-0.001,0.0,0.0,0.0,0.002,-0.0,0.0,0.0,0.0,-0.865,0.14,0.0,0.0,-0.865,34.991,34.991,0.0,0.0,0.0,96.875,96.484,0.0,0.0,26.438,26.25,0.0,0.0,0.0,0.0,90.0,76.703,0.109,27.438,0x00000000,0x00000000,0x00000000,0.0,1246,1279,-0.257,11.175,0.0,0.0,0.008,0.023,0.0,0.0,1.0,0.981,0.981,0.981,0.196,1.0,1.0,0.462,0.584,0.57,24.267,0x00000101,192.168.0.40,8080,255.255.255.0,192.168.0.1,0xFFFFFFFF,0xFFFFFFFF,0xFFFFFFFF,0x00000000,
1.73947501183,0x00000000,0x00000000,0x00000000,0x00000000,0x00000000,0x00000000,0x00000000,0x00000000,17.83,3,0x00000000,96.484,97.647,0.001,-0.087,-0.021,-0.025,-0.012,-4.824,-0.009,-1.419,0.24,-0.65,0x00000003,0.0,0.0,0.003,0.0,0.0,0.0,0.0,0.0,0.0,0.002,-0.0,0.0,0.0,0.0,-0.75,0.025,0.0,0.0,-0.75,34.991,34.991,0.0,0.0,0.0,96.875,96.484,0.0,0.0,26.438,26.25,0.0,0.0,0.0,0.0,90.0,76.703,0.109,27.438,0x00000000,0x00000000,0x00000000,0.0,1246,1279,4.188,9.602,0.0,0.0,0.008,0.023,0.0,0.0,1.0,0.981,0.981,0.981,0.196,1.0,1.0,0.462,0.584,0.57,24.267,0x00000101,192.168.0.40,8080,255.255.255.0,192.168.0.1,0xFFFFFFFF,0xFFFFFFFF,0xFFFFFFFF,0x00000000,
1.78955793381,0x00000000,0x00000000,0x00000000,0x00000000,0x00000000,0x00000000,0x00000000,0x00000000,17.88,3,0x00000000,96.484,97.647,0.001,-0.087,-0.009,-0.021,-0.006,-4.825,0.075,-1.433,-2.283,-1.354,0x00000003,0.0,0.0,-0.009,-0.0,0.001,-0.001,-0.0,0.0,0.0,0.002,-0.0,0.0,0.0,0.0,-0.75,0.025,0.0,0.0,-0.75,34.991,34.991,0.0,0.0,0.0,96.875,96.484,0.0,0.0,26.438,26.25,0.0,0.0,0.0,0.0,90.0,76.703,0.109,27.438,0x00000000,0x00000000,0x00000000,0.0,1246,1279,4.381,8.355,0.0,0.0,0.008,0.023,0.0,0.0,1.0,0.981,0.981,0.981,0.196,1.0,1.0,0.462,0.584,0.57,24.267,0x00000101,192.168.0.40,8080,255.255.255.0,192.168.0.1,0xFFFFFFFF,0xFFFFFFFF,0xFFFFFFFF,0x00000000,
1.83964586258,0x00000000,0x00000000,0x00000000,0x00000000,0x00000000,0x00000000,0x00000000,0x00000000,17.93,3,0x00000000,96.484,97.647,0.001,-0.088,0.005,-0.043,-0.031,-4.817,-0.534,-1.43,-0.539,-1.335,0x00000003,0.0,0.0,-0.006,-0.0,0.001,-0.001,-0.0,0.0,0.0,0.002,-0.0,0.0,0.0,0.0,-0.737,0.025,0.0,0.0,-0.737,34.991,34.991,0.0,0.0,0.0,96.875,96.484,0.0,0.0,26.438,26.25,0.0,0.0,0.0,0.0,90.0,76.703,0.109,27.438,0x00000000,0x00000000,0x00000000,0.0,1246,1279,4.749,6.626,0.0,0.0,0.008,0.023,0.0,0.0,1.0,0.981,0.981,0.981,0.196,1.0,1.0,0.462,0.584,0.57,24.267,0x00000101,192.168.0.40,8080,255.255.255.0,192.168.0.1,0xFFFFFFFF,0xFFFFFFFF,0xFFFFFFFF,0x00000000,
1.88972187042,0x00000000,0x00000000,0x00000000,0x00000000,0x00000000,0x00000000,0x00000000,0x00000000,17.98,3,0x00000000,96.484,97.647,0.001,-0.088,-0.013,-0.008,-0.025,-4.805,-0.257,-1.436,-1.03,-1.344,0x00000003,0.0,0.0,0.003,-0.0,0.001,-0.0,-0.0,0.0,0.0,0.002,-0.0,0.0,0.0,0.0,-0.242,0.114,0.0,0.0,-0.242,34.991,34.991,0.0,0.0,0.0,96.875,96.484,0.0,0.0,26.438,26.25,0.0,0.0,0.0,0.0,90.0,76.703,0.109,27.438,0x00000000,0x00000000,0x00000000,0.0,1246,1279,-0.947,13.852,0.0,0.0,0.008,0.023,0.0,0.0,1.0,0.981,0.981,0.981,0.196,1.0,1.0,0.462,0.584,0.57,24.267,0x00000101,192.168.0.40,8080,255.255.255.0,192.168.0.1,0xFFFFFFFF,0xFFFFFFFF,0xFFFFFFFF,0x00000000,
1.93978595734,0x00000000,0x00000000,0x00000000,0x00000000,0x00000000,0x00000000,0x00000000,0x00000000,18.03,3,0x00000000,96.484,97.647,0.001,-0.087,-0.021,-0.008,-0.013,-4.805,0.053,-1.416,-1.225,-0.652,0x00000003,0.0,0.0,0.005,-0.0,0.0,-0.0,0.0,0.0,0.0,0.002,-0.0,0.0,0.0,0.0,-1.157,0.534,0.0,0.0,-1.157,34.991,34.991,0.0,0.0,0.0,96.875,96.484,0.0,0.0,26.438,26.25,0.0,0.0,0.0,0.0,90.0,76.703,0.109,27.438,0x00000000,0x00000000,0x00000000,0.0,1246,1279,0.206,9.38,0.0,0.0,0.008,0.023,0.0,0.0,1.0,0.981,0.981,0.981,0.196,1.0,1.0,0.462,0.584,0.57,24.267,0x00000101,192.168.0.40,8080,255.255.255.0,192.168.0.1,0xFFFFFFFF,0xFFFFFFFF,0xFFFFFFFF,0x00000000,
1.98988890648,0x00000000,0x00000000,0x00000000,0x00000000,0x00000000,0x00000000,0x00000000,0x00000000,18.08,3,0x00000000,96.484,97.647,0.001,-0.088,-0.013,-0.017,-0.043,-4.806,-0.106,-1.402,-0.425,0.052,0x00000003,0.0,0.0,0.005,-0.0,0.002,-0.001,0.001,0.0,0.0,0.002,-0.0,0.0,0.0,0.0,-1.589,0.127,0.0,0.0,-1.589,34.991,34.991,0.0,0.0,0.0,96.875,96.484,0.0,0.0,26.438,26.25,0.0,0.0,0.0,0.0,90.0,76.703,0.109,27.438,0x00000000,0x00000000,0x00000000,0.0,1246,1279,0.931,8.339,0.0,0.0,0.008,0.023,0.0,0.0,1.0,0.981,0.981,0.981,0.196,1.0,1.0,0.462,0.584,0.57,24.267,0x00000101,192.168.0.40,8080,255.255.255.0,192.168.0.1,0xFFFFFFFF,0xFFFFFFFF,0xFFFFFFFF,0x00000000,
2.03995895386,0x00000000,0x00000000,0x00000000,0x00000000,0x00000000,0x00000000,0x00000000,0x00000000,18.13,3,0x00000000,96.484,97.647,0.001,-0.088,-0.012,-0.004,-0.037,-4.803,0.259,-1.38,0.267,-0.648,0x00000003,0.0,0.0,0.001,-0.0,0.002,-0.001,0.001,0.0,0.0,0.002,-0.0,0.0,0.0,0.0,-0.865,0.025,0.0,0.0,-0.865,34.991,34.991,0.0,0.0,0.0,96.875,96.484,0.0,0.0,26.438,26.25,0.0,0.0,0.0,0.0,90.0,76.703,0.109,27.438,0x00000000,0x00000000,0x00000000,0.0,1246,1279,0.153,6.919,0.0,0.0,0.008,0.024,0.0,0.0,1.0,0.981,0.981,0.981,0.196,1.0,1.0,0.462,0.584,0.57,24.267,0x00000101,192.168.0.40,8080,255.255.255.0,192.168.0.1,0xFFFFFFFF,0xFFFFFFFF,0xFFFFFFFF,0x00000000,
2.09000396729,0x00000000,0x00000000,0x00000000,0x00000000,0x00000000,0x00000000,0x00000000,0x00000000,18.18,3,0x00000000,96.484,97.647,0.001,-0.088,-0.005,-0.017,-0.025,-4.795,0.34,-1.342,0.96,-1.335,0x00000003,0.0,0.0,0.004,0.0,0.002,-0.0,0.001,0.0,0.0,0.002,-0.0,0.0,0.0,0.0,-0.75,-0.064,0.0,0.0,-0.75,34.991,34.991,0.0,0.0,0.0,96.875,96.484,0.0,0.0,26.438,26.25,0.0,0.0,0.0,0.0,90.0,76.703,0.109,27.438,0x00000000,0x00000000,0x00000000,0.0,1246,1279,1.834,8.448,0.0,0.0,0.008,0.024,0.0,0.0,1.0,0.981,0.981,0.981,0.196,1.0,1.0,0.462,0.584,0.57,24.267,0x00000101,192.168.0.40,8080,255.255.255.0,192.168.0.1,0xFFFFFFFF,0xFFFFFFFF,0xFFFFFFFF,0x00000000,
2.14011287689,0x00000000,0x00000000,0x00000000,0x00000000,0x00000000,0x00000000,0x00000000,0x00000000,18.23,3,0x00000000,96.484,97.647,0.002,-0.088,-0.004,-0.034,-0.018,-4.78,0.134,-1.332,-0.739,-0.984,0x00000003,0.0,0.0,0.001,0.0,0.001,-0.0,0.0,0.0,0.0,0.002,-0.0,0.0,0.0,0.0,-0.941,0.025,0.0,0.0,-0.941,34.991,34.991,0.0,0.0,0.0,96.875,96.484,0.0,0.0,26.438,26.25,0.0,0.0,0.0,0.0,90.0,76.703,0.109,27.438,0x00000000,0x00000000,0x00000000,0.0,1246,1279,-1.073,6.255,0.0,0.0,0.008,0.024,0.0,0.0,1.0,0.981,0.981,0.981,0.196,1.0,1.0,0.462,0.584,0.57,24.267,0x00000101,192.168.0.40,8080,255.255.255.0,192.168.0.1,0xFFFFFFFF,0xFFFFFFFF,0xFFFFFFFF,0x00000000,
2.19018006325,0x00000000,0x00000000,0x00000000,0x00000000,0x00000000,0x00000000,0x00000000,0x00000000,18.28,3,0x00000000,96.484,97.647,0.002,-0.087,-0.026,-0.021,0.03,-4.763,0.875,-1.325,-0.718,-0.643,0x00000003,0.0,0.0,-0.001,-0.0,0.001,-0.0,-0.0,0.0,0.0,0.002,-0.0,0.0,0.0,0.0,-0.75,-0.064,0.0,0.0,-0.75,34.991,34.991,0.0,0.0,0.0,96.875,96.484,0.0,0.0,26.438,26.25,0.0,0.0,0.0,0.0,90.0,76.703,0.109,27.438,0x00000000,0x00000000,0x00000000,0.0,1246,1279,4.513,8.872,0.0,0.0,0.008,0.024,0.0,0.0,1.0,0.981,0.981,0.981,0.196,1.0,1.0,0.462,0.584,0.57,24.267,0x00000101,192.168.0.40,8080,255.255.255.0,192.168.0.1,0xFFFFFFFF,0xFFFFFFFF,0xFFFFFFFF,0x00000000,
2.24026203156,0x00000000,0x00000000,0x00000000,0x00000000,0x00000000,0x00000000,0x00000000,0x00000000,18.33,3,0x00000000,96.484,97.647,0.001,-0.088,-0.024,-0.017,-0.0,-4.773,0.047,-1.315,-0.133,0.415,0x00000003,0.0,0.0,0.003,0.0,0.0,-0.0,0.0,0.0,0.0,0.002,-0.0,0.0,0.0,0.0,-0.865,0.051,0.0,0.0,-0.865,34.991,34.991,0.0,0.0,0.0,96.875,96.484,0.0,0.0,26.438,26.25,0.0,0.0,0.0,0.0,90.0,76.703,0.109,27.438,0x00000000,0x00000000,0x00000000,0.0,1246,1279,1.707,9.863,0.0,0.0,0.008,0.024,0.0,0.0,1.0,0.981,0.981,0.981,0.196,1.0,1.0,0.462,0.584,0.57,24.267,0x00000101,192.168.0.40,8080,255.255.255.0,192.168.0.1,0xFFFFFFFF,0xFFFFFFFF,0xFFFFFFFF,0x00000000,
2.30052995682,0x00000000,0x00000000,0x00000000,0x00000000,0x00000000,0x00000000,0x00000000,0x00000000,18.39,3,0x00000000,96.484,97.647,0.002,-0.088,-0.02,-0.008,-0.049,-4.788,-0.145,-1.288,0.762,-0.972,0x00000003,0.0,0.0,-0.006,-0.0,0.0,-0.001,-0.0,0.0,0.0,0.002,-0.0,0.0,0.0,0.0,-0.865,0.025,0.0,0.0,-0.865,34.991,34.991,0.0,0.0,0.0,96.875,96.484,0.0,0.0,26.438,26.25,0.0,0.0,0.0,0.0,90.0,76.703,0.109,27.438,0x00000000,0x00000000,0x00000000,0.0,1246,1279,4.02,7.22,0.0,0.0,0.008,0.024,0.0,0.0,1.0,0.981,0.981,0.981,0.196,1.0,1.0,0.462,0.584,0.57,24.267,0x00000101,192.168.0.40,8080,255.255.255.0,192.168.0.1,0xFFFFFFFF,0xFFFFFFFF,0xFFFFFFFF,0x00000000,
2.35056591034,0x00000000,0x00000000,0x00000000,0x00000000,0x00000000,0x00000000,0x00000000,0x00000000,18.44,3,0x00000000,96.484,97.647,0.002,-0.087,-0.003,-0.026,-0.019,-4.79,0.688,-1.256,0.039,-0.63,0x00000003,0.0,0.0,0.004,0.0,0.001,-0.0,0.001,0.0,0.0,0.002,-0.0,0.0,0.0,0.0,-0.865,0.14,0.0,0.0,-0.865,34.991,34.991,0.0,0.0,0.0,96.875,96.484,0.0,0.0,26.438,26.25,0.0,0.0,0.0,0.0,90.0,76.703,0.109,27.438,0x00000000,0x00000000,0x00000000,0.0,1246,1279,2.793,9.094,0.0,0.0,0.008,0.024,0.0,0.0,1.0,0.981,0.981,0.981,0.196,1.0,1.0,0.462,0.584,0.57,24.267,0x00000101,192.168.0.40,8080,255.255.255.0,192.168.0.1,0xFFFFFFFF,0xFFFFFFFF,0xFFFFFFFF,0x00000000,
2.40053796768,0x00000000,0x00000000,0x00000000,0x00000000,0x00000000,0x00000000,0x00000000,0x00000000,18.49,3,0x00000000,96.484,97.647,0.002,-0.087,-0.02,-0.021,-0.019,-4.764,0.016,-1.269,-1.384,0.078,0x00000003,0.0,0.0,-0.0,0.0,0.001,-0.0,0.0,0.0,0.0,0.002,-0.0,0.0,0.0,0.0,-0.928,0.025,0.0,0.0,-0.928,34.991,34.991,0.0,0.0,0.0,96.875,96.484,0.0,0.0,26.438,26.25,0.0,0.0,0.0,0.0,90.0,76.703,0.109,27.438,0x00000000,0x00000000,0x00000000,0.0,1246,1279,4.68,9.512,0.0,0.0,0.008,0.024,0.0,0.0,1.0,0.981,0.981,0.981,0.196,1.0,1.0,0.462,0.584,0.57,24.267,0x00000101,192.168.0.40,8080,255.255.255.0,192.168.0.1,0xFFFFFFFF,0xFFFFFFFF,0xFFFFFFFF,0x00000000,
2.45061397552,0x00000000,0x00000000,0x00000000,0x00000000,0x00000000,0x00000000,0x00000000,0x00000000,18.54,3,0x00000000,96.484,97.647,0.001,-0.088,-0.007,-0.039,-0.012,-4.765,-0.104,-1.277,0.134,0.427,0x00000003,0.0,0.0,-0.0,0.0,0.001,-0.0,0.0,0.0,0.0,0.002,-0.0,0.0,0.0,0.0,-0.814,0.051,0.0,0.0,-0.814,34.991,34.991,0.0,0.0,0.0,96.875,96.484,0.0,0.0,26.438,26.25,0.0,0.0,0.0,0.0,90.0,76.703,0.109,27.438,0x00000000,0x00000000,0x00000000,0.0,1246,1279,3.496,7.85,0.0,0.0,0.008,0.025,0.0,0.0,1.0,0.981,0.981,0.981,0.196,1.0,1.0,0.462,0.584,0.57,24.267,0x00000101,192.168.0.40,8080,255.255.255.0,192.168.0.1,0xFFFFFFFF,0xFFFFFFFF,0xFFFFFFFF,0x00000000,
2.50065302849,0x00000000,0x00000000,0x00000000,0x00000000,0x00000000,0x00000000,0x00000000,0x00000000,18.59,3,0x00000000,96.484,97.647,0.001,-0.087,-0.004,-0.017,-0.037,-4.76,0.216,-1.296,-1.282,-2.015,0x00000003,0.0,0.0,0.002,0.0,0.001,-0.0,0.0,0.0,0.0,0.002,-0.0,0.0,0.0,0.0,-0.915,0.025,0.0,0.0,-0.915,34.991,34.991,0.0,0.0,0.0,96.875,96.484,0.0,0.0,26.438,26.25,0.0,0.0,0.0,0.0,90.0,76.703,0.109,27.438,0x00000000,0x00000000,0x00000000,0.0,1246,1279,2.339,5.878,0.0,0.0,0.008,0.025,0.0,0.0,1.0,0.981,0.981,0.981,0.196,1.0,1.0,0.462,0.584,0.57,24.267,0x00000101,192.168.0.40,8080,255.255.255.0,192.168.0.1,0xFFFFFFFF,0xFFFFFFFF,0xFFFFFFFF,0x00000000,
2.55077505112,0x00000000,0x00000000,0x00000000,0x00000000,0x00000000,0x00000000,0x00000000,0x00000000,18.64,3,0x00000000,96.484,97.647,0.001,-0.088,-0.016,-0.025,-0.043,-4.759,-0.364,-1.303,-0.1,0.427,0x00000003,0.0,0.0,0.004,0.0,0.001,-0.0,0.001,0.0,0.0,0.002,-0.0,0.0,0.0,0.0,-0.877,-0.064,0.0,0.0,-0.877,34.991,34.991,0.0,0.0,0.0,96.875,96.484,0.0,0.0,26.438,26.25,0.0,0.0,0.0,0.0,90.0,76.703,0.109,27.438,0x00000000,0x00000000,0x00000000,0.0,1246,1279,3.986,8.198,0.0,0.0,0.008,0.025,0.0,0.0,1.0,0.981,0.981,0.981,0.196,1.0,1.0,0.462,0.584,0.57,24.267,0x00000101,192.168.0.40,8080,255.255.255.0,192.168.0.1,0xFFFFFFFF,0xFFFFFFFF,0xFFFFFFFF,0x00000000,
2.60245084763,0x00000000,0x00000000,0x00000000,0x00000000,0x00000000,0x00000000,0x00000000,0x00000000,18.69,3,0x00000000,96.484,97.647,0.001,-0.088,-0.001,-0.012,-0.043,-4.746,0.461,-1.298,-0.18,-0.629,0x00000003,0.0,0.0,0.001,0.0,0.001,-0.0,0.0,0.0,0.0,0.002,-0.0,0.0,0.0,0.0,-0.865,0.025,0.0,0.0,-0.865,34.991,34.991,0.0,0.0,0.0,96.875,96.484,0.0,0.0,26.438,26.25,0.0,0.0,0.0,0.0,90.0,76.703,0.109,27.438,0x00000000,0x00000000,0x00000000,0.0,1246,1279,4.732,8.859,0.0,0.0,0.009,0.025,0.0,0.0,1.0,0.981,0.981,0.981,0.196,1.0,1.0,0.462,0.584,0.57,24.267,0x00000101,192.168.0.40,8080,255.255.255.0,192.168.0.1,0xFFFFFFFF,0xFFFFFFFF,0xFFFFFFFF,0x00000000,
2.65096402168,0x00000000,0x00000000,0x00000000,0x00000000,0x00000000,0x00000000,0x00000000,0x00000000,18.74,3,0x00000000,96.484,97.647,0.001,-0.088,-0.019,-0.021,0.012,-4.744,-0.023,-1.299,-0.172,-0.613,0x00000003,0.0,0.0,0.003,0.0,0.001,-0.0,0.001,0.0,0.0,0.002,-0.0,0.0,0.0,0.0,-0.445,-1.119,0.0,0.0,-1.119,34.991,34.991,0.0,0.0,0.0,96.875,96.484,0.0,0.0,26.438,26.25,0.0,0.0,0.0,0.0,90.0,76.703,0.109,27.438,0x00000000,0x00000000,0x00000000,0.0,1246,1279,4.764,9.174,0.0,0.0,0.009,0.025,0.0,0.0,1.0,0.981,0.981,0.981,0.196,1.0,1.0,0.462,0.584,0.57,24.267,0x00000101,192.168.0.40,8080,255.255.255.0,192.168.0.1,0xFFFFFFFF,0xFFFFFFFF,0xFFFFFFFF,0x00000000,
2.70096588135,0x00000000,0x00000000,0x00000000,0x00000000,0x00000000,0x00000000,0x00000000,0x00000000,18.79,3,0x00000000,96.484,97.647,0.001,-0.088,-0.013,-0.026,-0.0,-4.751,0.341,-1.29,-1.83,0.431,0x00000003,0.0,0.0,-0.003,-0.0,0.002,-0.001,0.0,0.0,0.0,0.002,-0.0,0.0,0.0,0.0,-1.373,-0.28,0.0,0.0,-1.373,34.991,34.991,0.0,0.0,0.0,96.875,96.484,0.0,0.0,26.438,26.25,0.0,0.0,0.0,0.0,90.0,76.703,0.109,27.438,0x00000000,0x00000000,0x00000000,0.0,1246,1279,4.766,8.172,0.0,0.0,0.009,0.025,0.0,0.0,1.0,0.981,0.981,0.981,0.196,1.0,1.0,0.462,0.584,0.57,24.267,0x00000101,192.168.0.40,8080,255.255.255.0,192.168.0.1,0xFFFFFFFF,0xFFFFFFFF,0xFFFFFFFF,0x00000000,
2.75108003616,0x00000000,0x00000000,0x00000000,0x00000000,0x00000000,0x00000000,0x00000000,0x00000000,18.84,3,0x00000000,96.484,97.647,0.002,-0.087,-0.018,-0.004,-0.013,-4.758,-0.31,-1.306,-0.879,-0.254,0x00000003,0.0,0.0,0.009,-0.0,0.003,-0.001,0.002,0.0,0.0,0.002,-0.0,0.0,0.0,0.0,-0.865,0.14,0.0,0.0,-0.865,34.991,34.991,0.0,0.0,0.0,96.875,96.484,0.0,0.0,26.438,26.25,0.0,0.0,0.0,0.0,90.0,76.703,0.109,27.438,0x00000000,0x00000000,0x00000000,0.0,1246,1279,0.319,8.435,0.0,0.0,0.009,0.025,0.0,0.0,1.0,0.981,0.981,0.981,0.196,1.0,1.0,0.462,0.584,0.57,24.267,0x00000101,192.168.0.40,8080,255.255.255.0,192.168.0.1,0xFFFFFFFF,0xFFFFFFFF,0xFFFFFFFF,0x00000000,
2.8011059761,0x00000000,0x00000000,0x00000000,0x00000000,0x00000000,0x00000000,0x00000000,0x00000000,18.89,3,0x00000000,96.484,97.647,0.002,-0.088,-0.021,-0.008,-0.025,-4.764,0.417,-1.295,-1.103,0.076,0x00000003,0.0,0.0,0.002,0.0,0.003,-0.0,0.001,0.0,0.0,0.002,-0.0,0.0,0.0,0.0,-0.865,0.14,0.0,0.0,-0.865,34.991,34.991,0.0,0.0,0.0,96.875,96.484,0.0,0.0,26.438,26.25,0.0,0.0,0.0,0.0,90.0,76.703,0.109,27.438,0x00000000,0x00000000,0x00000000,0.0,1246,1279,4.573,9.304,0.0,0.0,0.009,0.025,0.0,0.0,1.0,0.981,0.981,0.981,0.196,1.0,1.0,0.462,0.584,0.57,24.267,0x00000101,192.168.0.40,8080,255.255.255.0,192.168.0.1,0xFFFFFFFF,0xFFFFFFFF,0xFFFFFFFF,0x00000000,
2.85126495361,0x00000000,0x00000000,0x00000000,0x00000000,0x00000000,0x00000000,0x00000000,0x00000000,18.94,3,0x00000000,96.484,97.647,0.001,-0.088,-0.015,-0.012,-0.025,-4.773,-0.345,-1.271,-0.28,-2.338,0x00000003,0.0,0.0,0.0,0.0,0.002,-0.0,0.0,0.0,0.0,0.002,-0.0,0.0,0.0,0.0,-0.865,-0.064,0.0,0.0,-0.865,34.991,34.991,0.0,0.0,0.0,96.875,96.484,0.0,0.0,26.438,26.25,0.0,0.0,0.0,0.0,90.0,76.703,0.109,27.438,0x00000000,0x00000000,0x00000000,0.0,1246,1279,4.757,8.551,0.0,0.0,0.009,0.025,0.0,0.0,1.0,0.981,0.981,0.981,0.196,1.0,1.0,0.462,0.584,0.57,24.267,0x00000101,192.168.0.40,8080,255.255.255.0,192.168.0.1,0xFFFFFFFF,0xFFFFFFFF,0xFFFFFFFF,0x00000000,
2.90140390396,0x00000000,0x00000000,0x00000000,0x00000000,0x00000000,0x00000000,0x00000000,0x00000000,18.99,3,0x00000000,96.484,97.647,0.003,-0.088,-0.008,-0.03,-0.037,-4.783,-0.131,-1.236,-0.227,-1.646,0x00000003,0.0,0.0,-0.0,0.0,0.002,-0.0,0.0,0.0,0.0,0.002,-0.0,0.0,0.0,0.0,-0.75,0.14,0.0,0.0,-0.75,34.991,34.991,0.0,0.0,0.0,96.875,96.484,0.0,0.0,26.438,26.25,0.0,0.0,0.0,0.0,90.0,76.703,0.109,27.438,0x00000000,0x00000000,0x00000000,0.0,1246,1279,0.319,8.971,0.0,0.0,0.009,0.026,0.0,0.0,1.0,0.981,0.981,0.981,0.196,1.0,1.0,0.462,0.584,0.57,24.267,0x00000101,192.168.0.40,8080,255.255.255.0,192.168.0.1,0xFFFFFFFF,0xFFFFFFFF,0xFFFFFFFF,0x00000000,
2.95140385628,0x00000000,0x00000000,0x00000000,0x00000000,0x00000000,0x00000000,0x00000000,0x00000000,19.04,3,0x00000000,96.484,97.647,0.001,-0.088,-0.004,-0.013,-0.024,-4.781,0.273,-1.214,0.865,-0.258,0x00000003,0.0,0.0,-0.001,0.0,0.001,-0.0,0.0,0.0,0.0,0.002,-0.0,0.0,0.0,0.0,-0.763,0.025,0.0,0.0,-0.763,34.991,34.991,0.0,0.0,0.0,96.875,96.484,0.0,0.0,26.438,26.25,0.0,0.0,0.0,0.0,90.0,76.703,0.109,27.438,0x00000000,0x00000000,0x00000000,0.0,1246,1279,4.573,7.104,0.0,0.0,0.009,0.026,0.0,0.0,1.0,0.981,0.981,0.981,0.196,1.0,1.0,0.462,0.584,0.57,24.267,0x00000101,192.168.0.40,8080,255.255.255.0,192.168.0.1,0xFFFFFFFF,0xFFFFFFFF,0xFFFFFFFF,0x00000000,
3.00142598152,0x00000000,0x00000000,0x00000000,0x00000000,0x00000000,0x00000000,0x00000000,0x00000000,19.09,3,0x00000000,96.484,97.647,0.002,-0.088,-0.006,-0.013,-0.018,-4.779,-0.037,-1.204,-0.364,-0.253,0x00000003,0.0,0.0,0.004,0.0,0.001,-0.0,0.001,0.0,0.0,0.002,-0.0,0.0,0.0,0.0,-0.852,0.14,0.0,0.0,-0.852,34.991,34.991,0.0,0.0,0.0,96.875,96.484,0.0,0.0,26.438,26.25,0.0,0.0,0.0,0.0,90.0,76.703,0.109,27.438,0x00000000,0x00000000,0x00000000,0.0,1246,1279,2.817,9.449,0.0,0.0,0.009,0.026,0.0,0.0,1.0,0.981,0.981,0.981,0.196,1.0,1.0,0.462,0.584,0.57,24.267,0x00000101,192.168.0.40,8080,255.255.255.0,192.168.0.1,0xFFFFFFFF,0xFFFFFFFF,0xFFFFFFFF,0x00000000,
3.05157399178,0x00000000,0x00000000,0x00000000,0x00000000,0x00000000,0x00000000,0x00000000,0x00000000,19.14,3,0x00000000,96.484,97.647,0.001,-0.087,-0.017,-0.03,-0.043,-4.771,0.216,-1.191,-0.908,-0.952,0x00000003,0.0,0.0,-0.004,0.0,0.002,-0.0,0.0,0.0,0.0,0.002,-0.0,0.0,0.0,0.0,-0.75,0.025,0.0,0.0,-0.75,34.991,34.991,0.0,0.0,0.0,96.875,96.484,0.0,0.0,26.438,26.25,0.0,0.0,0.0,0.0,90.0,76.703,0.109,27.438,0x00000000,0x00000000,0x00000000,0.0,1246,1279,1.044,9.37,0.0,0.0,0.009,0.026,0.0,0.0,1.0,0.981,0.981,0.981,0.196,1.0,1.0,0.462,0.584,0.57,24.267,0x00000101,192.168.0.40,8080,255.255.255.0,192.168.0.1,0xFFFFFFFF,0xFFFFFFFF,0xFFFFFFFF,0x00000000,
3.10159301758,0x00000000,0x00000000,0x00000000,0x00000000,0x00000000,0x00000000,0x00000000,0x00000000,19.19,3,0x00000000,96.484,97.647,0.001,-0.088,-0.013,-0.026,-0.0,-4.769,-0.221,-1.214,-0.826,0.111,0x00000003,0.0,0.0,-0.001,-0.0,0.001,-0.0,0.0,0.0,0.0,0.002,-0.0,0.0,0.0,0.0,-0.941,0.025,0.0,0.0,-0.941,34.991,34.991,0.0,0.0,0.0,96.875,96.484,0.0,0.0,26.438,26.25,0.0,0.0,0.0,0.0,90.0,76.703,0.109,27.438,0x00000000,0x00000000,0x00000000,0.0,1246,1279,4.605,8.833,0.0,0.0,0.009,0.026,0.0,0.0,1.0,0.981,0.981,0.981,0.196,1.0,1.0,0.462,0.584,0.57,24.267,0x00000101,192.168.0.40,8080,255.255.255.0,192.168.0.1,0xFFFFFFFF,0xFFFFFFFF,0xFFFFFFFF,0x00000000,
3.151720047,0x00000000,0x00000000,0x00000000,0x00000000,0x00000000,0x00000000,0x00000000,0x00000000,19.24,3,0x00000000,96.484,97.647,0.001,-0.089,-0.007,-0.017,-0.018,-4.776,-0.296,-1.212,-0.128,-0.584,0x00000003,0.0,0.0,0.009,0.0,0.001,-0.0,0.001,0.0,0.0,0.002,-0.0,0.0,0.0,0.0,-0.75,0.14,0.0,0.0,-0.75,34.991,34.991,0.0,0.0,0.0,96.875,96.484,0.0,0.0,26.438,26.25,0.0,0.0,0.0,0.0,90.0,76.703,0.109,27.438,0x00000000,0x00000000,0x00000000,0.0,1246,1279,3.493,9.501,0.0,0.0,0.009,0.026,0.0,0.0,1.0,0.981,0.981,0.981,0.196,1.0,1.0,0.462,0.584,0.57,24.267,0x00000101,192.168.0.40,8080,255.255.255.0,192.168.0.1,0xFFFFFFFF,0xFFFFFFFF,0xFFFFFFFF,0x00000000,
3.20174002647,0x00000000,0x00000000,0x00000000,0x00000000,0x00000000,0x00000000,0x00000000,0x00000000,19.29,3,0x00000000,96.484,97.647,0.002,-0.087,-0.018,-0.03,-0.031,-4.772,-0.241,-1.209,-0.67,-1.284,0x00000003,0.0,0.0,-0.003,0.0,0.001,-0.0,0.0,0.0,0.0,0.002,-0.0,0.0,0.0,0.0,-0.826,0.229,0.0,0.0,-0.826,34.991,34.991,0.0,0.0,0.0,96.875,96.484,0.0,0.0,26.438,26.25,0.0,0.0,0.0,0.0,90.0,76.703,0.109,27.438,0x00000000,0x00000000,0x00000000,0.0,1246,1279,4.711,6.789,0.0,0.0,0.009,0.026,0.0,0.0,1.0,0.981,0.981,0.981,0.196,1.0,1.0,0.462,0.584,0.57,24.267,0x00000101,192.168.0.40,8080,255.255.255.0,192.168.0.1,0xFFFFFFFF,0xFFFFFFFF,0xFFFFFFFF,0x00000000,
3.25186896324,0x00000000,0x00000000,0x00000000,0x00000000,0x00000000,0x00000000,0x00000000,0x00000000,19.34,3,0x00000000,96.484,97.647,0.002,-0.088,-0.017,-0.012,-0.043,-4.776,-0.024,-1.224,-1.037,0.463,0x00000003,0.0,0.0,-0.0,0.0,0.001,-0.0,0.0,0.0,0.0,0.002,-0.0,0.0,0.0,0.0,-0.826,0.025,0.0,0.0,-0.826,34.991,34.991,0.0,0.0,0.0,96.875,96.484,0.0,0.0,26.438,26.25,0.0,0.0,0.0,0.0,90.0,76.703,0.109,27.438,0x00000000,0x00000000,0x00000000,0.0,1246,1279,-0.043,10.27,0.0,0.0,0.009,0.026,0.0,0.0,1.0,0.981,0.981,0.981,0.196,1.0,1.0,0.462,0.584,0.57,24.267,0x00000101,192.168.0.40,8080,255.255.255.0,192.168.0.1,0xFFFFFFFF,0xFFFFFFFF,0xFFFFFFFF,0x00000000,
3.3019118309,0x00000000,0x00000000,0x00000000,0x00000000,0x00000000,0x00000000,0x00000000,0x00000000,19.39,3,0x00000000,96.484,97.647,0.001,-0.087,-0.017,-0.03,-0.019,-4.785,0.068,-1.202,1.171,0.106,0x00000003,0.0,0.0,-0.012,-0.0,0.001,-0.001,0.0,0.0,0.0,0.002,-0.0,0.0,0.0,0.0,-0.865,0.051,0.0,0.0,-0.865,34.991,34.991,0.0,0.0,0.0,96.875,96.484,0.0,0.0,26.438,26.25,0.0,0.0,0.0,0.0,90.0,76.703,0.109,27.438,0x00000000,0x00000000,0x00000000,0.0,1246,1279,3.523,9.563,0.0,0.0,0.009,0.027,0.0,0.0,1.0,0.981,0.981,0.981,0.196,1.0,1.0,0.462,0.584,0.57,24.267,0x00000101,192.168.0.40,8080,255.255.255.0,192.168.0.1,0xFFFFFFFF,0xFFFFFFFF,0xFFFFFFFF,0x00000000,
3.35202693939,0x00000000,0x00000000,0x00000000,0x00000000,0x00000000,0x00000000,0x00000000,0x00000000,19.44,3,0x00000000,96.484,97.647,0.001,-0.087,-0.016,-0.008,-0.013,-4.79,-0.341,-1.191,-0.334,-0.225,0x00000003,0.0,0.0,0.0,-0.0,0.001,-0.0,0.0,0.0,0.0,0.002,-0.0,0.0,0.0,0.0,0.407,-0.064,0.0,0.0,0.407,34.991,34.991,0.0,0.0,0.0,96.875,96.484,0.0,0.0,26.438,26.25,0.0,0.0,0.0,0.0,90.0,76.703,0.109,27.438,0x00000000,0x00000000,0x00000000,0.0,1246,1279,3.677,13.346,0.0,0.0,0.009,0.027,0.0,0.0,1.0,0.981,0.981,0.981,0.196,1.0,1.0,0.462,0.584,0.57,24.267,0x00000101,192.168.0.40,8080,255.255.255.0,192.168.0.1,0xFFFFFFFF,0xFFFFFFFF,0xFFFFFFFF,0x00000000,
3.40207600594,0x00000000,0x00000000,0x00000000,0x00000000,0x00000000,0x00000000,0x00000000,0x00000000,19.49,3,0x00000000,96.484,97.647,0.002,-0.089,-0.01,-0.043,-0.037,-4.801,-0.033,-1.16,0.608,-0.932,0x00000003,0.0,0.0,-0.004,0.0,0.002,-0.001,0.001,0.0,0.0,0.002,-0.0,0.0,0.0,0.0,-0.407,-0.559,0.0,0.0,-0.559,34.991,34.991,0.0,0.0,0.0,96.875,96.484,0.0,0.0,26.438,26.25,0.0,0.0,0.0,0.0,90.0,76.703,0.109,27.438,0x00000000,0x00000000,0x00000000,0.0,1246,1279,1.354,9.696,0.0,0.0,0.009,0.027,0.0,0.0,1.0,0.981,0.981,0.981,0.196,1.0,1.0,0.462,0.584,0.57,24.267,0x00000101,192.168.0.40,8080,255.255.255.0,192.168.0.1,0xFFFFFFFF,0xFFFFFFFF,0xFFFFFFFF,0x00000000,
3.4522049427,0x00000000,0x00000000,0x00000000,0x00000000,0x00000000,0x00000000,0x00000000,0x00000000,19.54,3,0x00000000,96.484,97.647,0.001,-0.087,-0.012,-0.004,-0.055,-4.816,-0.141,-1.145,0.301,1.497,0x00000003,0.0,0.0,-0.006,0.0,0.003,-0.001,0.001,0.0,0.0,0.002,-0.0,0.0,0.0,0.0,-1.081,0.114,0.0,0.0,-1.081,34.991,34.991,0.0,0.0,0.0,96.875,96.484,0.0,0.0,26.438,26.25,0.0,0.0,0.0,0.0,90.0,76.703,0.109,27.438,0x00000000,0x00000000,0x00000000,0.0,1246,1279,5.444,9.538,0.0,0.0,0.009,0.027,0.0,0.0,1.0,0.981,0.981,0.981,0.196,1.0,1.0,0.462,0.584,0.57,24.267,0x00000101,192.168.0.40,8080,255.255.255.0,192.168.0.1,0xFFFFFFFF,0xFFFFFFFF,0xFFFFFFFF,0x00000000,
3.50224900246,0x00000000,0x00000000,0x00000000,0x00000000,0x00000000,0x00000000,0x00000000,0x00000000,19.59,3,0x00000000,96.484,97.647,0.002,-0.088,-0.019,-0.017,-0.043,-4.818,-0.202,-1.119,-0.792,0.12,0x00000003,0.0,0.0,0.019,-0.0,0.002,0.001,0.001,0.0,0.0,0.002,-0.0,0.0,0.0,0.0,-0.865,0.14,0.0,0.0,-0.865,34.991,34.991,0.0,0.0,0.0,96.875,96.484,0.0,0.0,26.438,26.25,0.0,0.0,0.0,0.0,90.0,76.703,0.109,27.438,0x00000000,0x00000000,0x00000000,0.0,1246,1279,1.748,9.194,0.0,0.0,0.009,0.027,0.0,0.0,1.0,0.981,0.981,0.981,0.196,1.0,1.0,0.462,0.584,0.57,24.267,0x00000101,192.168.0.40,8080,255.255.255.0,192.168.0.1,0xFFFFFFFF,0xFFFFFFFF,0xFFFFFFFF,0x00000000,
3.55238485336,0x00000000,0x00000000,0x00000000,0x00000000,0x00000000,0x00000000,0x00000000,0x00000000,19.64,3,0x00000000,96.484,97.647,0.001,-0.087,-0.021,-0.025,-0.025,-4.81,0.138,-1.086,0.277,1.158,0x00000003,0.0,0.0,0.005,-0.0,0.002,-0.001,0.001,0.0,0.0,0.002,-0.0,0.0,0.0,0.0,-0.865,0.025,0.0,0.0,-0.865,34.991,34.991,0.0,0.0,0.0,96.875,96.484,0.0,0.0,26.438,26.25,0.0,0.0,0.0,0.0,90.0,76.703,0.109,27.438,0x00000000,0x00000000,0x00000000,0.0,1246,1279,0.998,9.517,0.0,0.0,0.009,0.027,0.0,0.0,1.0,0.981,0.981,0.981,0.196,1.0,1.0,0.462,0.584,0.57,24.267,0x00000101,192.168.0.40,8080,255.255.255.0,192.168.0.1,0xFFFFFFFF,0xFFFFFFFF,0xFFFFFFFF,0x00000000,
3.60242605209,0x00000000,0x00000000,0x00000000,0x00000000,0x00000000,0x00000000,0x00000000,0x00000000,19.69,3,0x00000000,96.484,97.647,0.001,-0.088,-0.014,-0.017,-0.012,-4.826,-0.511,-1.08,-0.311,-0.224,0x00000003,0.0,0.0,-0.004,-0.0,0.002,-0.001,0.0,0.0,0.0,0.002,-0.0,0.0,0.0,0.0,-0.826,0.025,0.0,0.0,-0.826,34.991,34.991,0.0,0.0,0.0,96.875,96.484,0.0,0.0,26.438,26.25,0.0,0.0,0.0,0.0,90.0,76.703,0.109,27.438,0x00000000,0x00000000,0x00000000,0.0,1246,1279,-1.109,8.569,0.0,0.0,0.009,0.027,0.0,0.0,1.0,0.981,0.981,0.981,0.196,1.0,1.0,0.462,0.584,0.57,24.267,0x00000101,192.168.0.40,8080,255.255.255.0,192.168.0.1,0xFFFFFFFF,0xFFFFFFFF,0xFFFFFFFF,0x00000000,
3.6527068615,0x00000000,0x00000000,0x00000000,0x00000000,0x00000000,0x00000000,0x00000000,0x00000000,19.74,3,0x00000000,96.484,97.647,0.001,-0.087,-0.021,-0.034,-0.025,-4.817,0.448,-1.061,-0.345,-0.575,0x00000003,0.0,0.0,0.002,-0.0,0.002,-0.001,0.0,0.0,0.0,0.002,-0.0,0.0,0.0,0.0,-0.941,-0.064,0.0,0.0,-0.941,34.991,34.991,0.0,0.0,0.0,96.875,96.484,0.0,0.0,26.438,26.25,0.0,0.0,0.0,0.0,90.0,76.703,0.109,27.438,0x00000000,0x00000000,0x00000000,0.0,1246,1279,4.512,7.286,0.0,0.0,0.009,0.027,0.0,0.0,1.0,0.981,0.981,0.981,0.196,1.0,1.0,0.462,0.584,0.57,24.267,0x00000101,192.168.0.40,8080,255.255.255.0,192.168.0.1,0xFFFFFFFF,0xFFFFFFFF,0xFFFFFFFF,0x00000000,
3.70272088051,0x00000000,0x00000000,0x00000000,0x00000000,0x00000000,0x00000000,0x00000000,0x00000000,19.79,3,0x00000000,96.484,97.647,0.001,-0.088,-0.014,-0.034,-0.012,-4.826,0.108,-1.064,-0.091,-0.569,0x00000003,0.0,0.0,-0.006,-0.0,0.002,-0.001,0.0,0.0,0.0,0.002,-0.0,0.0,0.0,0.0,-0.814,-0.064,0.0,0.0,-0.814,34.991,34.991,0.0,0.0,0.0,96.875,96.484,0.0,0.0,26.438,26.25,0.0,0.0,0.0,0.0,90.0,76.703,0.109,27.438,0x00000000,0x00000000,0x00000000,0.0,1246,1279,4.394,9.902,0.0,0.0,0.009,0.028,0.0,0.0,1.0,0.981,0.981,0.981,0.196,1.0,1.0,0.462,0.584,0.57,24.267,0x00000101,192.168.0.40,8080,255.255.255.0,192.168.0.1,0xFFFFFFFF,0xFFFFFFFF,0xFFFFFFFF,0x00000000,
3.75278091431,0x00000000,0x00000000,0x00000000,0x00000000,0x00000000,0x00000000,0x00000000,0x00000000,19.84,3,0x00000000,96.484,97.647,0.002,-0.088,-0.009,-0.017,-0.037,-4.828,-0.24,-1.059,0.386,-0.908,0x00000003,0.0,0.0,-0.003,-0.0,0.002,-0.001,0.0,0.0,0.0,0.002,-0.0,0.0,0.0,0.0,-0.865,0.14,0.0,0.0,-0.865,34.991,34.991,0.0,0.0,0.0,96.875,96.484,0.0,0.0,26.438,26.25,0.0,0.0,0.0,0.0,90.0,76.703,0.109,27.438,0x00000000,0x00000000,0x00000000,0.0,1246,1279,4.389,7.747,0.0,0.0,0.009,0.028,0.0,0.0,1.0,0.981,0.981,0.981,0.196,1.0,1.0,0.462,0.584,0.57,24.267,0x00000101,192.168.0.40,8080,255.255.255.0,192.168.0.1,0xFFFFFFFF,0xFFFFFFFF,0xFFFFFFFF,0x00000000,
3.80302786827,0x00000000,0x00000000,0x00000000,0x00000000,0x00000000,0x00000000,0x00000000,0x00000000,19.89,3,0x00000000,96.484,97.647,0.001,-0.087,-0.008,-0.034,-0.006,-4.84,-0.508,-1.047,-0.844,-0.91,0x00000003,0.0,0.0,0.008,-0.0,0.002,-0.0,0.001,0.0,0.0,0.002,-0.0,0.0,0.0,0.0,-0.712,0.051,0.0,0.0,-0.712,34.991,34.991,0.0,0.0,0.0,96.875,96.484,0.0,0.0,26.438,26.25,0.0,0.0,0.0,0.0,90.0,76.703,0.109,27.438,0x00000000,0x00000000,0x00000000,0.0,1246,1279,0.303,7.241,0.0,0.0,0.009,0.028,0.0,0.0,1.0,0.981,0.981,0.981,0.196,1.0,1.0,0.462,0.584,0.57,24.267,0x00000101,192.168.0.40,8080,255.255.255.0,192.168.0.1,0xFFFFFFFF,0xFFFFFFFF,0xFFFFFFFF,0x00000000,
3.85301399231,0x00000000,0x00000000,0x00000000,0x00000000,0x00000000,0x00000000,0x00000000,0x00000000,19.94,3,0x00000000,96.484,97.647,0.001,-0.088,-0.013,-0.008,-0.0,-4.847,-0.322,-1.027,-0.622,-1.253,0x00000003,0.0,0.0,-0.0,-0.0,0.001,-0.0,0.0,0.0,0.0,0.002,-0.0,0.0,0.0,0.0,-0.877,-0.064,0.0,0.0,-0.877,34.991,34.991,0.0,0.0,0.0,96.875,96.484,0.0,0.0,26.438,26.25,0.0,0.0,0.0,0.0,90.0,76.703,0.109,27.438,0x00000000,0x00000000,0x00000000,0.0,1246,1279,0.126,7.647,0.0,0.0,0.009,0.028,0.0,0.0,1.0,0.981,0.981,0.981,0.196,1.0,1.0,0.462,0.584,0.57,24.267,0x00000101,192.168.0.40,8080,255.255.255.0,192.168.0.1,0xFFFFFFFF,0xFFFFFFFF,0xFFFFFFFF,0x00000000,
3.90299606323,0x00000000,0x00000000,0x00000000,0x00000000,0x00000000,0x00000000,0x00000000,0x00000000,19.99,3,0x00000000,96.484,97.647,0.003,-0.087,-0.011,-0.021,-0.012,-4.857,0.241,-0.989,0.497,0.477,0x00000003,0.0,0.0,0.005,0.0,0.001,0.001,0.0,0.0,0.0,0.002,-0.0,0.0,0.0,0.0,-0.75,0.14,0.0,0.0,-0.75,34.991,34.991,0.0,0.0,0.0,96.875,96.484,0.0,0.0,26.438,26.25,0.0,0.0,0.0,0.0,90.0,76.703,0.109,27.438,0x00000000,0x00000000,0x00000000,0.0,1246,1279,0.928,8.933,0.0,0.0,0.01,0.028,0.0,0.0,1.0,0.981,0.981,0.981,0.196,1.0,1.0,0.462,0.584,0.57,24.267,0x00000101,192.168.0.40,8080,255.255.255.0,192.168.0.1,0xFFFFFFFF,0xFFFFFFFF,0xFFFFFFFF,0x00000000,
3.95331096649,0x00000000,0x00000000,0x00000000,0x00000000,0x00000000,0x00000000,0x00000000,0x00000000,20.04,3,0x00000000,96.484,97.647,0.0,-0.087,-0.023,-0.017,-0.019,-4.847,0.252,-0.984,-0.047,-0.218,0x00000003,0.0,0.0,-0.003,0.0,0.001,0.0,0.0,0.0,0.0,0.002,-0.0,0.0,0.0,0.0,-0.75,-0.064,0.0,0.0,-0.75,34.991,34.991,0.0,0.0,0.0,96.875,96.484,0.0,0.0,26.438,26.25,0.0,0.0,0.0,0.0,90.0,76.703,0.109,27.438,0x00000000,0x00000000,0x00000000,0.0,1246,1279,-1.112,8.882,0.0,0.0,0.01,0.028,0.0,0.0,1.0,0.981,0.981,0.981,0.196,1.0,1.0,0.462,0.584,0.57,24.267,0x00000101,192.168.0.40,8080,255.255.255.0,192.168.0.1,0xFFFFFFFF,0xFFFFFFFF,0xFFFFFFFF,0x00000000,
4.00315499306,0x00000000,0x00000000,0x00000000,0x00000000,0x00000000,0x00000000,0x00000000,0x00000000,20.09,3,0x00000000,96.484,97.647,0.001,-0.088,-0.008,-0.021,-0.0,-4.86,0.497,-0.955,-0.205,-2.305,0x00000003,0.0,0.0,-0.0,0.0,0.002,-0.001,0.001,0.0,0.0,0.002,-0.0,0.0,0.0,0.0,-0.852,0.114,0.0,0.0,-0.852,34.991,34.991,0.0,0.0,0.0,96.875,96.484,0.0,0.0,26.438,26.25,0.0,0.0,0.0,0.0,90.0,76.703,0.109,27.438,0x00000000,0x00000000,0x00000000,0.0,1246,1279,4.512,8.89,0.0,0.0,0.01,0.028,0.0,0.0,1.0,0.981,0.981,0.981,0.196,1.0,1.0,0.462,0.584,0.57,24.267,0x00000101,192.168.0.40,8080,255.255.255.0,192.168.0.1,0xFFFFFFFF,0xFFFFFFFF,0xFFFFFFFF,0x00000000,
4.05331802368,0x00000000,0x00000000,0x00000000,0x00000000,0x00000000,0x00000000,0x00000000,0x00000000,20.14,3,0x00000000,96.484,97.647,0.001,-0.088,-0.011,-0.021,-0.025,-4.854,-0.123,-0.955,0.082,-1.955,0x00000003,0.0,0.0,-0.002,0.0,0.003,-0.001,0.001,0.0,0.0,0.002,-0.0,0.0,0.0,0.0,-0.75,0.14,0.0,0.0,-0.75,34.991,34.991,0.0,0.0,0.0,96.875,96.484,0.0,0.0,26.438,26.25,0.0,0.0,0.0,0.0,90.0,76.703,0.109,27.438,0x00000000,0x00000000,0x00000000,0.0,1246,1279,4.755,7.822,0.0,0.0,0.01,0.028,0.0,0.0,1.0,0.981,0.981,0.981,0.196,1.0,1.0,0.462,0.584,0.57,24.267,0x00000101,192.168.0.40,8080,255.255.255.0,192.168.0.1,0xFFFFFFFF,0xFFFFFFFF,0xFFFFFFFF,0x00000000,
4.10327506065,0x00000000,0x00000000,0x00000000,0x00000000,0x00000000,0x00000000,0x00000000,0x00000000,20.19,3,0x00000000,96.484,97.647,0.001,-0.088,-0.002,-0.021,-0.018,-4.86,-0.319,-0.936,-0.659,-1.941,0x00000003,0.0,0.0,0.006,-0.0,0.003,-0.0,0.001,0.0,0.0,0.002,-0.0,0.0,0.0,0.0,-0.318,-0.394,0.0,0.0,-0.394,34.991,34.991,0.0,0.0,0.0,96.875,96.484,0.0,0.0,26.438,26.25,0.0,0.0,0.0,0.0,90.0,76.703,0.109,27.438,0x00000000,0x00000000,0x00000000,0.0,1246,1279,3.5,13.745,0.0,0.0,0.01,0.029,0.0,0.0,1.0,0.981,0.981,0.981,0.196,1.0,1.0,0.462,0.584,0.57,24.267,0x00000101,192.168.0.40,8080,255.255.255.0,192.168.0.1,0xFFFFFFFF,0xFFFFFFFF,0xFFFFFFFF,0x00000000,
4.15339589119,0x00000000,0x00000000,0x00000000,0x00000000,0x00000000,0x00000000,0x00000000,0x00000000,20.24,3,0x00000000,96.484,97.647,0.002,-0.088,-0.005,-0.008,-0.024,-4.863,-0.146,-0.913,0.468,-0.213,0x00000003,0.0,0.0,-0.004,0.0,0.002,-0.001,0.0,0.0,0.0,0.002,-0.0,0.0,0.0,0.0,-1.284,0.763,0.0,0.0,-1.284,34.991,34.991,0.0,0.0,0.0,96.875,96.484,0.0,0.0,26.438,26.25,0.0,0.0,0.0,0.0,90.0,76.703,0.109,27.438,0x00000000,0x00000000,0x00000000,0.0,1246,1279,4.711,10.788,0.0,0.0,0.01,0.029,0.0,0.0,1.0,0.981,0.981,0.981,0.196,1.0,1.0,0.462,0.584,0.57,24.267,0x00000101,192.168.0.40,8080,255.255.255.0,192.168.0.1,0xFFFFFFFF,0xFFFFFFFF,0xFFFFFFFF,0x00000000,
4.20342302322,0x00000000,0x00000000,0x00000000,0x00000000,0x00000000,0x00000000,0x00000000,0x00000000,20.29,3,0x00000000,96.484,97.647,0.001,-0.088,-0.007,-0.03,-0.018,-4.874,-0.212,-0.893,-0.301,-0.551,0x00000003,0.0,0.0,0.0,-0.0,0.002,-0.0,0.0,0.0,0.0,0.002,-0.0,0.0,0.0,0.0,-0.865,0.114,0.0,0.0,-0.865,34.991,34.991,0.0,0.0,0.0,96.875,96.484,0.0,0.0,26.438,26.25,0.0,0.0,0.0,0.0,90.0,76.703,0.109,27.438,0x00000000,0x00000000,0x00000000,0.0,1246,1279,2.391,9.609,0.0,0.0,0.01,0.029,0.0,0.0,1.0,0.981,0.981,0.981,0.196,1.0,1.0,0.462,0.584,0.57,24.267,0x00000101,192.168.0.40,8080,255.255.255.0,192.168.0.1,0xFFFFFFFF,0xFFFFFFFF,0xFFFFFFFF,0x00000000,
4.25367498398,0x00000000,0x00000000,0x00000000,0x00000000,0x00000000,0x00000000,0x00000000,0x00000000,20.34,3,0x00000000,96.484,97.647,0.002,-0.088,-0.015,-0.039,-0.0,-4.864,0.348,-0.904,-0.498,0.141,0x00000003,0.0,0.0,0.005,0.0,0.002,0.0,0.001,0.0,0.0,0.002,-0.0,0.0,0.0,0.0,-0.852,0.025,0.0,0.0,-0.852,34.991,34.991,0.0,0.0,0.0,96.875,96.484,0.0,0.0,26.438,26.25,0.0,0.0,0.0,0.0,90.0,76.703,0.109,27.438,0x00000000,0x00000000,0x00000000,0.0,1246,1279,4.305,6.02,0.0,0.0,0.01,0.029,0.0,0.0,1.0,0.981,0.981,0.981,0.196,1.0,1.0,0.462,0.584,0.57,24.267,0x00000101,192.168.0.40,8080,255.255.255.0,192.168.0.1,0xFFFFFFFF,0xFFFFFFFF,0xFFFFFFFF,0x00000000,
4.30358290672,0x00000000,0x00000000,0x00000000,0x00000000,0x00000000,0x00000000,0x00000000,0x00000000,20.39,3,0x00000000,96.484,97.647,0.001,-0.088,-0.013,-0.017,-0.025,-4.864,0.323,-0.918,0.274,0.491,0x00000003,0.0,0.0,-0.008,0.0,0.001,-0.001,0.0,0.0,0.0,0.002,-0.0,0.0,0.0,0.0,-0.75,0.114,0.0,0.0,-0.75,34.991,34.991,0.0,0.0,0.0,96.875,96.484,0.0,0.0,26.438,26.25,0.0,0.0,0.0,0.0,90.0,76.703,0.109,27.438,0x00000000,0x00000000,0x00000000,0.0,1246,1279,2.374,8.243,0.0,0.0,0.01,0.029,0.0,0.0,1.0,0.981,0.981,0.981,0.196,1.0,1.0,0.462,0.584,0.57,24.267,0x00000101,192.168.0.40,8080,255.255.255.0,192.168.0.1,0xFFFFFFFF,0xFFFFFFFF,0xFFFFFFFF,0x00000000,
4.35404896736,0x00000000,0x00000000,0x00000000,0x00000000,0x00000000,0x00000000,0x00000000,0x00000000,20.44,3,0x00000000,96.484,97.647,0.001,-0.089,-0.008,-0.017,-0.03,-4.866,0.023,-0.916,-0.293,-0.548,0x00000003,0.0,0.0,-0.009,-0.0,0.002,-0.001,0.0,0.0,0.0,0.002,-0.0,0.0,0.0,0.0,-0.75,0.025,0.0,0.0,-0.75,34.991,34.991,0.0,0.0,0.0,96.875,96.484,0.0,0.0,26.438,26.25,0.0,0.0,0.0,0.0,90.0,76.703,0.109,27.438,0x00000000,0x00000000,0x00000000,0.0,1246,1279,-1.05,6.294,0.0,0.0,0.01,0.029,0.0,0.0,1.0,0.981,0.981,0.981,0.196,1.0,1.0,0.462,0.584,0.57,24.267,0x00000101,192.168.0.40,8080,255.255.255.0,192.168.0.1,0xFFFFFFFF,0xFFFFFFFF,0xFFFFFFFF,0x00000000,
4.40376496315,0x00000000,0x00000000,0x00000000,0x00000000,0x00000000,0x00000000,0x00000000,0x00000000,20.49,3,0x00000000,96.484,97.647,0.003,-0.087,-0.019,-0.021,-0.031,-4.872,-0.004,-0.924,-0.641,-1.944,0x00000003,0.0,0.0,0.001,-0.0,0.002,-0.0,0.0,0.0,0.0,0.002,-0.0,0.0,0.0,0.0,-0.865,0.025,0.0,0.0,-0.865,34.991,34.991,0.0,0.0,0.0,96.875,96.484,0.0,0.0,26.438,26.25,0.0,0.0,0.0,0.0,90.0,76.703,0.109,27.438,0x00000000,0x00000000,0x00000000,0.0,1246,1279,2.144,6.839,0.0,0.0,0.01,0.029,0.0,0.0,1.0,0.981,0.981,0.981,0.196,1.0,1.0,0.462,0.584,0.57,24.267,0x00000101,192.168.0.40,8080,255.255.255.0,192.168.0.1,0xFFFFFFFF,0xFFFFFFFF,0xFFFFFFFF,0x00000000,
4.45386004448,0x00000000,0x00000000,0x00000000,0x00000000,0x00000000,0x00000000,0x00000000,0x00000000,20.54,3,0x00000000,96.484,97.647,0.002,-0.087,-0.018,-0.043,-0.007,-4.877,-0.26,-0.917,0.21,-0.533,0x00000003,0.0,0.0,0.0,0.0,0.001,0.0,0.0,0.0,0.0,0.002,-0.0,0.0,0.0,0.0,-0.75,0.14,0.0,0.0,-0.75,34.991,34.991,0.0,0.0,0.0,96.875,96.484,0.0,0.0,26.438,26.25,0.0,0.0,0.0,0.0,90.0,76.703,0.109,27.438,0x00000000,0x00000000,0x00000000,0.0,1246,1279,2.28,5.674,0.0,0.0,0.01,0.029,0.0,0.0,1.0,0.981,0.981,0.981,0.196,1.0,1.0,0.462,0.584,0.57,24.267,0x00000101,192.168.0.40,8080,255.255.255.0,192.168.0.1,0xFFFFFFFF,0xFFFFFFFF,0xFFFFFFFF,0x00000000,
